header: 
  seq: 138
  stamp: 
    secs: 1558952414
    nsecs: 905106176
  frame_id: map
pose: 
  pose: 
    position: 
      x: 7.27715965808
      y: -15.1304750587
      z: 0.0
    orientation: 
      x: 0.0
      y: 0.0
      z: -0.701312578841
      w: 0.712853888787
  covariance: [0.0081025898940009396, 0.0, 0.0, 0.0, 0.0, 0.0, 0.0, 0.0, 0.0, 0.0, 0.0, 0.0, 0.0, 0.0, 0.0, 0.0, 0.0, 0.0, 0.0, 0.0, 0.0, 0.0, 0.0, 0.0, 0.0, 0.0, 0.0, 0.0, 0.0055467977130744797, -0.00010447300639292998, 0.0, 0.0, 0.0, 0.0, -0.00010447300639292998, 0.024252125421389444]
---
header: 
  seq: 138
  stamp: 
    secs: 1558952414
    nsecs: 905106176
  frame_id: map
pose: 
  pose: 
    position: 
      x: 7.27715965808
      y: -15.1304750587
      z: 0.0
    orientation: 
      x: 0.0
      y: 0.0
      z: -0.701312578841
      w: 0.712853888787
  covariance: [0.0081025898940009396, 0.0, 0.0, 0.0, 0.0, 0.0, 0.0, 0.0, 0.0, 0.0, 0.0, 0.0, 0.0, 0.0, 0.0, 0.0, 0.0, 0.0, 0.0, 0.0, 0.0, 0.0, 0.0, 0.0, 0.0, 0.0, 0.0, 0.0, 0.0055467977130744797, -0.00010447300639292998, 0.0, 0.0, 0.0, 0.0, -0.00010447300639292998, 0.024252125421389444]
---
header: 
  seq: 139
  stamp: 
    secs: 1558953151
    nsecs: 116717965
  frame_id: map
pose: 
  pose: 
    position: 
      x: 7.26703033384
      y: -14.7155365568
      z: 0.0
    orientation: 
      x: 0.0
      y: 0.0
      z: -0.695130425859
      w: 0.718883642216
  covariance: [0.0076145846948772042, 0.0, 0.0, 0.0, 0.0, 0.0, 0.0, 0.0, 0.0, 0.0, 0.0, 0.0, 0.0, 0.0, 0.0, 0.0, 0.0, 0.0, 0.0, 0.0, 0.0, 0.0, 0.0, 0.0, 0.0, 0.0, 0.0, 0.0, 0.0047148051110325684, 0.00014480956331658866, 0.0, 0.0, 0.0, 0.0, 0.00014480956331658866, 0.016140362356552702]
---
header: 
  seq: 140
  stamp: 
    secs: 1558953152
    nsecs: 510978821
  frame_id: map
pose: 
  pose: 
    position: 
      x: 7.25184257812
      y: -14.2963605421
      z: 0.0
    orientation: 
      x: 0.0
      y: 0.0
      z: -0.69001727649
      w: 0.723792897275
  covariance: [0.0073983636753494498, 0.0, 0.0, 0.0, 0.0, 0.0, 0.0, 0.0, 0.0, 0.0, 0.0, 0.0, 0.0, 0.0, 0.0, 0.0, 0.0, 0.0, 0.0, 0.0, 0.0, 0.0, 0.0, 0.0, 0.0, 0.0, 0.0, 0.0, 0.0040611983909068956, 0.00017415855429186484, 0.0, 0.0, 0.0, 0.0, 0.00017415855429186484, 0.013511097940863408]
---
header: 
  seq: 141
  stamp: 
    secs: 1558953153
    nsecs: 894338238
  frame_id: map
pose: 
  pose: 
    position: 
      x: 7.22578925449
      y: -13.8880214041
      z: 0.0
    orientation: 
      x: 0.0
      y: 0.0
      z: -0.689855891837
      w: 0.723946716615
  covariance: [0.007043849646571676, 0.0, 0.0, 0.0, 0.0, 0.0, 0.0, 0.0, 0.0, 0.0, 0.0, 0.0, 0.0, 0.0, 0.0, 0.0, 0.0, 0.0, 0.0, 0.0, 0.0, 0.0, 0.0, 0.0, 0.0, 0.0, 0.0, 0.0, 0.0039576553760297742, 0.00042580954793307356, 0.0, 0.0, 0.0, 0.0, 0.00042580954793307356, 0.0136912057510283]
---
header: 
  seq: 142
  stamp: 
    secs: 1558953155
    nsecs: 296199721
  frame_id: map
pose: 
  pose: 
    position: 
      x: 7.21070963227
      y: -13.4677032156
      z: 0.0
    orientation: 
      x: 0.0
      y: 0.0
      z: -0.691088980576
      w: 0.722769687332
  covariance: [0.0063173036320762427, 0.0, 0.0, 0.0, 0.0, 0.0, 0.0, 0.0, 0.0, 0.0, 0.0, 0.0, 0.0, 0.0, 0.0, 0.0, 0.0, 0.0, 0.0, 0.0, 0.0, 0.0, 0.0, 0.0, 0.0, 0.0, 0.0, 0.0, 0.0038098831448203367, 0.00068057365066405905, 0.0, 0.0, 0.0, 0.0, 0.00068057365067826991, 0.015941864389440175]
---
header: 
  seq: 143
  stamp: 
    secs: 1558953159
    nsecs: 893476398
  frame_id: map
pose: 
  pose: 
    position: 
      x: 7.20065257454
      y: -13.3414399181
      z: 0.0
    orientation: 
      x: 0.0
      y: 0.0
      z: -0.96534888822
      w: 0.260962687012
  covariance: [0.011648599967250255, 0.0, 0.0, 0.0, 0.0, 0.0, 0.0, 0.0, 0.0, 0.0, 0.0, 0.0, 0.0, 0.0, 0.0, 0.0, 0.0, 0.0, 0.0, 0.0, 0.0, 0.0, 0.0, 0.0, 0.0, 0.0, 0.0, 0.0, 0.0089639930948665972, 0.0015712029273169843, 0.0, 0.0, 0.0, 0.0, 0.0015712029273169843, 0.016515570314062613]
---
header: 
  seq: 144
  stamp: 
    secs: 1558953161
    nsecs: 981864851
  frame_id: map
pose: 
  pose: 
    position: 
      x: 7.16989003463
      y: -13.3129814576
      z: 0.0
    orientation: 
      x: 0.0
      y: 0.0
      z: 0.963548253904
      w: 0.267534600378
  covariance: [0.0095981881713409316, 0.0, 0.0, 0.0, 0.0, 0.0, 0.0, 0.0, 0.0, 0.0, 0.0, 0.0, 0.0, 0.0, 0.0, 0.0, 0.0, 0.0, 0.0, 0.0, 0.0, 0.0, 0.0, 0.0, 0.0, 0.0, 0.0, 0.0, 0.0083557429996641529, 0.00094736472168309882, 0.0, 0.0, 0.0, 0.0, 0.00094736472168309882, 0.015678459116670852]
---
header: 
  seq: 145
  stamp: 
    secs: 1558953163
    nsecs: 558392257
  frame_id: map
pose: 
  pose: 
    position: 
      x: 6.87211448037
      y: -12.8802192016
      z: 0.0
    orientation: 
      x: 0.0
      y: 0.0
      z: 0.784333300965
      w: 0.620339643258
  covariance: [0.0094616475187304806, 0.0, 0.0, 0.0, 0.0, 0.0, 0.0, 0.0, 0.0, 0.0, 0.0, 0.0, 0.0, 0.0, 0.0, 0.0, 0.0, 0.0, 0.0, 0.0, 0.0, 0.0, 0.0, 0.0, 0.0, 0.0, 0.0, 0.0, 0.010670238540242032, 0.0015447452019321393, 0.0, 0.0, 0.0, 0.0, 0.0015447452019463502, 0.018964386795581989]
---
header: 
  seq: 146
  stamp: 
    secs: 1558953164
    nsecs: 771579867
  frame_id: map
pose: 
  pose: 
    position: 
      x: 6.89904978767
      y: -12.4462340363
      z: 0.0
    orientation: 
      x: 0.0
      y: 0.0
      z: 0.553453453989
      w: 0.83288010798
  covariance: [0.0080825427101362032, 0.0, 0.0, 0.0, 0.0, 0.0, 0.0, 0.0, 0.0, 0.0, 0.0, 0.0, 0.0, 0.0, 0.0, 0.0, 0.0, 0.0, 0.0, 0.0, 0.0, 0.0, 0.0, 0.0, 0.0, 0.0, 0.0, 0.0, 0.011270661024420182, 0.0027117051357971882, 0.0, 0.0, 0.0, 0.0, 0.0027117051357971882, 0.022335689944097108]
---
header: 
  seq: 147
  stamp: 
    secs: 1558953167
    nsecs: 96384368
  frame_id: map
pose: 
  pose: 
    position: 
      x: 7.21266885091
      y: -12.2726387827
      z: 0.0
    orientation: 
      x: 0.0
      y: 0.0
      z: 0.0503400155737
      w: 0.998732137679
  covariance: [0.0067583719902679319, 0.0, 0.0, 0.0, 0.0, 0.0, 0.0, 0.0, 0.0, 0.0, 0.0, 0.0, 0.0, 0.0, 0.0, 0.0, 0.0, 0.0, 0.0, 0.0, 0.0, 0.0, 0.0, 0.0, 0.0, 0.0, 0.0, 0.0, 0.010632677967533751, 0.0018308057942236194, 0.0, 0.0, 0.0, 0.0, 0.0018308057942236194, 0.023308621470224646]
---
header: 
  seq: 148
  stamp: 
    secs: 1558953168
    nsecs: 45643135
  frame_id: map
pose: 
  pose: 
    position: 
      x: 7.66994548346
      y: -12.2826384478
      z: 0.0
    orientation: 
      x: 0.0
      y: 0.0
      z: -0.0445204032701
      w: 0.999008475286
  covariance: [0.0053184811725509188, 0.0, 0.0, 0.0, 0.0, 0.0, 0.0, 0.0, 0.0, 0.0, 0.0, 0.0, 0.0, 0.0, 0.0, 0.0, 0.0, 0.0, 0.0, 0.0, 0.0, 0.0, 0.0, 0.0, 0.0, 0.0, 0.0, 0.0, 0.010458759783313969, -0.00051818466751022622, 0.0, 0.0, 0.0, 0.0, -0.00051818466753864793, 0.020513151198468336]
---
header: 
  seq: 149
  stamp: 
    secs: 1558953168
    nsecs: 741161471
  frame_id: map
pose: 
  pose: 
    position: 
      x: 8.14758872417
      y: -12.3366594088
      z: 0.0
    orientation: 
      x: 0.0
      y: 0.0
      z: -0.0410710085589
      w: 0.999156230154
  covariance: [0.0042357919563043613, 0.0, 0.0, 0.0, 0.0, 0.0, 0.0, 0.0, 0.0, 0.0, 0.0, 0.0, 0.0, 0.0, 0.0, 0.0, 0.0, 0.0, 0.0, 0.0, 0.0, 0.0, 0.0, 0.0, 0.0, 0.0, 0.0, 0.0, 0.011246894262668299, -0.0017135652084188898, 0.0, 0.0, 0.0, 0.0, -0.0017135652084331007, 0.018301097485767477]
---
header: 
  seq: 150
  stamp: 
    secs: 1558953169
    nsecs: 393122407
  frame_id: map
pose: 
  pose: 
    position: 
      x: 8.67100860877
      y: -12.3759097438
      z: 0.0
    orientation: 
      x: 0.0
      y: 0.0
      z: -0.0109471168356
      w: 0.999940078521
  covariance: [0.0030149886253689382, 0.0, 0.0, 0.0, 0.0, 0.0, 0.0, 0.0, 0.0, 0.0, 0.0, 0.0, 0.0, 0.0, 0.0, 0.0, 0.0, 0.0, 0.0, 0.0, 0.0, 0.0, 0.0, 0.0, 0.0, 0.0, 0.0, 0.0, 0.01122968674644003, -0.0016417836884560597, 0.0, 0.0, 0.0, 0.0, -0.0016417836884560597, 0.014689437784891703]
---
header: 
  seq: 151
  stamp: 
    secs: 1558953169
    nsecs: 937368391
  frame_id: map
pose: 
  pose: 
    position: 
      x: 9.11074089922
      y: -12.3817802115
      z: 0.0
    orientation: 
      x: 0.0
      y: 0.0
      z: 0.0206512797964
      w: 0.999786739581
  covariance: [0.0022587037864289857, 0.0, 0.0, 0.0, 0.0, 0.0, 0.0, 0.0, 0.0, 0.0, 0.0, 0.0, 0.0, 0.0, 0.0, 0.0, 0.0, 0.0, 0.0, 0.0, 0.0, 0.0, 0.0, 0.0, 0.0, 0.0, 0.0, 0.0, 0.01061900984046011, -0.00091755647937308098, 0.0, 0.0, 0.0, 0.0, -0.00091755647937308098, 0.012836038952380722]
---
header: 
  seq: 152
  stamp: 
    secs: 1558953170
    nsecs: 540589719
  frame_id: map
pose: 
  pose: 
    position: 
      x: 9.59321514942
      y: -12.363859083
      z: 0.0
    orientation: 
      x: 0.0
      y: 0.0
      z: 0.0309407217006
      w: 0.999521221256
  covariance: [0.0018424400825064787, 0.0, 0.0, 0.0, 0.0, 0.0, 0.0, 0.0, 0.0, 0.0, 0.0, 0.0, 0.0, 0.0, 0.0, 0.0, 0.0, 0.0, 0.0, 0.0, 0.0, 0.0, 0.0, 0.0, 0.0, 0.0, 0.0, 0.0, 0.01057148271832664, -3.2788226181071795e-05, 0.0, 0.0, 0.0, 0.0, -3.2788226181071795e-05, 0.010991899784894456]
---
header: 
  seq: 153
  stamp: 
    secs: 1558953171
    nsecs: 89652226
  frame_id: map
pose: 
  pose: 
    position: 
      x: 10.0241284895
      y: -12.316443444
      z: 0.0
    orientation: 
      x: 0.0
      y: 0.0
      z: 0.0322505513256
      w: 0.999479815674
  covariance: [0.0017623219094865155, 0.0, 0.0, 0.0, 0.0, 0.0, 0.0, 0.0, 0.0, 0.0, 0.0, 0.0, 0.0, 0.0, 0.0, 0.0, 0.0, 0.0, 0.0, 0.0, 0.0, 0.0, 0.0, 0.0, 0.0, 0.0, 0.0, 0.0, 0.0101035246032925, 2.7033259670751759e-05, 0.0, 0.0, 0.0, 0.0, 2.7033259670751759e-05, 0.010099765941693007]
---
header: 
  seq: 154
  stamp: 
    secs: 1558953171
    nsecs: 792222505
  frame_id: map
pose: 
  pose: 
    position: 
      x: 10.5780160598
      y: -12.2680790427
      z: 0.0
    orientation: 
      x: 0.0
      y: 0.0
      z: 0.0354413136523
      w: 0.9993717593
  covariance: [0.0020610538424505401, 0.0, 0.0, 0.0, 0.0, 0.0, 0.0, 0.0, 0.0, 0.0, 0.0, 0.0, 0.0, 0.0, 0.0, 0.0, 0.0, 0.0, 0.0, 0.0, 0.0, 0.0, 0.0, 0.0, 0.0, 0.0, 0.0, 0.0, 0.010343800536900385, -0.00012781694264216083, 0.0, 0.0, 0.0, 0.0, -0.00012781694264216083, 0.0098832198524597178]
---
header: 
  seq: 155
  stamp: 
    secs: 1558953172
    nsecs: 427620444
  frame_id: map
pose: 
  pose: 
    position: 
      x: 11.0910680493
      y: -12.229628673
      z: 0.0
    orientation: 
      x: 0.0
      y: 0.0
      z: 0.039056155121
      w: 0.999237017302
  covariance: [0.0021537900609307271, 0.0, 0.0, 0.0, 0.0, 0.0, 0.0, 0.0, 0.0, 0.0, 0.0, 0.0, 0.0, 0.0, 0.0, 0.0, 0.0, 0.0, 0.0, 0.0, 0.0, 0.0, 0.0, 0.0, 0.0, 0.0, 0.0, 0.0, 0.01017903156633854, 0.00019420682593716227, 0.0, 0.0, 0.0, 0.0, 0.00019420682588031885, 0.0094729907509533712]
---
header: 
  seq: 156
  stamp: 
    secs: 1558953173
    nsecs: 18795624
  frame_id: map
pose: 
  pose: 
    position: 
      x: 11.5635658338
      y: -12.196161757
      z: 0.0
    orientation: 
      x: 0.0
      y: 0.0
      z: 0.0358371621939
      w: 0.999357642591
  covariance: [0.0019806041231415182, 0.0, 0.0, 0.0, 0.0, 0.0, 0.0, 0.0, 0.0, 0.0, 0.0, 0.0, 0.0, 0.0, 0.0, 0.0, 0.0, 0.0, 0.0, 0.0, 0.0, 0.0, 0.0, 0.0, 0.0, 0.0, 0.0, 0.0, 0.0089392146144503908, 0.00027779047835117831, 0.0, 0.0, 0.0, 0.0, 0.00027779047835117831, 0.0091917524949798168]
---
header: 
  seq: 157
  stamp: 
    secs: 1558953173
    nsecs: 621064577
  frame_id: map
pose: 
  pose: 
    position: 
      x: 12.0394597935
      y: -12.1763613813
      z: 0.0
    orientation: 
      x: 0.0
      y: 0.0
      z: 0.00508742504304
      w: 0.999987058969
  covariance: [0.0019082347607938864, 0.0, 0.0, 0.0, 0.0, 0.0, 0.0, 0.0, 0.0, 0.0, 0.0, 0.0, 0.0, 0.0, 0.0, 0.0, 0.0, 0.0, 0.0, 0.0, 0.0, 0.0, 0.0, 0.0, 0.0, 0.0, 0.0, 0.0, 0.0078843583817885532, -0.00010067382968407756, 0.0, 0.0, 0.0, 0.0, -0.00010067382968407756, 0.0090798871523906938]
---
header: 
  seq: 158
  stamp: 
    secs: 1558953174
    nsecs: 225939966
  frame_id: map
pose: 
  pose: 
    position: 
      x: 12.5200967156
      y: -12.2034437782
      z: 0.0
    orientation: 
      x: 0.0
      y: 0.0
      z: -0.0605337475338
      w: 0.998166151204
  covariance: [0.0020649867496295334, 0.0, 0.0, 0.0, 0.0, 0.0, 0.0, 0.0, 0.0, 0.0, 0.0, 0.0, 0.0, 0.0, 0.0, 0.0, 0.0, 0.0, 0.0, 0.0, 0.0, 0.0, 0.0, 0.0, 0.0, 0.0, 0.0, 0.0, 0.0072202788624505946, -0.00016097293330987451, 0.0, 0.0, 0.0, 0.0, -0.00016097293330987451, 0.0087827491621296112]
---
header: 
  seq: 159
  stamp: 
    secs: 1558953174
    nsecs: 811304578
  frame_id: map
pose: 
  pose: 
    position: 
      x: 12.9717578889
      y: -12.2834784567
      z: 0.0
    orientation: 
      x: 0.0
      y: 0.0
      z: -0.130144253284
      w: 0.991495069749
  covariance: [0.0019600050707104127, 0.0, 0.0, 0.0, 0.0, 0.0, 0.0, 0.0, 0.0, 0.0, 0.0, 0.0, 0.0, 0.0, 0.0, 0.0, 0.0, 0.0, 0.0, 0.0, 0.0, 0.0, 0.0, 0.0, 0.0, 0.0, 0.0, 0.0, 0.0064665548701428703, -0.00028500947082748699, 0.0, 0.0, 0.0, 0.0, -0.00028500947082748699, 0.0084954350674732657]
---
header: 
  seq: 160
  stamp: 
    secs: 1558953175
    nsecs: 418320051
  frame_id: map
pose: 
  pose: 
    position: 
      x: 13.3954969652
      y: -12.4247675687
      z: 0.0
    orientation: 
      x: 0.0
      y: 0.0
      z: -0.192024205914
      w: 0.981390189651
  covariance: [0.0021233261299267482, 0.0, 0.0, 0.0, 0.0, 0.0, 0.0, 0.0, 0.0, 0.0, 0.0, 0.0, 0.0, 0.0, 0.0, 0.0, 0.0, 0.0, 0.0, 0.0, 0.0, 0.0, 0.0, 0.0, 0.0, 0.0, 0.0, 0.0, 0.0061921219145091577, -0.00030436204790593413, 0.0, 0.0, 0.0, 0.0, -0.00030436204790593413, 0.0083414339359249891]
---
header: 
  seq: 161
  stamp: 
    secs: 1558953176
    nsecs: 357225387
  frame_id: map
pose: 
  pose: 
    position: 
      x: 13.8429825481
      y: -12.6149478267
      z: 0.0
    orientation: 
      x: 0.0
      y: 0.0
      z: -0.220498212977
      w: 0.975387378468
  covariance: [0.0021346223360956353, 0.0, 0.0, 0.0, 0.0, 0.0, 0.0, 0.0, 0.0, 0.0, 0.0, 0.0, 0.0, 0.0, 0.0, 0.0, 0.0, 0.0, 0.0, 0.0, 0.0, 0.0, 0.0, 0.0, 0.0, 0.0, 0.0, 0.0, 0.0055432281608137372, 3.0263843848048608e-05, 0.0, 0.0, 0.0, 0.0, 3.0263843848048608e-05, 0.0081945187790265182]
---
header: 
  seq: 162
  stamp: 
    secs: 1558953179
    nsecs: 946827111
  frame_id: map
pose: 
  pose: 
    position: 
      x: 14.0914366986
      y: -12.759855866
      z: 0.0
    orientation: 
      x: 0.0
      y: 0.0
      z: -0.529091150135
      w: 0.848564997421
  covariance: [0.0046543222428135711, 0.0, 0.0, 0.0, 0.0, 0.0, 0.0, 0.0, 0.0, 0.0, 0.0, 0.0, 0.0, 0.0, 0.0, 0.0, 0.0, 0.0, 0.0, 0.0, 0.0, 0.0, 0.0, 0.0, 0.0, 0.0, 0.0, 0.0, 0.0060594860417690962, -0.0007887640426012324, 0.0, 0.0, 0.0, 0.0, -0.0007887640426012324, 0.0098033873065107007]
---
header: 
  seq: 163
  stamp: 
    secs: 1558953191
    nsecs: 357405267
  frame_id: map
pose: 
  pose: 
    position: 
      x: 14.1559822615
      y: -12.9997261334
      z: 0.0
    orientation: 
      x: 0.0
      y: 0.0
      z: -0.61914269878
      w: 0.785278497444
  covariance: [0.0090446388471634581, 0.0, 0.0, 0.0, 0.0, 0.0, 0.0, 0.0, 0.0, 0.0, 0.0, 0.0, 0.0, 0.0, 0.0, 0.0, 0.0, 0.0, 0.0, 0.0, 0.0, 0.0, 0.0, 0.0, 0.0, 0.0, 0.0, 0.0, 0.008057310333473941, -0.001364605518450595, 0.0, 0.0, 0.0, 0.0, -0.001364605518450595, 0.010434268638320653]
---
header: 
  seq: 164
  stamp: 
    secs: 1558953200
    nsecs: 425148099
  frame_id: map
pose: 
  pose: 
    position: 
      x: 14.1918111767
      y: -13.4335806957
      z: 0.0
    orientation: 
      x: 0.0
      y: 0.0
      z: -0.706134279189
      w: 0.708077947513
  covariance: [0.0085288809922115186, 0.0, 0.0, 0.0, 0.0, 0.0, 0.0, 0.0, 0.0, 0.0, 0.0, 0.0, 0.0, 0.0, 0.0, 0.0, 0.0, 0.0, 0.0, 0.0, 0.0, 0.0, 0.0, 0.0, 0.0, 0.0, 0.0, 0.0, 0.0061914950601627073, 0.00023641994849144137, 0.0, 0.0, 0.0, 0.0, 0.00023641994849144137, 0.012492260765315897]
---
header: 
  seq: 165
  stamp: 
    secs: 1558953218
    nsecs: 339713774
  frame_id: map
pose: 
  pose: 
    position: 
      x: 14.1749127343
      y: -13.4423360251
      z: 0.0
    orientation: 
      x: 0.0
      y: 0.0
      z: -0.711502744013
      w: 0.702683317905
  covariance: [0.0081839660327859311, 0.0, 0.0, 0.0, 0.0, 0.0, 0.0, 0.0, 0.0, 0.0, 0.0, 0.0, 0.0, 0.0, 0.0, 0.0, 0.0, 0.0, 0.0, 0.0, 0.0, 0.0, 0.0, 0.0, 0.0, 0.0, 0.0, 0.0, 0.004883026317503091, 0.00027349919613514157, 0.0, 0.0, 0.0, 0.0, 0.00027349919613514157, 0.012229011455521164]
---
header: 
  seq: 166
  stamp: 
    secs: 1558953219
    nsecs: 734836448
  frame_id: map
pose: 
  pose: 
    position: 
      x: 14.1863597095
      y: -13.0301596334
      z: 0.0
    orientation: 
      x: 0.0
      y: 0.0
      z: -0.70057789781
      w: 0.713575930859
  covariance: [0.0073961664953678362, 0.0, 0.0, 0.0, 0.0, 0.0, 0.0, 0.0, 0.0, 0.0, 0.0, 0.0, 0.0, 0.0, 0.0, 0.0, 0.0, 0.0, 0.0, 0.0, 0.0, 0.0, 0.0, 0.0, 0.0, 0.0, 0.0, 0.0, 0.0043598642289031661, -0.00078769945518860653, 0.0, 0.0, 0.0, 0.0, -0.00078769945518860653, 0.0093070674103697681]
---
header: 
  seq: 167
  stamp: 
    secs: 1558953221
    nsecs: 218327289
  frame_id: map
pose: 
  pose: 
    position: 
      x: 14.1634550392
      y: -12.6267770714
      z: 0.0
    orientation: 
      x: 0.0
      y: 0.0
      z: -0.702944365083
      w: 0.711244838012
  covariance: [0.0065800256731829085, 0.0, 0.0, 0.0, 0.0, 0.0, 0.0, 0.0, 0.0, 0.0, 0.0, 0.0, 0.0, 0.0, 0.0, 0.0, 0.0, 0.0, 0.0, 0.0, 0.0, 0.0, 0.0, 0.0, 0.0, 0.0, 0.0, 0.0, 0.0039624768675536413, -0.0015215154721222577, 0.0, 0.0, 0.0, 0.0, -0.0015215154721222577, 0.010106374006013509]
---
header: 
  seq: 168
  stamp: 
    secs: 1558953225
    nsecs: 309360530
  frame_id: map
pose: 
  pose: 
    position: 
      x: 14.1398085543
      y: -12.5943803809
      z: 0.0
    orientation: 
      x: 0.0
      y: 0.0
      z: -0.9717191658
      w: 0.236139498636
  covariance: [0.0096020777465785131, 0.0, 0.0, 0.0, 0.0, 0.0, 0.0, 0.0, 0.0, 0.0, 0.0, 0.0, 0.0, 0.0, 0.0, 0.0, 0.0, 0.0, 0.0, 0.0, 0.0, 0.0, 0.0, 0.0, 0.0, 0.0, 0.0, 0.0, 0.0075557372104570067, -0.0010317514848416697, 0.0, 0.0, 0.0, 0.0, -0.0010317514848416697, 0.0099987133888353365]
---
header: 
  seq: 169
  stamp: 
    secs: 1558953227
    nsecs: 98228461
  frame_id: map
pose: 
  pose: 
    position: 
      x: 13.7240356949
      y: -12.5954507862
      z: 0.0
    orientation: 
      x: 0.0
      y: 0.0
      z: 0.994525714235
      w: 0.104492122788
  covariance: [0.0077381559133993198, 0.0, 0.0, 0.0, 0.0, 0.0, 0.0, 0.0, 0.0, 0.0, 0.0, 0.0, 0.0, 0.0, 0.0, 0.0, 0.0, 0.0, 0.0, 0.0, 0.0, 0.0, 0.0, 0.0, 0.0, 0.0, 0.0, 0.0, 0.0068330413724323399, -0.00058603066101482163, 0.0, 0.0, 0.0, 0.0, -0.00058603066101482163, 0.010929177973952972]
---
header: 
  seq: 170
  stamp: 
    secs: 1558953227
    nsecs: 986216668
  frame_id: map
pose: 
  pose: 
    position: 
      x: 13.2424967134
      y: -12.4352086585
      z: 0.0
    orientation: 
      x: 0.0
      y: 0.0
      z: 0.989041393101
      w: 0.147638486627
  covariance: [0.0057604347249961274, 0.0, 0.0, 0.0, 0.0, 0.0, 0.0, 0.0, 0.0, 0.0, 0.0, 0.0, 0.0, 0.0, 0.0, 0.0, 0.0, 0.0, 0.0, 0.0, 0.0, 0.0, 0.0, 0.0, 0.0, 0.0, 0.0, 0.0, 0.0074401770640744394, 2.4334680725749364e-05, 0.0, 0.0, 0.0, 0.0, 2.4334680725749364e-05, 0.011373556131531919]
---
header: 
  seq: 171
  stamp: 
    secs: 1558953228
    nsecs: 589464252
  frame_id: map
pose: 
  pose: 
    position: 
      x: 12.8056734663
      y: -12.2878931325
      z: 0.0
    orientation: 
      x: 0.0
      y: 0.0
      z: 0.991056864521
      w: 0.133440216148
  covariance: [0.0045192167582096491, 0.0, 0.0, 0.0, 0.0, 0.0, 0.0, 0.0, 0.0, 0.0, 0.0, 0.0, 0.0, 0.0, 0.0, 0.0, 0.0, 0.0, 0.0, 0.0, 0.0, 0.0, 0.0, 0.0, 0.0, 0.0, 0.0, 0.0, 0.0092737177428625518, 0.00075321835464853834, 0.0, 0.0, 0.0, 0.0, 0.00075321835467696005, 0.011387061550335623]
---
header: 
  seq: 172
  stamp: 
    secs: 1558953229
    nsecs: 189384369
  frame_id: map
pose: 
  pose: 
    position: 
      x: 12.3536017968
      y: -12.1560112201
      z: 0.0
    orientation: 
      x: 0.0
      y: 0.0
      z: 0.996743847348
      w: 0.0806331369511
  covariance: [0.0033336718899157789, 0.0, 0.0, 0.0, 0.0, 0.0, 0.0, 0.0, 0.0, 0.0, 0.0, 0.0, 0.0, 0.0, 0.0, 0.0, 0.0, 0.0, 0.0, 0.0, 0.0, 0.0, 0.0, 0.0, 0.0, 0.0, 0.0, 0.0, 0.010729438414462795, 0.00076725467095077691, 0.0, 0.0, 0.0, 0.0, 0.0007672546709223552, 0.01043940770885279]
---
header: 
  seq: 173
  stamp: 
    secs: 1558953229
    nsecs: 800313589
  frame_id: map
pose: 
  pose: 
    position: 
      x: 11.876320515
      y: -12.1074174273
      z: 0.0
    orientation: 
      x: 0.0
      y: 0.0
      z: 0.999994747488
      w: 0.00324114121407
  covariance: [0.0027480792479641514, 0.0, 0.0, 0.0, 0.0, 0.0, 0.0, 0.0, 0.0, 0.0, 0.0, 0.0, 0.0, 0.0, 0.0, 0.0, 0.0, 0.0, 0.0, 0.0, 0.0, 0.0, 0.0, 0.0, 0.0, 0.0, 0.0, 0.0, 0.013116736368196512, 0.00033510127575035021, 0.0, 0.0, 0.0, 0.0, 0.00033510127575035021, 0.0098155813681383344]
---
header: 
  seq: 174
  stamp: 
    secs: 1558953230
    nsecs: 387813879
  frame_id: map
pose: 
  pose: 
    position: 
      x: 11.4221693165
      y: -12.1302758917
      z: 0.0
    orientation: 
      x: 0.0
      y: 0.0
      z: -0.997281578805
      w: 0.0736848191745
  covariance: [0.0023555511368012496, 0.0, 0.0, 0.0, 0.0, 0.0, 0.0, 0.0, 0.0, 0.0, 0.0, 0.0, 0.0, 0.0, 0.0, 0.0, 0.0, 0.0, 0.0, 0.0, 0.0, 0.0, 0.0, 0.0, 0.0, 0.0, 0.0, 0.0, 0.014439123754910051, -0.0003894521657014546, 0.0, 0.0, 0.0, 0.0, -0.0003894521657014546, 0.0098013546294524172]
---
header: 
  seq: 175
  stamp: 
    secs: 1558953230
    nsecs: 998207409
  frame_id: map
pose: 
  pose: 
    position: 
      x: 10.9411939035
      y: -12.2274138169
      z: 0.0
    orientation: 
      x: 0.0
      y: 0.0
      z: -0.994866660842
      w: 0.10119450156
  covariance: [0.0021757999622527709, 0.0, 0.0, 0.0, 0.0, 0.0, 0.0, 0.0, 0.0, 0.0, 0.0, 0.0, 0.0, 0.0, 0.0, 0.0, 0.0, 0.0, 0.0, 0.0, 0.0, 0.0, 0.0, 0.0, 0.0, 0.0, 0.0, 0.0, 0.014397932824368954, -0.0011012218255415556, 0.0, 0.0, 0.0, 0.0, -0.0011012218255415556, 0.0093680997845448765]
---
header: 
  seq: 176
  stamp: 
    secs: 1558953231
    nsecs: 587664108
  frame_id: map
pose: 
  pose: 
    position: 
      x: 10.4841786436
      y: -12.3220776982
      z: 0.0
    orientation: 
      x: 0.0
      y: 0.0
      z: -0.996075415879
      w: 0.0885085638911
  covariance: [0.002588670183442244, 0.0, 0.0, 0.0, 0.0, 0.0, 0.0, 0.0, 0.0, 0.0, 0.0, 0.0, 0.0, 0.0, 0.0, 0.0, 0.0, 0.0, 0.0, 0.0, 0.0, 0.0, 0.0, 0.0, 0.0, 0.0, 0.0, 0.0, 0.01731930359860262, -0.0017006916949670486, 0.0, 0.0, 0.0, 0.0, -0.0017006916949670486, 0.0091528416493117885]
---
header: 
  seq: 177
  stamp: 
    secs: 1558953232
    nsecs: 282690658
  frame_id: map
pose: 
  pose: 
    position: 
      x: 9.97380994208
      y: -12.4161013878
      z: 0.0
    orientation: 
      x: 0.0
      y: 0.0
      z: -0.998612900399
      w: 0.0526523993425
  covariance: [0.0031878442057690476, 0.0, 0.0, 0.0, 0.0, 0.0, 0.0, 0.0, 0.0, 0.0, 0.0, 0.0, 0.0, 0.0, 0.0, 0.0, 0.0, 0.0, 0.0, 0.0, 0.0, 0.0, 0.0, 0.0, 0.0, 0.0, 0.0, 0.0, 0.017759579750750557, -0.0017102611341840723, 0.0, 0.0, 0.0, 0.0, -0.0017102611341840723, 0.0095124739841460724]
---
header: 
  seq: 178
  stamp: 
    secs: 1558953232
    nsecs: 982177717
  frame_id: map
pose: 
  pose: 
    position: 
      x: 9.49641440507
      y: -12.4627063191
      z: 0.0
    orientation: 
      x: 0.0
      y: 0.0
      z: -0.999837287288
      w: 0.0180388178511
  covariance: [0.0029740250417916642, 0.0, 0.0, 0.0, 0.0, 0.0, 0.0, 0.0, 0.0, 0.0, 0.0, 0.0, 0.0, 0.0, 0.0, 0.0, 0.0, 0.0, 0.0, 0.0, 0.0, 0.0, 0.0, 0.0, 0.0, 0.0, 0.0, 0.0, 0.016305986468031827, -0.0018620666963043708, 0.0, 0.0, 0.0, 0.0, -0.0018620666963043708, 0.0088355755693067025]
---
header: 
  seq: 179
  stamp: 
    secs: 1558953233
    nsecs: 569938013
  frame_id: map
pose: 
  pose: 
    position: 
      x: 9.02706834427
      y: -12.4754392002
      z: 0.0
    orientation: 
      x: 0.0
      y: 0.0
      z: 0.999999994501
      w: 0.000104875699139
  covariance: [0.0025347662911134983, 0.0, 0.0, 0.0, 0.0, 0.0, 0.0, 0.0, 0.0, 0.0, 0.0, 0.0, 0.0, 0.0, 0.0, 0.0, 0.0, 0.0, 0.0, 0.0, 0.0, 0.0, 0.0, 0.0, 0.0, 0.0, 0.0, 0.0, 0.014017673644532712, -0.0018045712409966641, 0.0, 0.0, 0.0, 0.0, -0.0018045712409824532, 0.0092558785229785601]
---
header: 
  seq: 180
  stamp: 
    secs: 1558953234
    nsecs: 171990208
  frame_id: map
pose: 
  pose: 
    position: 
      x: 8.54701627016
      y: -12.4742907504
      z: 0.0
    orientation: 
      x: 0.0
      y: 0.0
      z: 0.999999794206
      w: 0.000641551422126
  covariance: [0.0021769364734907865, 0.0, 0.0, 0.0, 0.0, 0.0, 0.0, 0.0, 0.0, 0.0, 0.0, 0.0, 0.0, 0.0, 0.0, 0.0, 0.0, 0.0, 0.0, 0.0, 0.0, 0.0, 0.0, 0.0, 0.0, 0.0, 0.0, 0.0, 0.011650761680198768, -0.001335648423750152, 0.0, 0.0, 0.0, 0.0, -0.001335648423750152, 0.0089828645698117517]
---
header: 
  seq: 181
  stamp: 
    secs: 1558953234
    nsecs: 789998702
  frame_id: map
pose: 
  pose: 
    position: 
      x: 8.04978622619
      y: -12.4778735684
      z: 0.0
    orientation: 
      x: 0.0
      y: 0.0
      z: -0.99989251321
      w: 0.0146615833799
  covariance: [0.0022015120381960792, 0.0, 0.0, 0.0, 0.0, 0.0, 0.0, 0.0, 0.0, 0.0, 0.0, 0.0, 0.0, 0.0, 0.0, 0.0, 0.0, 0.0, 0.0, 0.0, 0.0, 0.0, 0.0, 0.0, 0.0, 0.0, 0.0, 0.0, 0.0098726837340396348, -0.0013856031521325138, 0.0, 0.0, 0.0, 0.0, -0.0013856031521325138, 0.0084292563527887804]
---
header: 
  seq: 182
  stamp: 
    secs: 1558953235
    nsecs: 387604386
  frame_id: map
pose: 
  pose: 
    position: 
      x: 7.57634039812
      y: -12.4782193148
      z: 0.0
    orientation: 
      x: 0.0
      y: 0.0
      z: -0.999956410788
      w: 0.00933683691638
  covariance: [0.002216742926233581, 0.0, 0.0, 0.0, 0.0, 0.0, 0.0, 0.0, 0.0, 0.0, 0.0, 0.0, 0.0, 0.0, 0.0, 0.0, 0.0, 0.0, 0.0, 0.0, 0.0, 0.0, 0.0, 0.0, 0.0, 0.0, 0.0, 0.0, 0.0092224926258922483, -0.0011315674812189783, 0.0, 0.0, 0.0, 0.0, -0.0011315674812189783, 0.0082613627113188141]
---
header: 
  seq: 183
  stamp: 
    secs: 1558953235
    nsecs: 958429341
  frame_id: map
pose: 
  pose: 
    position: 
      x: 7.11588082618
      y: -12.4688546094
      z: 0.0
    orientation: 
      x: 0.0
      y: 0.0
      z: -0.999943054509
      w: 0.010671819841
  covariance: [0.0022701524010105192, 0.0, 0.0, 0.0, 0.0, 0.0, 0.0, 0.0, 0.0, 0.0, 0.0, 0.0, 0.0, 0.0, 0.0, 0.0, 0.0, 0.0, 0.0, 0.0, 0.0, 0.0, 0.0, 0.0, 0.0, 0.0, 0.0, 0.0, 0.0088261181537702769, -0.00061547057944529612, 0.0, 0.0, 0.0, 0.0, -0.00061547057944529612, 0.0075304950557191514]
---
header: 
  seq: 184
  stamp: 
    secs: 1558953236
    nsecs: 555525337
  frame_id: map
pose: 
  pose: 
    position: 
      x: 6.61687848996
      y: -12.4572871368
      z: 0.0
    orientation: 
      x: 0.0
      y: 0.0
      z: -0.999468016058
      w: 0.0326141821467
  covariance: [0.0024356565910599861, 0.0, 0.0, 0.0, 0.0, 0.0, 0.0, 0.0, 0.0, 0.0, 0.0, 0.0, 0.0, 0.0, 0.0, 0.0, 0.0, 0.0, 0.0, 0.0, 0.0, 0.0, 0.0, 0.0, 0.0, 0.0, 0.0, 0.0, 0.0096587140275063415, -0.00046531843005349183, 0.0, 0.0, 0.0, 0.0, -0.00046531843003928098, 0.0077237934287418515]
---
header: 
  seq: 185
  stamp: 
    secs: 1558953237
    nsecs: 168591298
  frame_id: map
pose: 
  pose: 
    position: 
      x: 6.14535670668
      y: -12.4894455975
      z: 0.0
    orientation: 
      x: 0.0
      y: 0.0
      z: -0.998298081057
      w: 0.0583175904655
  covariance: [0.0027335793905882469, 0.0, 0.0, 0.0, 0.0, 0.0, 0.0, 0.0, 0.0, 0.0, 0.0, 0.0, 0.0, 0.0, 0.0, 0.0, 0.0, 0.0, 0.0, 0.0, 0.0, 0.0, 0.0, 0.0, 0.0, 0.0, 0.0, 0.0, 0.010435963921078996, -0.00035372245214377977, 0.0, 0.0, 0.0, 0.0, -0.00035372245212956892, 0.0072496502924807556]
---
header: 
  seq: 186
  stamp: 
    secs: 1558953237
    nsecs: 791410978
  frame_id: map
pose: 
  pose: 
    position: 
      x: 5.65673758926
      y: -12.5467105418
      z: 0.0
    orientation: 
      x: 0.0
      y: 0.0
      z: -0.995282164387
      w: 0.0970227460644
  covariance: [0.002934251129505456, 0.0, 0.0, 0.0, 0.0, 0.0, 0.0, 0.0, 0.0, 0.0, 0.0, 0.0, 0.0, 0.0, 0.0, 0.0, 0.0, 0.0, 0.0, 0.0, 0.0, 0.0, 0.0, 0.0, 0.0, 0.0, 0.0, 0.0, 0.012023103901954503, -0.00066118839636523214, 0.0, 0.0, 0.0, 0.0, -0.00066118839636523214, 0.0073964143179223582]
---
header: 
  seq: 187
  stamp: 
    secs: 1558953238
    nsecs: 453005860
  frame_id: map
pose: 
  pose: 
    position: 
      x: 5.14572807906
      y: -12.6587527441
      z: 0.0
    orientation: 
      x: 0.0
      y: 0.0
      z: -0.992851073932
      w: 0.119359729354
  covariance: [0.0031249050464282565, 0.0, 0.0, 0.0, 0.0, 0.0, 0.0, 0.0, 0.0, 0.0, 0.0, 0.0, 0.0, 0.0, 0.0, 0.0, 0.0, 0.0, 0.0, 0.0, 0.0, 0.0, 0.0, 0.0, 0.0, 0.0, 0.0, 0.0, 0.014234432065199649, -0.0010616672245009756, 0.0, 0.0, 0.0, 0.0, -0.0010616672245009756, 0.0069572797378013359]
---
header: 
  seq: 188
  stamp: 
    secs: 1558953239
    nsecs: 93535574
  frame_id: map
pose: 
  pose: 
    position: 
      x: 4.66248357794
      y: -12.7558069762
      z: 0.0
    orientation: 
      x: 0.0
      y: 0.0
      z: -0.995747482532
      w: 0.0921246494227
  covariance: [0.0030812351255120984, 0.0, 0.0, 0.0, 0.0, 0.0, 0.0, 0.0, 0.0, 0.0, 0.0, 0.0, 0.0, 0.0, 0.0, 0.0, 0.0, 0.0, 0.0, 0.0, 0.0, 0.0, 0.0, 0.0, 0.0, 0.0, 0.0, 0.0, 0.01573701337504271, -0.0012864082125077772, 0.0, 0.0, 0.0, 0.0, -0.0012864082125077772, 0.0065376964725105393]
---
header: 
  seq: 189
  stamp: 
    secs: 1558953239
    nsecs: 747943169
  frame_id: map
pose: 
  pose: 
    position: 
      x: 4.14892506769
      y: -12.8163025059
      z: 0.0
    orientation: 
      x: 0.0
      y: 0.0
      z: -0.99889769479
      w: 0.0469403381144
  covariance: [0.0028335607507733985, 0.0, 0.0, 0.0, 0.0, 0.0, 0.0, 0.0, 0.0, 0.0, 0.0, 0.0, 0.0, 0.0, 0.0, 0.0, 0.0, 0.0, 0.0, 0.0, 0.0, 0.0, 0.0, 0.0, 0.0, 0.0, 0.0, 0.0, 0.015284900328444732, -0.0010478949512450905, 0.0, 0.0, 0.0, 0.0, -0.0010478949512450905, 0.0061622581818280607]
---
header: 
  seq: 190
  stamp: 
    secs: 1558953240
    nsecs: 351573419
  frame_id: map
pose: 
  pose: 
    position: 
      x: 3.66461709978
      y: -12.8509237021
      z: 0.0
    orientation: 
      x: 0.0
      y: 0.0
      z: -0.999921944566
      w: 0.0124941896755
  covariance: [0.0028508224513724063, 0.0, 0.0, 0.0, 0.0, 0.0, 0.0, 0.0, 0.0, 0.0, 0.0, 0.0, 0.0, 0.0, 0.0, 0.0, 0.0, 0.0, 0.0, 0.0, 0.0, 0.0, 0.0, 0.0, 0.0, 0.0, 0.0, 0.0, 0.017945784603114971, -0.0013706262854772039, 0.0, 0.0, 0.0, 0.0, -0.0013706262854772039, 0.0059580202557977411]
---
header: 
  seq: 191
  stamp: 
    secs: 1558953241
    nsecs: 81147324
  frame_id: map
pose: 
  pose: 
    position: 
      x: 3.07805327495
      y: -12.8524788343
      z: 0.0
    orientation: 
      x: 0.0
      y: 0.0
      z: 0.999846687626
      w: 0.0175100326468
  covariance: [0.0033888081280321418, 0.0, 0.0, 0.0, 0.0, 0.0, 0.0, 0.0, 0.0, 0.0, 0.0, 0.0, 0.0, 0.0, 0.0, 0.0, 0.0, 0.0, 0.0, 0.0, 0.0, 0.0, 0.0, 0.0, 0.0, 0.0, 0.0, 0.0, 0.02016534119614604, -0.0017084104881530304, 0.0, 0.0, 0.0, 0.0, -0.0017084104881601358, 0.0061997074437125065]
---
header: 
  seq: 192
  stamp: 
    secs: 1558953241
    nsecs: 642711905
  frame_id: map
pose: 
  pose: 
    position: 
      x: 2.62619279705
      y: -12.8081944832
      z: 0.0
    orientation: 
      x: 0.0
      y: 0.0
      z: 0.998781527191
      w: 0.0493503894727
  covariance: [0.0032578639914141948, 0.0, 0.0, 0.0, 0.0, 0.0, 0.0, 0.0, 0.0, 0.0, 0.0, 0.0, 0.0, 0.0, 0.0, 0.0, 0.0, 0.0, 0.0, 0.0, 0.0, 0.0, 0.0, 0.0, 0.0, 0.0, 0.0, 0.0, 0.02041060712336995, -0.001330835837049649, 0.0, 0.0, 0.0, 0.0, -0.001330835837049649, 0.0061208929196883855]
---
header: 
  seq: 193
  stamp: 
    secs: 1558953242
    nsecs: 231134550
  frame_id: map
pose: 
  pose: 
    position: 
      x: 2.15509933441
      y: -12.7411717568
      z: 0.0
    orientation: 
      x: 0.0
      y: 0.0
      z: 0.997956607139
      w: 0.0638953070831
  covariance: [0.002949215080135896, 0.0, 0.0, 0.0, 0.0, 0.0, 0.0, 0.0, 0.0, 0.0, 0.0, 0.0, 0.0, 0.0, 0.0, 0.0, 0.0, 0.0, 0.0, 0.0, 0.0, 0.0, 0.0, 0.0, 0.0, 0.0, 0.0, 0.0, 0.019487051491197348, -0.00038544350855821671, 0.0, 0.0, 0.0, 0.0, -0.000385443508554664, 0.0061559381213585279]
---
header: 
  seq: 194
  stamp: 
    secs: 1558953242
    nsecs: 833794425
  frame_id: map
pose: 
  pose: 
    position: 
      x: 1.67733581835
      y: -12.6823093404
      z: 0.0
    orientation: 
      x: 0.0
      y: 0.0
      z: 0.998172895802
      w: 0.0604224303258
  covariance: [0.0029453404553948554, 0.0, 0.0, 0.0, 0.0, 0.0, 0.0, 0.0, 0.0, 0.0, 0.0, 0.0, 0.0, 0.0, 0.0, 0.0, 0.0, 0.0, 0.0, 0.0, 0.0, 0.0, 0.0, 0.0, 0.0, 0.0, 0.0, 0.0, 0.021723959295708337, 0.00014742717669346419, 0.0, 0.0, 0.0, 0.0, 0.00014742717669346419, 0.006192960901047412]
---
header: 
  seq: 195
  stamp: 
    secs: 1558953243
    nsecs: 442359199
  frame_id: map
pose: 
  pose: 
    position: 
      x: 1.20471486394
      y: -12.6242716879
      z: 0.0
    orientation: 
      x: 0.0
      y: 0.0
      z: 0.998585606308
      w: 0.0531675359078
  covariance: [0.0025929142854493417, 0.0, 0.0, 0.0, 0.0, 0.0, 0.0, 0.0, 0.0, 0.0, 0.0, 0.0, 0.0, 0.0, 0.0, 0.0, 0.0, 0.0, 0.0, 0.0, 0.0, 0.0, 0.0, 0.0, 0.0, 0.0, 0.0, 0.0, 0.021963837969238471, 0.00077630280220504933, 0.0, 0.0, 0.0, 0.0, 0.00077630280220504933, 0.0057159410191208841]
---
header: 
  seq: 196
  stamp: 
    secs: 1558953244
    nsecs: 140059837
  frame_id: map
pose: 
  pose: 
    position: 
      x: 0.738381560266
      y: -12.5563789928
      z: 0.0
    orientation: 
      x: 0.0
      y: 0.0
      z: 0.999911878022
      w: 0.0132753979418
  covariance: [0.0021970844720050628, 0.0, 0.0, 0.0, 0.0, 0.0, 0.0, 0.0, 0.0, 0.0, 0.0, 0.0, 0.0, 0.0, 0.0, 0.0, 0.0, 0.0, 0.0, 0.0, 0.0, 0.0, 0.0, 0.0, 0.0, 0.0, 0.0, 0.0, 0.01800327440752408, 0.0011508885139240059, 0.0, 0.0, 0.0, 0.0, 0.0011508885139240059, 0.0059698394981676107]
---
header: 
  seq: 197
  stamp: 
    secs: 1558953245
    nsecs: 130284060
  frame_id: map
pose: 
  pose: 
    position: 
      x: 0.2955545682
      y: -12.5470178682
      z: 0.0
    orientation: 
      x: 0.0
      y: 0.0
      z: -0.999836418128
      w: 0.0180869285542
  covariance: [0.0020875766451716547, 0.0, 0.0, 0.0, 0.0, 0.0, 0.0, 0.0, 0.0, 0.0, 0.0, 0.0, 0.0, 0.0, 0.0, 0.0, 0.0, 0.0, 0.0, 0.0, 0.0, 0.0, 0.0, 0.0, 0.0, 0.0, 0.0, 0.0, 0.016190656698922064, 0.00073006063589243055, 0.0, 0.0, 0.0, 0.0, 0.00073006063589243055, 0.0057010273485569004]
---
header: 
  seq: 198
  stamp: 
    secs: 1558953246
    nsecs: 776677937
  frame_id: map
pose: 
  pose: 
    position: 
      x: -0.149559909739
      y: -12.52282878
      z: 0.0
    orientation: 
      x: 0.0
      y: 0.0
      z: 0.998482054266
      w: 0.0550780111229
  covariance: [0.0019830709888144379, 0.0, 0.0, 0.0, 0.0, 0.0, 0.0, 0.0, 0.0, 0.0, 0.0, 0.0, 0.0, 0.0, 0.0, 0.0, 0.0, 0.0, 0.0, 0.0, 0.0, 0.0, 0.0, 0.0, 0.0, 0.0, 0.0, 0.0, 0.014015959702924321, 0.00036632682012641507, 0.0, 0.0, 0.0, 0.0, 0.00036632682012641507, 0.005131924421215666]
---
header: 
  seq: 199
  stamp: 
    secs: 1558953247
    nsecs: 864552022
  frame_id: map
pose: 
  pose: 
    position: 
      x: -0.601911453035
      y: -12.431368186
      z: 0.0
    orientation: 
      x: 0.0
      y: 0.0
      z: 0.993798704853
      w: 0.111194128584
  covariance: [0.0018593979629335723, 0.0, 0.0, 0.0, 0.0, 0.0, 0.0, 0.0, 0.0, 0.0, 0.0, 0.0, 0.0, 0.0, 0.0, 0.0, 0.0, 0.0, 0.0, 0.0, 0.0, 0.0, 0.0, 0.0, 0.0, 0.0, 0.0, 0.0, 0.011127692417079891, 0.00017075498323961024, 0.0, 0.0, 0.0, 0.0, 0.0001707549832413866, 0.0049069066754493891]
---
header: 
  seq: 200
  stamp: 
    secs: 1558953250
    nsecs: 207021453
  frame_id: map
pose: 
  pose: 
    position: 
      x: -1.02444923881
      y: -12.2636362639
      z: 0.0
    orientation: 
      x: 0.0
      y: 0.0
      z: 0.96312331386
      w: 0.269060369249
  covariance: [0.0020148643621228407, 0.0, 0.0, 0.0, 0.0, 0.0, 0.0, 0.0, 0.0, 0.0, 0.0, 0.0, 0.0, 0.0, 0.0, 0.0, 0.0, 0.0, 0.0, 0.0, 0.0, 0.0, 0.0, 0.0, 0.0, 0.0, 0.0, 0.0, 0.0091768120336732113, 0.00038914827831599912, 0.0, 0.0, 0.0, 0.0, 0.00038914827831599912, 0.0049006098142195609]
---
header: 
  seq: 201
  stamp: 
    secs: 1558953258
    nsecs: 789733237
  frame_id: map
pose: 
  pose: 
    position: 
      x: -1.04360542071
      y: -12.4274602005
      z: 0.0
    orientation: 
      x: 0.0
      y: 0.0
      z: 0.764747590913
      w: 0.644329979275
  covariance: [0.0034757171143300898, 0.0, 0.0, 0.0, 0.0, 0.0, 0.0, 0.0, 0.0, 0.0, 0.0, 0.0, 0.0, 0.0, 0.0, 0.0, 0.0, 0.0, 0.0, 0.0, 0.0, 0.0, 0.0, 0.0, 0.0, 0.0, 0.0, 0.0, 0.0087012306872955233, -0.00076766322874775969, 0.0, 0.0, 0.0, 0.0, -0.00076766322874775969, 0.0051885842507015346]
---
header: 
  seq: 202
  stamp: 
    secs: 1558953268
    nsecs: 592033110
  frame_id: map
pose: 
  pose: 
    position: 
      x: -1.08285358582
      y: -12.4028516533
      z: 0.0
    orientation: 
      x: 0.0
      y: 0.0
      z: 0.807509918906
      w: 0.589853991144
  covariance: [0.0034594931788444797, 0.0, 0.0, 0.0, 0.0, 0.0, 0.0, 0.0, 0.0, 0.0, 0.0, 0.0, 0.0, 0.0, 0.0, 0.0, 0.0, 0.0, 0.0, 0.0, 0.0, 0.0, 0.0, 0.0, 0.0, 0.0, 0.0, 0.0, 0.0076288691891754296, -0.00070033106940417414, 0.0, 0.0, 0.0, 0.0, -0.00070033106940417414, 0.0048017087514470348]
---
header: 
  seq: 203
  stamp: 
    secs: 1558953282
    nsecs: 513444625
  frame_id: map
pose: 
  pose: 
    position: 
      x: -1.02734084155
      y: -12.8664272531
      z: 0.0
    orientation: 
      x: 0.0
      y: 0.0
      z: 0.755072260451
      w: 0.655641580055
  covariance: [0.0034513892621644495, 0.0, 0.0, 0.0, 0.0, 0.0, 0.0, 0.0, 0.0, 0.0, 0.0, 0.0, 0.0, 0.0, 0.0, 0.0, 0.0, 0.0, 0.0, 0.0, 0.0, 0.0, 0.0, 0.0, 0.0, 0.0, 0.0, 0.0, 0.00679819184024677, -0.00077080084213403154, 0.0, 0.0, 0.0, 0.0, -0.00077080084213403154, 0.0056927377969177443]
---
header: 
  seq: 204
  stamp: 
    secs: 1558953286
    nsecs: 575123831
  frame_id: map
pose: 
  pose: 
    position: 
      x: -1.12588223266
      y: -12.417659315
      z: 0.0
    orientation: 
      x: 0.0
      y: 0.0
      z: 0.768506990116
      w: 0.639841391396
  covariance: [0.0031943228242739346, 0.0, 0.0, 0.0, 0.0, 0.0, 0.0, 0.0, 0.0, 0.0, 0.0, 0.0, 0.0, 0.0, 0.0, 0.0, 0.0, 0.0, 0.0, 0.0, 0.0, 0.0, 0.0, 0.0, 0.0, 0.0, 0.0, 0.0, 0.0054454942168406873, -0.00035328263401406749, 0.0, 0.0, 0.0, 0.0, -0.00035328263401406749, 0.0044048906263447415]
---
header: 
  seq: 205
  stamp: 
    secs: 1558953302
    nsecs: 220879917
  frame_id: map
pose: 
  pose: 
    position: 
      x: -1.14118946735
      y: -12.4214697502
      z: 0.0
    orientation: 
      x: 0.0
      y: 0.0
      z: 0.741262216754
      w: 0.67121555853
  covariance: [0.0031790594399634313, 0.0, 0.0, 0.0, 0.0, 0.0, 0.0, 0.0, 0.0, 0.0, 0.0, 0.0, 0.0, 0.0, 0.0, 0.0, 0.0, 0.0, 0.0, 0.0, 0.0, 0.0, 0.0, 0.0, 0.0, 0.0, 0.0, 0.0, 0.0049819645066990041, -0.00016290933676364928, 0.0, 0.0, 0.0, 0.0, -0.00016290933676364928, 0.0042457102472741046]
---
header: 
  seq: 206
  stamp: 
    secs: 1558953310
    nsecs: 986778993
  frame_id: map
pose: 
  pose: 
    position: 
      x: -1.15498453331
      y: -11.9859052883
      z: 0.0
    orientation: 
      x: 0.0
      y: 0.0
      z: 0.703568691321
      w: 0.710627255735
  covariance: [0.0028841783826346582, 0.0, 0.0, 0.0, 0.0, 0.0, 0.0, 0.0, 0.0, 0.0, 0.0, 0.0, 0.0, 0.0, 0.0, 0.0, 0.0, 0.0, 0.0, 0.0, 0.0, 0.0, 0.0, 0.0, 0.0, 0.0, 0.0, 0.0, 0.0042572364045340471, -0.0001618238758238892, 0.0, 0.0, 0.0, 0.0, -0.00016182387582211284, 0.0039656994155431186]
---
header: 
  seq: 207
  stamp: 
    secs: 1558953317
    nsecs: 774086180
  frame_id: map
pose: 
  pose: 
    position: 
      x: -1.1627531947
      y: -11.5701877505
      z: 0.0
    orientation: 
      x: 0.0
      y: 0.0
      z: 0.710185095185
      w: 0.704015007352
  covariance: [0.0028349909734738518, 0.0, 0.0, 0.0, 0.0, 0.0, 0.0, 0.0, 0.0, 0.0, 0.0, 0.0, 0.0, 0.0, 0.0, 0.0, 0.0, 0.0, 0.0, 0.0, 0.0, 0.0, 0.0, 0.0, 0.0, 0.0, 0.0, 0.0, 0.0034483154871291751, -0.00013340402926914974, 0.0, 0.0, 0.0, 0.0, -0.0001334040292709261, 0.0044811407142902049]
---
header: 
  seq: 208
  stamp: 
    secs: 1558953363
    nsecs: 268551189
  frame_id: map
pose: 
  pose: 
    position: 
      x: -1.17270967231
      y: -11.5721063181
      z: 0.0
    orientation: 
      x: 0.0
      y: 0.0
      z: 0.697092262489
      w: 0.716981434612
  covariance: [0.002828764503035174, 0.0, 0.0, 0.0, 0.0, 0.0, 0.0, 0.0, 0.0, 0.0, 0.0, 0.0, 0.0, 0.0, 0.0, 0.0, 0.0, 0.0, 0.0, 0.0, 0.0, 0.0, 0.0, 0.0, 0.0, 0.0, 0.0, 0.0, 0.0030014400630956044, -0.00010378580946267374, 0.0, 0.0, 0.0, 0.0, -0.00010378580946267374, 0.0040184022342870471]
---
header: 
  seq: 209
  stamp: 
    secs: 1558953364
    nsecs: 667450257
  frame_id: map
pose: 
  pose: 
    position: 
      x: -1.18077603659
      y: -11.9841925712
      z: 0.0
    orientation: 
      x: 0.0
      y: 0.0
      z: 0.695268133309
      w: 0.718750459342
  covariance: [0.0028994696696635716, 0.0, 0.0, 0.0, 0.0, 0.0, 0.0, 0.0, 0.0, 0.0, 0.0, 0.0, 0.0, 0.0, 0.0, 0.0, 0.0, 0.0, 0.0, 0.0, 0.0, 0.0, 0.0, 0.0, 0.0, 0.0, 0.0, 0.0, 0.0029266076958923246, -0.00010177167515615852, 0.0, 0.0, 0.0, 0.0, -0.00010177167515615852, 0.0035384387369286011]
---
header: 
  seq: 210
  stamp: 
    secs: 1558953366
    nsecs: 148331549
  frame_id: map
pose: 
  pose: 
    position: 
      x: -1.20423857224
      y: -12.4039681601
      z: 0.0
    orientation: 
      x: 0.0
      y: 0.0
      z: 0.692369399202
      w: 0.721543217728
  covariance: [0.0028179650203291598, 0.0, 0.0, 0.0, 0.0, 0.0, 0.0, 0.0, 0.0, 0.0, 0.0, 0.0, 0.0, 0.0, 0.0, 0.0, 0.0, 0.0, 0.0, 0.0, 0.0, 0.0, 0.0, 0.0, 0.0, 0.0, 0.0, 0.0, 0.0028862320853921056, 2.4266869315211471e-05, 0.0, 0.0, 0.0, 0.0, 2.4266869315211471e-05, 0.0043581955349191867]
---
header: 
  seq: 211
  stamp: 
    secs: 1558953370
    nsecs: 338782806
  frame_id: map
pose: 
  pose: 
    position: 
      x: -1.17630134611
      y: -12.4624047644
      z: 0.0
    orientation: 
      x: 0.0
      y: 0.0
      z: 0.238840923048
      w: 0.971058707534
  covariance: [0.0071336375911019486, 0.0, 0.0, 0.0, 0.0, 0.0, 0.0, 0.0, 0.0, 0.0, 0.0, 0.0, 0.0, 0.0, 0.0, 0.0, 0.0, 0.0, 0.0, 0.0, 0.0, 0.0, 0.0, 0.0, 0.0, 0.0, 0.0, 0.0, 0.0058364301758993169, 0.00057295146564690833, 0.0, 0.0, 0.0, 0.0, 0.00057295146564690833, 0.005590238918446881]
---
header: 
  seq: 212
  stamp: 
    secs: 1558953371
    nsecs: 828709771
  frame_id: map
pose: 
  pose: 
    position: 
      x: -0.724781488586
      y: -12.4097890135
      z: 0.0
    orientation: 
      x: 0.0
      y: 0.0
      z: -0.0313839225485
      w: 0.999507403377
  covariance: [0.0067773900297823549, 0.0, 0.0, 0.0, 0.0, 0.0, 0.0, 0.0, 0.0, 0.0, 0.0, 0.0, 0.0, 0.0, 0.0, 0.0, 0.0, 0.0, 0.0, 0.0, 0.0, 0.0, 0.0, 0.0, 0.0, 0.0, 0.0, 0.0, 0.0068381359149598557, 0.0014319870044806979, 0.0, 0.0, 0.0, 0.0, 0.0014319870044806979, 0.006317210456677996]
---
header: 
  seq: 213
  stamp: 
    secs: 1558953372
    nsecs: 627700211
  frame_id: map
pose: 
  pose: 
    position: 
      x: -0.23322840281
      y: -12.461114165
      z: 0.0
    orientation: 
      x: 0.0
      y: 0.0
      z: -0.086418018905
      w: 0.996258965334
  covariance: [0.0053652731446821268, 0.0, 0.0, 0.0, 0.0, 0.0, 0.0, 0.0, 0.0, 0.0, 0.0, 0.0, 0.0, 0.0, 0.0, 0.0, 0.0, 0.0, 0.0, 0.0, 0.0, 0.0, 0.0, 0.0, 0.0, 0.0, 0.0, 0.0, 0.0093075353760167442, 0.0018943885673519676, 0.0, 0.0, 0.0, 0.0, 0.0018943885673524117, 0.0066302515702514652]
---
header: 
  seq: 214
  stamp: 
    secs: 1558953373
    nsecs: 221783920
  frame_id: map
pose: 
  pose: 
    position: 
      x: 0.229214160629
      y: -12.5049212652
      z: 0.0
    orientation: 
      x: 0.0
      y: 0.0
      z: -0.0708416010127
      w: 0.99748757765
  covariance: [0.0040502067045099337, 0.0, 0.0, 0.0, 0.0, 0.0, 0.0, 0.0, 0.0, 0.0, 0.0, 0.0, 0.0, 0.0, 0.0, 0.0, 0.0, 0.0, 0.0, 0.0, 0.0, 0.0, 0.0, 0.0, 0.0, 0.0, 0.0, 0.0, 0.010946398510493375, 0.0014103791057307707, 0.0, 0.0, 0.0, 0.0, 0.0014103791057307707, 0.0062743667640066903]
---
header: 
  seq: 215
  stamp: 
    secs: 1558953373
    nsecs: 819821784
  frame_id: map
pose: 
  pose: 
    position: 
      x: 0.702562772222
      y: -12.572475344
      z: 0.0
    orientation: 
      x: 0.0
      y: 0.0
      z: -0.070891943417
      w: 0.997484001054
  covariance: [0.00343374753316517, 0.0, 0.0, 0.0, 0.0, 0.0, 0.0, 0.0, 0.0, 0.0, 0.0, 0.0, 0.0, 0.0, 0.0, 0.0, 0.0, 0.0, 0.0, 0.0, 0.0, 0.0, 0.0, 0.0, 0.0, 0.0, 0.0, 0.0, 0.013035775314010086, 0.00089691289267804079, 0.0, 0.0, 0.0, 0.0, 0.00089691289267804079, 0.0063010192980260497]
---
header: 
  seq: 216
  stamp: 
    secs: 1558953374
    nsecs: 431143504
  frame_id: map
pose: 
  pose: 
    position: 
      x: 1.17904149424
      y: -12.6251781596
      z: 0.0
    orientation: 
      x: 0.0
      y: 0.0
      z: -0.0772707330632
      w: 0.997010147296
  covariance: [0.002667316167619629, 0.0, 0.0, 0.0, 0.0, 0.0, 0.0, 0.0, 0.0, 0.0, 0.0, 0.0, 0.0, 0.0, 0.0, 0.0, 0.0, 0.0, 0.0, 0.0, 0.0, 0.0, 0.0, 0.0, 0.0, 0.0, 0.0, 0.0, 0.01369218227348522, 0.00058872637854424416, 0.0, 0.0, 0.0, 0.0, 0.00058872637854424416, 0.0059885274751285654]
---
header: 
  seq: 217
  stamp: 
    secs: 1558953375
    nsecs: 29302372
  frame_id: map
pose: 
  pose: 
    position: 
      x: 1.64491646105
      y: -12.7182347873
      z: 0.0
    orientation: 
      x: 0.0
      y: 0.0
      z: -0.113220510394
      w: 0.993569884822
  covariance: [0.0022525216743601718, 0.0, 0.0, 0.0, 0.0, 0.0, 0.0, 0.0, 0.0, 0.0, 0.0, 0.0, 0.0, 0.0, 0.0, 0.0, 0.0, 0.0, 0.0, 0.0, 0.0, 0.0, 0.0, 0.0, 0.0, 0.0, 0.0, 0.0, 0.0128168401796467, 1.2175314285609295e-05, 0.0, 0.0, 0.0, 0.0, 1.2175314282056581e-05, 0.0055089174780768605]
---
header: 
  seq: 218
  stamp: 
    secs: 1558953375
    nsecs: 622038692
  frame_id: map
pose: 
  pose: 
    position: 
      x: 2.09885967233
      y: -12.825479078
      z: 0.0
    orientation: 
      x: 0.0
      y: 0.0
      z: -0.12130664291
      w: 0.992615080676
  covariance: [0.0022861278915493883, 0.0, 0.0, 0.0, 0.0, 0.0, 0.0, 0.0, 0.0, 0.0, 0.0, 0.0, 0.0, 0.0, 0.0, 0.0, 0.0, 0.0, 0.0, 0.0, 0.0, 0.0, 0.0, 0.0, 0.0, 0.0, 0.0, 0.0, 0.013141935140561847, 0.00029890122126520778, 0.0, 0.0, 0.0, 0.0, 0.00029890122126520778, 0.00507662415522756]
---
header: 
  seq: 219
  stamp: 
    secs: 1558953376
    nsecs: 225723109
  frame_id: map
pose: 
  pose: 
    position: 
      x: 2.56945999013
      y: -12.9181721456
      z: 0.0
    orientation: 
      x: 0.0
      y: 0.0
      z: -0.076242505535
      w: 0.9970893041
  covariance: [0.0022096630853496524, 0.0, 0.0, 0.0, 0.0, 0.0, 0.0, 0.0, 0.0, 0.0, 0.0, 0.0, 0.0, 0.0, 0.0, 0.0, 0.0, 0.0, 0.0, 0.0, 0.0, 0.0, 0.0, 0.0, 0.0, 0.0, 0.0, 0.0, 0.012577194569628457, 0.00026137020259513904, 0.0, 0.0, 0.0, 0.0, 0.00026137020259513904, 0.0049815894640311892]
---
header: 
  seq: 220
  stamp: 
    secs: 1558953376
    nsecs: 811085138
  frame_id: map
pose: 
  pose: 
    position: 
      x: 3.0327566397
      y: -12.9761540879
      z: 0.0
    orientation: 
      x: 0.0
      y: 0.0
      z: -0.0478436892615
      w: 0.998854834997
  covariance: [0.0019406498982574103, 0.0, 0.0, 0.0, 0.0, 0.0, 0.0, 0.0, 0.0, 0.0, 0.0, 0.0, 0.0, 0.0, 0.0, 0.0, 0.0, 0.0, 0.0, 0.0, 0.0, 0.0, 0.0, 0.0, 0.0, 0.0, 0.0, 0.0, 0.01092734036543595, 0.00018560565395438244, 0.0, 0.0, 0.0, 0.0, 0.00018560565395438244, 0.004737740934010257]
---
header: 
  seq: 221
  stamp: 
    secs: 1558953377
    nsecs: 427051370
  frame_id: map
pose: 
  pose: 
    position: 
      x: 3.5162921392
      y: -13.0056546891
      z: 0.0
    orientation: 
      x: 0.0
      y: 0.0
      z: 0.0121690746875
      w: 0.999925954069
  covariance: [0.0019625050725903879, 0.0, 0.0, 0.0, 0.0, 0.0, 0.0, 0.0, 0.0, 0.0, 0.0, 0.0, 0.0, 0.0, 0.0, 0.0, 0.0, 0.0, 0.0, 0.0, 0.0, 0.0, 0.0, 0.0, 0.0, 0.0, 0.0, 0.0, 0.012038016109951141, -7.0989997205320036e-06, 0.0, 0.0, 0.0, 0.0, -7.0989997134265762e-06, 0.0044899658701994727]
---
header: 
  seq: 222
  stamp: 
    secs: 1558953378
    nsecs: 10548991
  frame_id: map
pose: 
  pose: 
    position: 
      x: 3.98018207072
      y: -12.9831601663
      z: 0.0
    orientation: 
      x: 0.0
      y: 0.0
      z: 0.0650714264224
      w: 0.997880608822
  covariance: [0.0018793062190433191, 0.0, 0.0, 0.0, 0.0, 0.0, 0.0, 0.0, 0.0, 0.0, 0.0, 0.0, 0.0, 0.0, 0.0, 0.0, 0.0, 0.0, 0.0, 0.0, 0.0, 0.0, 0.0, 0.0, 0.0, 0.0, 0.0, 0.0, 0.012624055098419169, -0.00013688203221916194, 0.0, 0.0, 0.0, 0.0, -0.00013688203221916194, 0.0045133054876006955]
---
header: 
  seq: 223
  stamp: 
    secs: 1558953378
    nsecs: 621261682
  frame_id: map
pose: 
  pose: 
    position: 
      x: 4.46053846426
      y: -12.9073943563
      z: 0.0
    orientation: 
      x: 0.0
      y: 0.0
      z: 0.0986438965486
      w: 0.995122797284
  covariance: [0.0019330056426370894, 0.0, 0.0, 0.0, 0.0, 0.0, 0.0, 0.0, 0.0, 0.0, 0.0, 0.0, 0.0, 0.0, 0.0, 0.0, 0.0, 0.0, 0.0, 0.0, 0.0, 0.0, 0.0, 0.0, 0.0, 0.0, 0.0, 0.0, 0.013678360871562585, -0.00049395248800983228, 0.0, 0.0, 0.0, 0.0, -0.00049395248800983228, 0.0044143974597283574]
---
header: 
  seq: 224
  stamp: 
    secs: 1558953379
    nsecs: 198670729
  frame_id: map
pose: 
  pose: 
    position: 
      x: 4.91896166294
      y: -12.8062086296
      z: 0.0
    orientation: 
      x: 0.0
      y: 0.0
      z: 0.118146399757
      w: 0.992996187417
  covariance: [0.0017341861820863622, 0.0, 0.0, 0.0, 0.0, 0.0, 0.0, 0.0, 0.0, 0.0, 0.0, 0.0, 0.0, 0.0, 0.0, 0.0, 0.0, 0.0, 0.0, 0.0, 0.0, 0.0, 0.0, 0.0, 0.0, 0.0, 0.0, 0.0, 0.012770931028479296, -0.00062530421337928942, 0.0, 0.0, 0.0, 0.0, -0.00062530421337928942, 0.0044664599744129512]
---
header: 
  seq: 225
  stamp: 
    secs: 1558953379
    nsecs: 828013818
  frame_id: map
pose: 
  pose: 
    position: 
      x: 5.40716510236
      y: -12.6911731865
      z: 0.0
    orientation: 
      x: 0.0
      y: 0.0
      z: 0.108058699771
      w: 0.994144515352
  covariance: [0.0018480346839308457, 0.0, 0.0, 0.0, 0.0, 0.0, 0.0, 0.0, 0.0, 0.0, 0.0, 0.0, 0.0, 0.0, 0.0, 0.0, 0.0, 0.0, 0.0, 0.0, 0.0, 0.0, 0.0, 0.0, 0.0, 0.0, 0.0, 0.0, 0.010878120655583155, -0.00065654725426965216, 0.0, 0.0, 0.0, 0.0, -0.00065654725426965216, 0.0046709370115727827]
---
header: 
  seq: 226
  stamp: 
    secs: 1558953380
    nsecs: 398582927
  frame_id: map
pose: 
  pose: 
    position: 
      x: 5.84527977934
      y: -12.613836908
      z: 0.0
    orientation: 
      x: 0.0
      y: 0.0
      z: 0.0336676906024
      w: 0.999433082607
  covariance: [0.0018163938605602289, 0.0, 0.0, 0.0, 0.0, 0.0, 0.0, 0.0, 0.0, 0.0, 0.0, 0.0, 0.0, 0.0, 0.0, 0.0, 0.0, 0.0, 0.0, 0.0, 0.0, 0.0, 0.0, 0.0, 0.0, 0.0, 0.0, 0.0, 0.010593978865758457, -0.00065633264641304183, 0.0, 0.0, 0.0, 0.0, -0.00065633264641304183, 0.0044861393555050586]
---
header: 
  seq: 227
  stamp: 
    secs: 1558953381
    nsecs: 102261272
  frame_id: map
pose: 
  pose: 
    position: 
      x: 6.32874260843
      y: -12.6184640527
      z: 0.0
    orientation: 
      x: 0.0
      y: 0.0
      z: -0.107065548885
      w: 0.994251964163
  covariance: [0.0024126521941645719, 0.0, 0.0, 0.0, 0.0, 0.0, 0.0, 0.0, 0.0, 0.0, 0.0, 0.0, 0.0, 0.0, 0.0, 0.0, 0.0, 0.0, 0.0, 0.0, 0.0, 0.0, 0.0, 0.0, 0.0, 0.0, 0.0, 0.0, 0.0098704319113501506, -0.00052525144658553409, 0.0, 0.0, 0.0, 0.0, -0.00052525144658553409, 0.0048005077535041314]
---
header: 
  seq: 228
  stamp: 
    secs: 1558953381
    nsecs: 799240352
  frame_id: map
pose: 
  pose: 
    position: 
      x: 6.76205021228
      y: -12.7598456683
      z: 0.0
    orientation: 
      x: 0.0
      y: 0.0
      z: -0.261251039559
      w: 0.965270891682
  covariance: [0.0025897585673200041, 0.0, 0.0, 0.0, 0.0, 0.0, 0.0, 0.0, 0.0, 0.0, 0.0, 0.0, 0.0, 0.0, 0.0, 0.0, 0.0, 0.0, 0.0, 0.0, 0.0, 0.0, 0.0, 0.0, 0.0, 0.0, 0.0, 0.0, 0.0095286329732378345, -0.00018494880370715025, 0.0, 0.0, 0.0, 0.0, -0.00018494880369293939, 0.0049768805656733826]
---
header: 
  seq: 229
  stamp: 
    secs: 1558953382
    nsecs: 686096566
  frame_id: map
pose: 
  pose: 
    position: 
      x: 7.16571382084
      y: -13.1192060625
      z: 0.0
    orientation: 
      x: 0.0
      y: 0.0
      z: -0.482052442971
      w: 0.876142364131
  covariance: [0.0038893959360201012, 0.0, 0.0, 0.0, 0.0, 0.0, 0.0, 0.0, 0.0, 0.0, 0.0, 0.0, 0.0, 0.0, 0.0, 0.0, 0.0, 0.0, 0.0, 0.0, 0.0, 0.0, 0.0, 0.0, 0.0, 0.0, 0.0, 0.0, 0.010028612802801762, 0.00086774584664105409, 0.0, 0.0, 0.0, 0.0, 0.00086774584664105409, 0.0062581369711730249]
---
header: 
  seq: 230
  stamp: 
    secs: 1558953383
    nsecs: 894295749
  frame_id: map
pose: 
  pose: 
    position: 
      x: 7.32255907858
      y: -13.5532671687
      z: 0.0
    orientation: 
      x: 0.0
      y: 0.0
      z: -0.717301177527
      w: 0.696763245815
  covariance: [0.0050599383685838578, 0.0, 0.0, 0.0, 0.0, 0.0, 0.0, 0.0, 0.0, 0.0, 0.0, 0.0, 0.0, 0.0, 0.0, 0.0, 0.0, 0.0, 0.0, 0.0, 0.0, 0.0, 0.0, 0.0, 0.0, 0.0, 0.0, 0.0, 0.010149673023216991, 0.0027251660829369145, 0.0, 0.0, 0.0, 0.0, 0.0027251660829369145, 0.009279636431021334]
---
header: 
  seq: 231
  stamp: 
    secs: 1558953386
    nsecs: 289199262
  frame_id: map
pose: 
  pose: 
    position: 
      x: 7.18318303197
      y: -13.9563367738
      z: 0.0
    orientation: 
      x: 0.0
      y: 0.0
      z: -0.863328430443
      w: 0.504642468674
  covariance: [0.0054404770929374771, 0.0, 0.0, 0.0, 0.0, 0.0, 0.0, 0.0, 0.0, 0.0, 0.0, 0.0, 0.0, 0.0, 0.0, 0.0, 0.0, 0.0, 0.0, 0.0, 0.0, 0.0, 0.0, 0.0, 0.0, 0.0, 0.0, 0.0, 0.0080668612534974555, 0.0029786861537978919, 0.0, 0.0, 0.0, 0.0, 0.0029786861538121027, 0.0128845479990581]
---
header: 
  seq: 232
  stamp: 
    secs: 1558953398
    nsecs: 725826490
  frame_id: map
pose: 
  pose: 
    position: 
      x: 7.10256073587
      y: -14.2972859722
      z: 0.0
    orientation: 
      x: 0.0
      y: 0.0
      z: -0.712819257872
      w: 0.70134777793
  covariance: [0.011375386833562434, 0.0, 0.0, 0.0, 0.0, 0.0, 0.0, 0.0, 0.0, 0.0, 0.0, 0.0, 0.0, 0.0, 0.0, 0.0, 0.0, 0.0, 0.0, 0.0, 0.0, 0.0, 0.0, 0.0, 0.0, 0.0, 0.0, 0.0, 0.0092973462643727352, 0.0045954915843094907, 0.0, 0.0, 0.0, 0.0, 0.0045954915843094907, 0.019479541567640854]
---
header: 
  seq: 233
  stamp: 
    secs: 1558953404
    nsecs: 118764068
  frame_id: map
pose: 
  pose: 
    position: 
      x: 7.11550116952
      y: -14.7167043041
      z: 0.0
    orientation: 
      x: 0.0
      y: 0.0
      z: -0.691627773946
      w: 0.72225412585
  covariance: [0.011118532973719208, 0.0, 0.0, 0.0, 0.0, 0.0, 0.0, 0.0, 0.0, 0.0, 0.0, 0.0, 0.0, 0.0, 0.0, 0.0, 0.0, 0.0, 0.0, 0.0, 0.0, 0.0, 0.0, 0.0, 0.0, 0.0, 0.0, 0.0, 0.0072255894276332415, 0.0041400980123540076, 0.0, 0.0, 0.0, 0.0, 0.0041400980123682185, 0.027241395878412757]
---
header: 
  seq: 234
  stamp: 
    secs: 1558953410
    nsecs: 88929294
  frame_id: map
pose: 
  pose: 
    position: 
      x: 7.12722745675
      y: -15.1349008484
      z: 0.0
    orientation: 
      x: 0.0
      y: 0.0
      z: -0.717919887138
      w: 0.696125732646
  covariance: [0.010354885065661028, 0.0, 0.0, 0.0, 0.0, 0.0, 0.0, 0.0, 0.0, 0.0, 0.0, 0.0, 0.0, 0.0, 0.0, 0.0, 0.0, 0.0, 0.0, 0.0, 0.0, 0.0, 0.0, 0.0, 0.0, 0.0, 0.0, 0.0, 0.0056881029322202311, 0.0040379020365280613, 0.0, 0.0, 0.0, 0.0, 0.0040379020365422721, 0.037759254991630645]
---
