header: 
  seq: 2680
  stamp: 
    secs: 1559226987
    nsecs: 681422934
  frame_id: map
pose: 
  pose: 
    position: 
      x: 5.99140507611
      y: -13.7590085555
      z: 0.0
    orientation: 
      x: 0.0
      y: 0.0
      z: -0.71906963117
      w: 0.694938029992
  covariance: [0.017931857727562214, 0.0, 0.0, 0.0, 0.0, 0.0, 0.0, 0.0, 0.0, 0.0, 0.0, 0.0, 0.0, 0.0, 0.0, 0.0, 0.0, 0.0, 0.0, 0.0, 0.0, 0.0, 0.0, 0.0, 0.0, 0.0, 0.0, 0.0, 0.0081109036029611836, -0.0016974295944176432, 0.0, 0.0, 0.0, 0.0, -0.0016974295944176432, 0.037628618379284967]
---
header: 
  seq: 2681
  stamp: 
    secs: 1559227004
    nsecs: 695400234
  frame_id: map
pose: 
  pose: 
    position: 
      x: 5.96775923475
      y: -13.2860599739
      z: 0.0
    orientation: 
      x: 0.0
      y: 0.0
      z: -0.706926848504
      w: 0.707286668095
  covariance: [0.01376800845302497, 0.0, 0.0, 0.0, 0.0, 0.0, 0.0, 0.0, 0.0, 0.0, 0.0, 0.0, 0.0, 0.0, 0.0, 0.0, 0.0, 0.0, 0.0, 0.0, 0.0, 0.0, 0.0, 0.0, 0.0, 0.0, 0.0, 0.0, 0.0068152892936943965, -0.0011226700113401039, 0.0, 0.0, 0.0, 0.0, -0.0011226700113401039, 0.031653978218432022]
---
header: 
  seq: 2682
  stamp: 
    secs: 1559227006
    nsecs: 480590490
  frame_id: map
pose: 
  pose: 
    position: 
      x: 5.99167408287
      y: -12.8341212503
      z: 0.0
    orientation: 
      x: 0.0
      y: 0.0
      z: -0.708130220395
      w: 0.706081858543
  covariance: [0.010027419335087266, 0.0, 0.0, 0.0, 0.0, 0.0, 0.0, 0.0, 0.0, 0.0, 0.0, 0.0, 0.0, 0.0, 0.0, 0.0, 0.0, 0.0, 0.0, 0.0, 0.0, 0.0, 0.0, 0.0, 0.0, 0.0, 0.0, 0.0, 0.0058115376988512489, -0.00086622292867767137, 0.0, 0.0, 0.0, 0.0, -0.00086622292867767137, 0.032787017696593437]
---
header: 
  seq: 2683
  stamp: 
    secs: 1559227010
    nsecs: 277275273
  frame_id: map
pose: 
  pose: 
    position: 
      x: 6.18399234946
      y: -13.0862496042
      z: 0.0
    orientation: 
      x: 0.0
      y: 0.0
      z: -0.337119750147
      w: 0.941461775146
  covariance: [0.0089563164046033844, 0.0, 0.0, 0.0, 0.0, 0.0, 0.0, 0.0, 0.0, 0.0, 0.0, 0.0, 0.0, 0.0, 0.0, 0.0, 0.0, 0.0, 0.0, 0.0, 0.0, 0.0, 0.0, 0.0, 0.0, 0.0, 0.0, 0.0, 0.0063041715649149567, -0.0019558478361305408, 0.0, 0.0, 0.0, 0.0, -0.0019558478361447517, 0.026667617994200966]
---
header: 
  seq: 2684
  stamp: 
    secs: 1559227011
    nsecs: 513650820
  frame_id: map
pose: 
  pose: 
    position: 
      x: 6.55561930802
      y: -13.4023013978
      z: 0.0
    orientation: 
      x: 0.0
      y: 0.0
      z: -0.330572459182
      w: 0.94378061499
  covariance: [0.0070390080702803313, 0.0, 0.0, 0.0, 0.0, 0.0, 0.0, 0.0, 0.0, 0.0, 0.0, 0.0, 0.0, 0.0, 0.0, 0.0, 0.0, 0.0, 0.0, 0.0, 0.0, 0.0, 0.0, 0.0, 0.0, 0.0, 0.0, 0.0, 0.0064637203609589633, -0.0018701210635896999, 0.0, 0.0, 0.0, 0.0, -0.0018701210636039107, 0.021735756699813764]
---
header: 
  seq: 2685
  stamp: 
    secs: 1559227012
    nsecs: 901669694
  frame_id: map
pose: 
  pose: 
    position: 
      x: 6.86718232931
      y: -13.7075032933
      z: 0.0
    orientation: 
      x: 0.0
      y: 0.0
      z: -0.517320589957
      w: 0.855791684469
  covariance: [0.0063537093523790686, 0.0, 0.0, 0.0, 0.0, 0.0, 0.0, 0.0, 0.0, 0.0, 0.0, 0.0, 0.0, 0.0, 0.0, 0.0, 0.0, 0.0, 0.0, 0.0, 0.0, 0.0, 0.0, 0.0, 0.0, 0.0, 0.0, 0.0, 0.0071161745665310533, -0.0013205605947231498, 0.0, 0.0, 0.0, 0.0, -0.0013205605947231498, 0.020372406959208802]
---
header: 
  seq: 2686
  stamp: 
    secs: 1559227023
    nsecs: 924343046
  frame_id: map
pose: 
  pose: 
    position: 
      x: 6.98449977643
      y: -14.0852476661
      z: 0.0
    orientation: 
      x: 0.0
      y: 0.0
      z: -0.54565330647
      w: 0.8380110197
  covariance: [0.0053768154919496365, 0.0, 0.0, 0.0, 0.0, 0.0, 0.0, 0.0, 0.0, 0.0, 0.0, 0.0, 0.0, 0.0, 0.0, 0.0, 0.0, 0.0, 0.0, 0.0, 0.0, 0.0, 0.0, 0.0, 0.0, 0.0, 0.0, 0.0, 0.0062245951125906532, -0.00015048707213306936, 0.0, 0.0, 0.0, 0.0, -0.00015048707213306936, 0.019763864430030868]
---
header: 
  seq: 2687
  stamp: 
    secs: 1559227025
    nsecs: 618934013
  frame_id: map
pose: 
  pose: 
    position: 
      x: 7.16108916958
      y: -14.4973628941
      z: 0.0
    orientation: 
      x: 0.0
      y: 0.0
      z: -0.547419244238
      w: 0.836858513154
  covariance: [0.0046614326529250552, 0.0, 0.0, 0.0, 0.0, 0.0, 0.0, 0.0, 0.0, 0.0, 0.0, 0.0, 0.0, 0.0, 0.0, 0.0, 0.0, 0.0, 0.0, 0.0, 0.0, 0.0, 0.0, 0.0, 0.0, 0.0, 0.0, 0.0, 0.0058507158231714063, 0.00090461032805748995, 0.0, 0.0, 0.0, 0.0, 0.00090461032805748995, 0.01924401120732349]
---
header: 
  seq: 2688
  stamp: 
    secs: 1559227034
    nsecs: 678519974
  frame_id: map
pose: 
  pose: 
    position: 
      x: 7.24748719908
      y: -14.9191529788
      z: 0.0
    orientation: 
      x: 0.0
      y: 0.0
      z: -0.682844516493
      w: 0.730563731851
  covariance: [0.004919609887752311, 0.0, 0.0, 0.0, 0.0, 0.0, 0.0, 0.0, 0.0, 0.0, 0.0, 0.0, 0.0, 0.0, 0.0, 0.0, 0.0, 0.0, 0.0, 0.0, 0.0, 0.0, 0.0, 0.0, 0.0, 0.0, 0.0, 0.0, 0.0052557670028325803, 0.0017813943980215347, 0.0, 0.0, 0.0, 0.0, 0.0017813943980357456, 0.021205792194230331]
---
header: 
  seq: 2689
  stamp: 
    secs: 1559229154
    nsecs: 721426413
  frame_id: map
pose: 
  pose: 
    position: 
      x: 7.26680104083
      y: -14.8994288934
      z: 0.0
    orientation: 
      x: 0.0
      y: 0.0
      z: -0.707867584914
      w: 0.706345157999
  covariance: [0.005025053391602286, 0.0, 0.0, 0.0, 0.0, 0.0, 0.0, 0.0, 0.0, 0.0, 0.0, 0.0, 0.0, 0.0, 0.0, 0.0, 0.0, 0.0, 0.0, 0.0, 0.0, 0.0, 0.0, 0.0, 0.0, 0.0, 0.0, 0.0, 0.0045838406511249765, 0.0014384719691767993, 0.0, 0.0, 0.0, 0.0, 0.0014384719691625885, 0.02093313952370545]
---
header: 
  seq: 2690
  stamp: 
    secs: 1559229156
    nsecs: 317885968
  frame_id: map
pose: 
  pose: 
    position: 
      x: 7.28723072805
      y: -14.4433317826
      z: 0.0
    orientation: 
      x: 0.0
      y: 0.0
      z: -0.713756458646
      w: 0.700393973233
  covariance: [0.0049895747546872199, 0.0, 0.0, 0.0, 0.0, 0.0, 0.0, 0.0, 0.0, 0.0, 0.0, 0.0, 0.0, 0.0, 0.0, 0.0, 0.0, 0.0, 0.0, 0.0, 0.0, 0.0, 0.0, 0.0, 0.0, 0.0, 0.0, 0.0, 0.0041897311151190015, 0.00036961123634324385, 0.0, 0.0, 0.0, 0.0, 0.00036961123635745471, 0.016702422486118182]
---
header: 
  seq: 2691
  stamp: 
    secs: 1559229157
    nsecs: 892429691
  frame_id: map
pose: 
  pose: 
    position: 
      x: 7.24201781014
      y: -13.9674766137
      z: 0.0
    orientation: 
      x: 0.0
      y: 0.0
      z: -0.710456697926
      w: 0.703740918501
  covariance: [0.0048535972246377367, 0.0, 0.0, 0.0, 0.0, 0.0, 0.0, 0.0, 0.0, 0.0, 0.0, 0.0, 0.0, 0.0, 0.0, 0.0, 0.0, 0.0, 0.0, 0.0, 0.0, 0.0, 0.0, 0.0, 0.0, 0.0, 0.0, 0.0, 0.0040335464523760167, -0.00021257317821804316, 0.0, 0.0, 0.0, 0.0, -0.00021257317821804316, 0.014792074259716568]
---
header: 
  seq: 2692
  stamp: 
    secs: 1559229159
    nsecs: 492282706
  frame_id: map
pose: 
  pose: 
    position: 
      x: 7.2932331088
      y: -13.4798748689
      z: 0.0
    orientation: 
      x: 0.0
      y: 0.0
      z: -0.712676630825
      w: 0.701492708355
  covariance: [0.0047524838145238521, 0.0, 0.0, 0.0, 0.0, 0.0, 0.0, 0.0, 0.0, 0.0, 0.0, 0.0, 0.0, 0.0, 0.0, 0.0, 0.0, 0.0, 0.0, 0.0, 0.0, 0.0, 0.0, 0.0, 0.0, 0.0, 0.0, 0.0, 0.0037959830393970552, -0.0008277012438752398, 0.0, 0.0, 0.0, 0.0, -0.00082770124388945065, 0.01575425765730747]
---
header: 
  seq: 2693
  stamp: 
    secs: 1559229163
    nsecs: 908796221
  frame_id: map
pose: 
  pose: 
    position: 
      x: 7.27372049321
      y: -13.3409271719
      z: 0.0
    orientation: 
      x: 0.0
      y: 0.0
      z: -0.973592559464
      w: 0.228292637105
  covariance: [0.0081446420927776906, 0.0, 0.0, 0.0, 0.0, 0.0, 0.0, 0.0, 0.0, 0.0, 0.0, 0.0, 0.0, 0.0, 0.0, 0.0, 0.0, 0.0, 0.0, 0.0, 0.0, 0.0, 0.0, 0.0, 0.0, 0.0, 0.0, 0.0, 0.0069228800407495749, -0.00031306562233467496, 0.0, 0.0, 0.0, 0.0, -0.00031306562233467496, 0.016767410257296798]
---
header: 
  seq: 2694
  stamp: 
    secs: 1559229165
    nsecs: 912866899
  frame_id: map
pose: 
  pose: 
    position: 
      x: 6.87071749027
      y: -13.2855744118
      z: 0.0
    orientation: 
      x: 0.0
      y: 0.0
      z: 0.986114178973
      w: 0.166068738867
  covariance: [0.0067395470557856801, 0.0, 0.0, 0.0, 0.0, 0.0, 0.0, 0.0, 0.0, 0.0, 0.0, 0.0, 0.0, 0.0, 0.0, 0.0, 0.0, 0.0, 0.0, 0.0, 0.0, 0.0, 0.0, 0.0, 0.0, 0.0, 0.0, 0.0, 0.0064078169350866255, 0.00055081394940142492, 0.0, 0.0, 0.0, 0.0, 0.00055081394940142492, 0.01587514664313525]
---
header: 
  seq: 2695
  stamp: 
    secs: 1559229167
    nsecs: 686494503
  frame_id: map
pose: 
  pose: 
    position: 
      x: 6.33790909754
      y: -13.069294419
      z: 0.0
    orientation: 
      x: 0.0
      y: 0.0
      z: 0.988002349188
      w: 0.154438848736
  covariance: [0.0060014889239712165, 0.0, 0.0, 0.0, 0.0, 0.0, 0.0, 0.0, 0.0, 0.0, 0.0, 0.0, 0.0, 0.0, 0.0, 0.0, 0.0, 0.0, 0.0, 0.0, 0.0, 0.0, 0.0, 0.0, 0.0, 0.0, 0.0, 0.0, 0.0081352344624033724, 0.0022803363254089107, 0.0, 0.0, 0.0, 0.0, 0.0022803363254089107, 0.015818108203159688]
---
header: 
  seq: 2696
  stamp: 
    secs: 1559229173
    nsecs: 188255170
  frame_id: map
pose: 
  pose: 
    position: 
      x: 6.07706459617
      y: -12.9772984059
      z: 0.0
    orientation: 
      x: 0.0
      y: 0.0
      z: -0.983880026143
      w: 0.178829791023
  covariance: [0.008243026277973459, 0.0, 0.0, 0.0, 0.0, 0.0, 0.0, 0.0, 0.0, 0.0, 0.0, 0.0, 0.0, 0.0, 0.0, 0.0, 0.0, 0.0, 0.0, 0.0, 0.0, 0.0, 0.0, 0.0, 0.0, 0.0, 0.0, 0.0, 0.0086605156146965252, 0.0026804063180817859, 0.0, 0.0, 0.0, 0.0, 0.0026804063180817859, 0.018285480501592063]
---
header: 
  seq: 2697
  stamp: 
    secs: 1559229175
    nsecs: 723538324
  frame_id: map
pose: 
  pose: 
    position: 
      x: 6.07101134425
      y: -12.9888218335
      z: 0.0
    orientation: 
      x: 0.0
      y: 0.0
      z: -0.758479943418
      w: 0.65169638286
  covariance: [0.01161403633128801, 0.0, 0.0, 0.0, 0.0, 0.0, 0.0, 0.0, 0.0, 0.0, 0.0, 0.0, 0.0, 0.0, 0.0, 0.0, 0.0, 0.0, 0.0, 0.0, 0.0, 0.0, 0.0, 0.0, 0.0, 0.0, 0.0, 0.0, 0.009370446569759083, 0.0041213305936128059, 0.0, 0.0, 0.0, 0.0, 0.0041213305936128059, 0.019778986373328557]
---
header: 
  seq: 2698
  stamp: 
    secs: 1559229189
    nsecs: 279644435
  frame_id: map
pose: 
  pose: 
    position: 
      x: 6.00466552457
      y: -13.4770761037
      z: 0.0
    orientation: 
      x: 0.0
      y: 0.0
      z: -0.706664774577
      w: 0.707548511674
  covariance: [0.0092622488897927957, 0.0, 0.0, 0.0, 0.0, 0.0, 0.0, 0.0, 0.0, 0.0, 0.0, 0.0, 0.0, 0.0, 0.0, 0.0, 0.0, 0.0, 0.0, 0.0, 0.0, 0.0, 0.0, 0.0, 0.0, 0.0, 0.0, 0.0, 0.0082326782043792082, 0.0023573497303589772, 0.0, 0.0, 0.0, 0.0, 0.0023573497303589772, 0.017316661611026508]
---
header: 
  seq: 2699
  stamp: 
    secs: 1559229210
    nsecs: 265203227
  frame_id: map
pose: 
  pose: 
    position: 
      x: 5.95862980629
      y: -13.4983974288
      z: 0.0
    orientation: 
      x: 0.0
      y: 0.0
      z: -0.677347268042
      w: 0.735663427443
  covariance: [0.0076955315578744986, 0.0, 0.0, 0.0, 0.0, 0.0, 0.0, 0.0, 0.0, 0.0, 0.0, 0.0, 0.0, 0.0, 0.0, 0.0, 0.0, 0.0, 0.0, 0.0, 0.0, 0.0, 0.0, 0.0, 0.0, 0.0, 0.0, 0.0, 0.0071577321822878784, 0.0018696760722418826, 0.0, 0.0, 0.0, 0.0, 0.0018696760722418826, 0.015726906095356992]
---
header: 
  seq: 2700
  stamp: 
    secs: 1559229211
    nsecs: 854658830
  frame_id: map
pose: 
  pose: 
    position: 
      x: 5.92115353648
      y: -13.0358962233
      z: 0.0
    orientation: 
      x: 0.0
      y: 0.0
      z: -0.688379905695
      w: 0.725350332898
  covariance: [0.0068257225685996771, 0.0, 0.0, 0.0, 0.0, 0.0, 0.0, 0.0, 0.0, 0.0, 0.0, 0.0, 0.0, 0.0, 0.0, 0.0, 0.0, 0.0, 0.0, 0.0, 0.0, 0.0, 0.0, 0.0, 0.0, 0.0, 0.0, 0.0, 0.0066479077686980928, 0.0025324670556587732, 0.0, 0.0, 0.0, 0.0, 0.0025324670556587732, 0.015697449413120144]
---
header: 
  seq: 2701
  stamp: 
    secs: 1559229215
    nsecs: 843286403
  frame_id: map
pose: 
  pose: 
    position: 
      x: 5.92058897986
      y: -12.8224124524
      z: 0.0
    orientation: 
      x: 0.0
      y: 0.0
      z: -0.908658709478
      w: 0.417539638465
  covariance: [0.0082930085521181664, 0.0, 0.0, 0.0, 0.0, 0.0, 0.0, 0.0, 0.0, 0.0, 0.0, 0.0, 0.0, 0.0, 0.0, 0.0, 0.0, 0.0, 0.0, 0.0, 0.0, 0.0, 0.0, 0.0, 0.0, 0.0, 0.0, 0.0, 0.0089170434669576006, 0.0033326378141577896, 0.0, 0.0, 0.0, 0.0, 0.0033326378141577896, 0.016001203161311699]
---
header: 
  seq: 2702
  stamp: 
    secs: 1559229218
    nsecs: 38949657
  frame_id: map
pose: 
  pose: 
    position: 
      x: 5.89772469048
      y: -12.834822208
      z: 0.0
    orientation: 
      x: 0.0
      y: 0.0
      z: 0.993703895504
      w: 0.112038243738
  covariance: [0.0083680908098012468, 0.0, 0.0, 0.0, 0.0, 0.0, 0.0, 0.0, 0.0, 0.0, 0.0, 0.0, 0.0, 0.0, 0.0, 0.0, 0.0, 0.0, 0.0, 0.0, 0.0, 0.0, 0.0, 0.0, 0.0, 0.0, 0.0, 0.0, 0.0091892400848411424, 0.0040672021094587838, 0.0, 0.0, 0.0, 0.0, 0.0040672021094587838, 0.01766343476410899]
---
header: 
  seq: 2703
  stamp: 
    secs: 1559229220
    nsecs: 223160808
  frame_id: map
pose: 
  pose: 
    position: 
      x: 5.8442866134
      y: -12.8002462249
      z: 0.0
    orientation: 
      x: 0.0
      y: 0.0
      z: 0.789536824226
      w: 0.613703188187
  covariance: [0.010432227852173709, 0.0, 0.0, 0.0, 0.0, 0.0, 0.0, 0.0, 0.0, 0.0, 0.0, 0.0, 0.0, 0.0, 0.0, 0.0, 0.0, 0.0, 0.0, 0.0, 0.0, 0.0, 0.0, 0.0, 0.0, 0.0, 0.0, 0.0, 0.01146553703650984, 0.0017369640442158228, 0.0, 0.0, 0.0, 0.0, 0.0017369640442158228, 0.019059630594054314]
---
header: 
  seq: 2704
  stamp: 
    secs: 1559229222
    nsecs: 226944451
  frame_id: map
pose: 
  pose: 
    position: 
      x: 5.91235751229
      y: -12.6422638677
      z: 0.0
    orientation: 
      x: 0.0
      y: 0.0
      z: 0.380747123571
      w: 0.924679202693
  covariance: [0.18987647564179752, 0.0, 0.0, 0.0, 0.0, 0.0, 0.0, 0.0, 0.0, 0.0, 0.0, 0.0, 0.0, 0.0, 0.0, 0.0, 0.0, 0.0, 0.0, 0.0, 0.0, 0.0, 0.0, 0.0, 0.0, 0.0, 0.0, 0.0, 7.2336618188287893, 2.1517376613577777, 0.0, 0.0, 0.0, 0.0, 2.1517376613577777, 4.2734471525400313]
---
header: 
  seq: 2705
  stamp: 
    secs: 1559229224
    nsecs: 115640395
  frame_id: map
pose: 
  pose: 
    position: 
      x: 6.37231230055
      y: -12.4955304152
      z: 0.0
    orientation: 
      x: 0.0
      y: 0.0
      z: 0.042864847032
      w: 0.999080880054
  covariance: [0.10765528833759384, 0.0, 0.0, 0.0, 0.0, 0.0, 0.0, 0.0, 0.0, 0.0, 0.0, 0.0, 0.0, 0.0, 0.0, 0.0, 0.0, 0.0, 0.0, 0.0, 0.0, 0.0, 0.0, 0.0, 0.0, 0.0, 0.0, 0.0, 5.1977968109634327, 0.96587732874736199, 0.0, 0.0, 0.0, 0.0, 0.96587732874739041, 1.8469522144992092]
---
header: 
  seq: 2706
  stamp: 
    secs: 1559229224
    nsecs: 910379528
  frame_id: map
pose: 
  pose: 
    position: 
      x: 6.84225353425
      y: -12.4530336412
      z: 0.0
    orientation: 
      x: 0.0
      y: 0.0
      z: 0.00872720739919
      w: 0.9999619172
  covariance: [0.054159112767495077, 0.0, 0.0, 0.0, 0.0, 0.0, 0.0, 0.0, 0.0, 0.0, 0.0, 0.0, 0.0, 0.0, 0.0, 0.0, 0.0, 0.0, 0.0, 0.0, 0.0, 0.0, 0.0, 0.0, 0.0, 0.0, 0.0, 0.0, 2.849908827166725, 0.41749031156590871, 0.0, 0.0, 0.0, 0.0, 0.41749031156590871, 0.76510026405709985]
---
header: 
  seq: 2707
  stamp: 
    secs: 1559229225
    nsecs: 504492054
  frame_id: map
pose: 
  pose: 
    position: 
      x: 7.33841096333
      y: -12.4462615651
      z: 0.0
    orientation: 
      x: 0.0
      y: 0.0
      z: -0.0225426178506
      w: 0.999745882902
  covariance: [0.031124831617355721, 0.0, 0.0, 0.0, 0.0, 0.0, 0.0, 0.0, 0.0, 0.0, 0.0, 0.0, 0.0, 0.0, 0.0, 0.0, 0.0, 0.0, 0.0, 0.0, 0.0, 0.0, 0.0, 0.0, 0.0, 0.0, 0.0, 0.0, 1.2927050224335652, 0.08688032068351291, 0.0, 0.0, 0.0, 0.0, 0.086880320683527121, 0.15807076332282352]
---
header: 
  seq: 2708
  stamp: 
    secs: 1559229226
    nsecs: 99823293
  frame_id: map
pose: 
  pose: 
    position: 
      x: 7.83002623147
      y: -12.4786490977
      z: 0.0
    orientation: 
      x: 0.0
      y: 0.0
      z: -0.0251040792824
      w: 0.99968484294
  covariance: [0.01591158147184079, 0.0, 0.0, 0.0, 0.0, 0.0, 0.0, 0.0, 0.0, 0.0, 0.0, 0.0, 0.0, 0.0, 0.0, 0.0, 0.0, 0.0, 0.0, 0.0, 0.0, 0.0, 0.0, 0.0, 0.0, 0.0, 0.0, 0.0, 0.88756003219766011, 0.027878203523038724, 0.0, 0.0, 0.0, 0.0, 0.027878203523052935, 0.078847944889291366]
---
header: 
  seq: 2709
  stamp: 
    secs: 1559229226
    nsecs: 701895121
  frame_id: map
pose: 
  pose: 
    position: 
      x: 8.30249405451
      y: -12.4955817385
      z: 0.0
    orientation: 
      x: 0.0
      y: 0.0
      z: -0.0289243290543
      w: 0.999581604067
  covariance: [0.010047553269149578, 0.0, 0.0, 0.0, 0.0, 0.0, 0.0, 0.0, 0.0, 0.0, 0.0, 0.0, 0.0, 0.0, 0.0, 0.0, 0.0, 0.0, 0.0, 0.0, 0.0, 0.0, 0.0, 0.0, 0.0, 0.0, 0.0, 0.0, 0.67025534019553534, 0.043236042038850162, 0.0, 0.0, 0.0, 0.0, 0.043236042038850162, 0.051141134182125167]
---
header: 
  seq: 2710
  stamp: 
    secs: 1559229227
    nsecs: 310451528
  frame_id: map
pose: 
  pose: 
    position: 
      x: 8.77964646325
      y: -12.5077285656
      z: 0.0
    orientation: 
      x: 0.0
      y: 0.0
      z: 0.00373215320908
      w: 0.999993035492
  covariance: [0.0083226633604204011, 0.0, 0.0, 0.0, 0.0, 0.0, 0.0, 0.0, 0.0, 0.0, 0.0, 0.0, 0.0, 0.0, 0.0, 0.0, 0.0, 0.0, 0.0, 0.0, 0.0, 0.0, 0.0, 0.0, 0.0, 0.0, 0.0, 0.0, 0.39916086615681551, -0.00060165494736496227, 0.0, 0.0, 0.0, 0.0, -0.00060165494736496227, 0.031935606818024612]
---
header: 
  seq: 2711
  stamp: 
    secs: 1559229227
    nsecs: 898604494
  frame_id: map
pose: 
  pose: 
    position: 
      x: 9.25991328423
      y: -12.4902470879
      z: 0.0
    orientation: 
      x: 0.0
      y: 0.0
      z: 0.0239805187015
      w: 0.999712426012
  covariance: [0.0036867127923968729, 0.0, 0.0, 0.0, 0.0, 0.0, 0.0, 0.0, 0.0, 0.0, 0.0, 0.0, 0.0, 0.0, 0.0, 0.0, 0.0, 0.0, 0.0, 0.0, 0.0, 0.0, 0.0, 0.0, 0.0, 0.0, 0.0, 0.0, 0.27630268768360994, -0.01094703270003816, 0.0, 0.0, 0.0, 0.0, -0.010947032700023949, 0.011883675675166785]
---
header: 
  seq: 2712
  stamp: 
    secs: 1559229228
    nsecs: 507831593
  frame_id: map
pose: 
  pose: 
    position: 
      x: 9.73231688978
      y: -12.460295835
      z: 0.0
    orientation: 
      x: 0.0
      y: 0.0
      z: 0.0314802125826
      w: 0.999504375286
  covariance: [0.0021146083178966964, 0.0, 0.0, 0.0, 0.0, 0.0, 0.0, 0.0, 0.0, 0.0, 0.0, 0.0, 0.0, 0.0, 0.0, 0.0, 0.0, 0.0, 0.0, 0.0, 0.0, 0.0, 0.0, 0.0, 0.0, 0.0, 0.0, 0.0, 0.055913175881413507, -0.0024085797821335035, 0.0, 0.0, 0.0, 0.0, -0.0024085797821335035, 0.010974180033031919]
---
header: 
  seq: 2713
  stamp: 
    secs: 1559229229
    nsecs: 107158649
  frame_id: map
pose: 
  pose: 
    position: 
      x: 10.2082667582
      y: -12.4309625744
      z: 0.0
    orientation: 
      x: 0.0
      y: 0.0
      z: 0.035230334957
      w: 0.999379219065
  covariance: [0.0019857150081666231, 0.0, 0.0, 0.0, 0.0, 0.0, 0.0, 0.0, 0.0, 0.0, 0.0, 0.0, 0.0, 0.0, 0.0, 0.0, 0.0, 0.0, 0.0, 0.0, 0.0, 0.0, 0.0, 0.0, 0.0, 0.0, 0.0, 0.0, 0.012229242107819678, 0.00036031066989390453, 0.0, 0.0, 0.0, 0.0, 0.00036031066989390453, 0.010275225823658892]
---
header: 
  seq: 2714
  stamp: 
    secs: 1559229229
    nsecs: 691922487
  frame_id: map
pose: 
  pose: 
    position: 
      x: 10.6815857302
      y: -12.3945872076
      z: 0.0
    orientation: 
      x: 0.0
      y: 0.0
      z: 0.0235132632903
      w: 0.999723525006
  covariance: [0.0021341706395176575, 0.0, 0.0, 0.0, 0.0, 0.0, 0.0, 0.0, 0.0, 0.0, 0.0, 0.0, 0.0, 0.0, 0.0, 0.0, 0.0, 0.0, 0.0, 0.0, 0.0, 0.0, 0.0, 0.0, 0.0, 0.0, 0.0, 0.0, 0.013692066620467841, 0.00070632269789132731, 0.0, 0.0, 0.0, 0.0, 0.00070632269789132731, 0.0097238011944400793]
---
header: 
  seq: 2715
  stamp: 
    secs: 1559229230
    nsecs: 284273279
  frame_id: map
pose: 
  pose: 
    position: 
      x: 11.1825289804
      y: -12.3785942056
      z: 0.0
    orientation: 
      x: 0.0
      y: 0.0
      z: -0.0211387979553
      w: 0.999776550646
  covariance: [0.0019791883294843211, 0.0, 0.0, 0.0, 0.0, 0.0, 0.0, 0.0, 0.0, 0.0, 0.0, 0.0, 0.0, 0.0, 0.0, 0.0, 0.0, 0.0, 0.0, 0.0, 0.0, 0.0, 0.0, 0.0, 0.0, 0.0, 0.0, 0.0, 0.0099612366995300225, -5.0778049080078103e-05, 0.0, 0.0, 0.0, 0.0, -5.0778049080078103e-05, 0.0090748583820027939]
---
header: 
  seq: 2716
  stamp: 
    secs: 1559229230
    nsecs: 996046599
  frame_id: map
pose: 
  pose: 
    position: 
      x: 11.688631384
      y: -12.4542242569
      z: 0.0
    orientation: 
      x: 0.0
      y: 0.0
      z: -0.125885903381
      w: 0.992044726477
  covariance: [0.0020670668667209843, 0.0, 0.0, 0.0, 0.0, 0.0, 0.0, 0.0, 0.0, 0.0, 0.0, 0.0, 0.0, 0.0, 0.0, 0.0, 0.0, 0.0, 0.0, 0.0, 0.0, 0.0, 0.0, 0.0, 0.0, 0.0, 0.0, 0.0, 0.0071597296792066121, -0.00042649214850292973, 0.0, 0.0, 0.0, 0.0, -0.00042649214855977315, 0.0089332674263050953]
---
header: 
  seq: 2717
  stamp: 
    secs: 1559229232
    nsecs: 207687870
  frame_id: map
pose: 
  pose: 
    position: 
      x: 12.2425130258
      y: -12.7052679479
      z: 0.0
    orientation: 
      x: 0.0
      y: 0.0
      z: -0.322957933938
      w: 0.946413320335
  covariance: [0.0031454903977258587, 0.0, 0.0, 0.0, 0.0, 0.0, 0.0, 0.0, 0.0, 0.0, 0.0, 0.0, 0.0, 0.0, 0.0, 0.0, 0.0, 0.0, 0.0, 0.0, 0.0, 0.0, 0.0, 0.0, 0.0, 0.0, 0.0, 0.0, 0.0069318799896784522, -0.00040727581863043337, 0.0, 0.0, 0.0, 0.0, -0.00040727581863043337, 0.0092757373893373046]
---
header: 
  seq: 2718
  stamp: 
    secs: 1559229238
    nsecs: 52966817
  frame_id: map
pose: 
  pose: 
    position: 
      x: 12.4680731766
      y: -12.9126475468
      z: 0.0
    orientation: 
      x: 0.0
      y: 0.0
      z: -0.600752227267
      w: 0.799435276576
  covariance: [0.0049923059565205267, 0.0, 0.0, 0.0, 0.0, 0.0, 0.0, 0.0, 0.0, 0.0, 0.0, 0.0, 0.0, 0.0, 0.0, 0.0, 0.0, 0.0, 0.0, 0.0, 0.0, 0.0, 0.0, 0.0, 0.0, 0.0, 0.0, 0.0, 0.0066705671182529158, -0.00091459358838998312, 0.0, 0.0, 0.0, 0.0, -0.00091459358838998312, 0.010584457709474431]
---
header: 
  seq: 2719
  stamp: 
    secs: 1559229248
    nsecs: 629141442
  frame_id: map
pose: 
  pose: 
    position: 
      x: 12.5105105758
      y: -13.3325916411
      z: 0.0
    orientation: 
      x: 0.0
      y: 0.0
      z: -0.660524230741
      w: 0.750804728677
  covariance: [0.0048468309372963498, 0.0, 0.0, 0.0, 0.0, 0.0, 0.0, 0.0, 0.0, 0.0, 0.0, 0.0, 0.0, 0.0, 0.0, 0.0, 0.0, 0.0, 0.0, 0.0, 0.0, 0.0, 0.0, 0.0, 0.0, 0.0, 0.0, 0.0, 0.005355421114223778, -4.7880369528076475e-05, 0.0, 0.0, 0.0, 0.0, -4.7880369528076475e-05, 0.0109820103934748]
---
header: 
  seq: 2720
  stamp: 
    secs: 1559229268
    nsecs: 545803780
  frame_id: map
pose: 
  pose: 
    position: 
      x: 12.5116618592
      y: -13.3423582366
      z: 0.0
    orientation: 
      x: 0.0
      y: 0.0
      z: -0.69245206992
      w: 0.721463880498
  covariance: [0.0047650191872886001, 0.0, 0.0, 0.0, 0.0, 0.0, 0.0, 0.0, 0.0, 0.0, 0.0, 0.0, 0.0, 0.0, 0.0, 0.0, 0.0, 0.0, 0.0, 0.0, 0.0, 0.0, 0.0, 0.0, 0.0, 0.0, 0.0, 0.0, 0.0047877278406286547, -0.00016642301965813606, 0.0, 0.0, 0.0, 0.0, -0.00016642301968655777, 0.010257527690675165]
---
header: 
  seq: 2721
  stamp: 
    secs: 1559229270
    nsecs: 141539268
  frame_id: map
pose: 
  pose: 
    position: 
      x: 12.5018880362
      y: -12.8613231622
      z: 0.0
    orientation: 
      x: 0.0
      y: 0.0
      z: -0.695715290751
      w: 0.718317641587
  covariance: [0.0046302362980715711, 0.0, 0.0, 0.0, 0.0, 0.0, 0.0, 0.0, 0.0, 0.0, 0.0, 0.0, 0.0, 0.0, 0.0, 0.0, 0.0, 0.0, 0.0, 0.0, 0.0, 0.0, 0.0, 0.0, 0.0, 0.0, 0.0, 0.0, 0.004252930773058947, -0.00056308916282359078, 0.0, 0.0, 0.0, 0.0, -0.00056308916282359078, 0.0089268661631981116]
---
header: 
  seq: 2722
  stamp: 
    secs: 1559229273
    nsecs: 829848074
  frame_id: map
pose: 
  pose: 
    position: 
      x: 12.4941404967
      y: -12.5895987958
      z: 0.0
    orientation: 
      x: 0.0
      y: 0.0
      z: -0.855594217956
      w: 0.517647113582
  covariance: [0.0067638019838466698, 0.0, 0.0, 0.0, 0.0, 0.0, 0.0, 0.0, 0.0, 0.0, 0.0, 0.0, 0.0, 0.0, 0.0, 0.0, 0.0, 0.0, 0.0, 0.0, 0.0, 0.0, 0.0, 0.0, 0.0, 0.0, 0.0, 0.0, 0.0066905818844819479, -0.00081080564255370659, 0.0, 0.0, 0.0, 0.0, -0.00081080564252528488, 0.0095927192164662872]
---
header: 
  seq: 2723
  stamp: 
    secs: 1559229281
    nsecs: 593286341
  frame_id: map
pose: 
  pose: 
    position: 
      x: 12.441128958
      y: -12.6051838803
      z: 0.0
    orientation: 
      x: 0.0
      y: 0.0
      z: 0.999943247803
      w: 0.0106536928906
  covariance: [0.010145157565431771, 0.0, 0.0, 0.0, 0.0, 0.0, 0.0, 0.0, 0.0, 0.0, 0.0, 0.0, 0.0, 0.0, 0.0, 0.0, 0.0, 0.0, 0.0, 0.0, 0.0, 0.0, 0.0, 0.0, 0.0, 0.0, 0.0, 0.0, 0.007882822336466002, 0.00079196130814742402, 0.0, 0.0, 0.0, 0.0, 0.00079196130814742402, 0.011273454692365209]
---
header: 
  seq: 2724
  stamp: 
    secs: 1559229283
    nsecs: 791329986
  frame_id: map
pose: 
  pose: 
    position: 
      x: 12.4241896327
      y: -12.577179033
      z: 0.0
    orientation: 
      x: 0.0
      y: 0.0
      z: 0.846507173821
      w: 0.532377314195
  covariance: [0.010399339825995738, 0.0, 0.0, 0.0, 0.0, 0.0, 0.0, 0.0, 0.0, 0.0, 0.0, 0.0, 0.0, 0.0, 0.0, 0.0, 0.0, 0.0, 0.0, 0.0, 0.0, 0.0, 0.0, 0.0, 0.0, 0.0, 0.0, 0.0, 0.0084890600862869928, 8.4577178511286062e-05, 0.0, 0.0, 0.0, 0.0, 8.4577178482864352e-05, 0.013722821983719283]
---
header: 
  seq: 2725
  stamp: 
    secs: 1559229285
    nsecs: 993949138
  frame_id: map
pose: 
  pose: 
    position: 
      x: 12.4678560298
      y: -12.4515232352
      z: 0.0
    orientation: 
      x: 0.0
      y: 0.0
      z: 0.423570433145
      w: 0.905863172982
  covariance: [0.0084389298822699459, 0.0, 0.0, 0.0, 0.0, 0.0, 0.0, 0.0, 0.0, 0.0, 0.0, 0.0, 0.0, 0.0, 0.0, 0.0, 0.0, 0.0, 0.0, 0.0, 0.0, 0.0, 0.0, 0.0, 0.0, 0.0, 0.0, 0.0, 0.010663723796600137, 0.00073142850137880014, 0.0, 0.0, 0.0, 0.0, 0.00073142850137880014, 0.013892455926280847]
---
header: 
  seq: 2726
  stamp: 
    secs: 1559229287
    nsecs: 174483883
  frame_id: map
pose: 
  pose: 
    position: 
      x: 12.8436253994
      y: -12.2121490918
      z: 0.0
    orientation: 
      x: 0.0
      y: 0.0
      z: 0.126399026422
      w: 0.991979478679
  covariance: [0.00662715381736127, 0.0, 0.0, 0.0, 0.0, 0.0, 0.0, 0.0, 0.0, 0.0, 0.0, 0.0, 0.0, 0.0, 0.0, 0.0, 0.0, 0.0, 0.0, 0.0, 0.0, 0.0, 0.0, 0.0, 0.0, 0.0, 0.0, 0.0, 0.010513478099996235, 0.00078974891676096321, 0.0, 0.0, 0.0, 0.0, 0.00078974891676096321, 0.014908584471120975]
---
header: 
  seq: 2727
  stamp: 
    secs: 1559229288
    nsecs: 577676733
  frame_id: map
pose: 
  pose: 
    position: 
      x: 13.2914092425
      y: -12.2368497953
      z: 0.0
    orientation: 
      x: 0.0
      y: 0.0
      z: -0.230972394544
      w: 0.972960303897
  covariance: [0.0067167648651878008, 0.0, 0.0, 0.0, 0.0, 0.0, 0.0, 0.0, 0.0, 0.0, 0.0, 0.0, 0.0, 0.0, 0.0, 0.0, 0.0, 0.0, 0.0, 0.0, 0.0, 0.0, 0.0, 0.0, 0.0, 0.0, 0.0, 0.0, 0.010769032799491922, 0.00068578214004790493, 0.0, 0.0, 0.0, 0.0, 0.00068578214004790493, 0.01634249369293455]
---
header: 
  seq: 2728
  stamp: 
    secs: 1559229291
    nsecs: 477206630
  frame_id: map
pose: 
  pose: 
    position: 
      x: 13.5080385198
      y: -12.581576348
      z: 0.0
    orientation: 
      x: 0.0
      y: 0.0
      z: -0.69861384899
      w: 0.715498909852
  covariance: [0.0072005770065945388, 0.0, 0.0, 0.0, 0.0, 0.0, 0.0, 0.0, 0.0, 0.0, 0.0, 0.0, 0.0, 0.0, 0.0, 0.0, 0.0, 0.0, 0.0, 0.0, 0.0, 0.0, 0.0, 0.0, 0.0, 0.0, 0.0, 0.0, 0.010035896167279507, 0.00060378541602609239, 0.0, 0.0, 0.0, 0.0, 0.00060378541602609239, 0.017274913278685449]
---
header: 
  seq: 2729
  stamp: 
    secs: 1559229301
    nsecs: 719571150
  frame_id: map
pose: 
  pose: 
    position: 
      x: 13.3683420308
      y: -13.0691208681
      z: 0.0
    orientation: 
      x: 0.0
      y: 0.0
      z: -0.821084084349
      w: 0.570807258563
  covariance: [0.0076061126450820233, 0.0, 0.0, 0.0, 0.0, 0.0, 0.0, 0.0, 0.0, 0.0, 0.0, 0.0, 0.0, 0.0, 0.0, 0.0, 0.0, 0.0, 0.0, 0.0, 0.0, 0.0, 0.0, 0.0, 0.0, 0.0, 0.0, 0.0, 0.0069960111751018739, 0.00099398683302780112, 0.0, 0.0, 0.0, 0.0, 0.00099398683302780112, 0.020025769593298385]
---
header: 
  seq: 2730
  stamp: 
    secs: 1559229311
    nsecs: 981643727
  frame_id: map
pose: 
  pose: 
    position: 
      x: 13.3620103597
      y: -13.5242446567
      z: 0.0
    orientation: 
      x: 0.0
      y: 0.0
      z: -0.722527169871
      w: 0.691342526392
  covariance: [0.0071695255264485943, 0.0, 0.0, 0.0, 0.0, 0.0, 0.0, 0.0, 0.0, 0.0, 0.0, 0.0, 0.0, 0.0, 0.0, 0.0, 0.0, 0.0, 0.0, 0.0, 0.0, 0.0, 0.0, 0.0, 0.0, 0.0, 0.0, 0.0, 0.0055599580484927292, 0.00057396038615141031, 0.0, 0.0, 0.0, 0.0, 0.00057396038615141031, 0.023499068271607065]
---
header: 
  seq: 2731
  stamp: 
    secs: 1559229328
    nsecs: 646741252
  frame_id: map
pose: 
  pose: 
    position: 
      x: 13.3695886299
      y: -13.079056498
      z: 0.0
    orientation: 
      x: 0.0
      y: 0.0
      z: -0.71994213387
      w: 0.694034094176
  covariance: [0.0068357612822006857, 0.0, 0.0, 0.0, 0.0, 0.0, 0.0, 0.0, 0.0, 0.0, 0.0, 0.0, 0.0, 0.0, 0.0, 0.0, 0.0, 0.0, 0.0, 0.0, 0.0, 0.0, 0.0, 0.0, 0.0, 0.0, 0.0, 0.0, 0.0048281052578674289, 0.00035046621432081187, 0.0, 0.0, 0.0, 0.0, 0.00035046621432081187, 0.018147928845793238]
---
header: 
  seq: 2732
  stamp: 
    secs: 1559229330
    nsecs: 244555131
  frame_id: map
pose: 
  pose: 
    position: 
      x: 13.3812361686
      y: -12.6351909022
      z: 0.0
    orientation: 
      x: 0.0
      y: 0.0
      z: -0.72033739812
      w: 0.693623841047
  covariance: [0.0061612546607167926, 0.0, 0.0, 0.0, 0.0, 0.0, 0.0, 0.0, 0.0, 0.0, 0.0, 0.0, 0.0, 0.0, 0.0, 0.0, 0.0, 0.0, 0.0, 0.0, 0.0, 0.0, 0.0, 0.0, 0.0, 0.0, 0.0, 0.0, 0.0043309934708071042, 0.00011872299133318495, 0.0, 0.0, 0.0, 0.0, 0.00011872299133318495, 0.016592378165832124]
---
header: 
  seq: 2733
  stamp: 
    secs: 1559229334
    nsecs: 476705498
  frame_id: map
pose: 
  pose: 
    position: 
      x: 13.3433582933
      y: -12.5674741764
      z: 0.0
    orientation: 
      x: 0.0
      y: 0.0
      z: -0.975323881724
      w: 0.220778906918
  covariance: [0.0087362399348312591, 0.0, 0.0, 0.0, 0.0, 0.0, 0.0, 0.0, 0.0, 0.0, 0.0, 0.0, 0.0, 0.0, 0.0, 0.0, 0.0, 0.0, 0.0, 0.0, 0.0, 0.0, 0.0, 0.0, 0.0, 0.0, 0.0, 0.0, 0.0065409104946962983, 0.00051290356685289458, 0.0, 0.0, 0.0, 0.0, 0.00051290356685289458, 0.016817955197584382]
---
header: 
  seq: 2734
  stamp: 
    secs: 1559229336
    nsecs: 318120606
  frame_id: map
pose: 
  pose: 
    position: 
      x: 12.9098755732
      y: -12.5664926266
      z: 0.0
    orientation: 
      x: 0.0
      y: 0.0
      z: 0.992760597555
      w: 0.120109932739
  covariance: [0.0062459785487593688, 0.0, 0.0, 0.0, 0.0, 0.0, 0.0, 0.0, 0.0, 0.0, 0.0, 0.0, 0.0, 0.0, 0.0, 0.0, 0.0, 0.0, 0.0, 0.0, 0.0, 0.0, 0.0, 0.0, 0.0, 0.0, 0.0, 0.0, 0.0061601686725852225, 0.00043687595394182195, 0.0, 0.0, 0.0, 0.0, 0.00043687595394182195, 0.017961445353983734]
---
header: 
  seq: 2735
  stamp: 
    secs: 1559229337
    nsecs: 227132050
  frame_id: map
pose: 
  pose: 
    position: 
      x: 12.4078932358
      y: -12.4012784216
      z: 0.0
    orientation: 
      x: 0.0
      y: 0.0
      z: 0.987473323783
      w: 0.157786041263
  covariance: [0.0045119352886026347, 0.0, 0.0, 0.0, 0.0, 0.0, 0.0, 0.0, 0.0, 0.0, 0.0, 0.0, 0.0, 0.0, 0.0, 0.0, 0.0, 0.0, 0.0, 0.0, 0.0, 0.0, 0.0, 0.0, 0.0, 0.0, 0.0, 0.0, 0.0072530062988949385, 8.7022293026835538e-05, 0.0, 0.0, 0.0, 0.0, 8.7022293055257247e-05, 0.019060760088314178]
---
header: 
  seq: 2736
  stamp: 
    secs: 1559229337
    nsecs: 916136491
  frame_id: map
pose: 
  pose: 
    position: 
      x: 11.8949404441
      y: -12.2403406793
      z: 0.0
    orientation: 
      x: 0.0
      y: 0.0
      z: 0.993126770206
      w: 0.117043659805
  covariance: [0.0036141927342197033, 0.0, 0.0, 0.0, 0.0, 0.0, 0.0, 0.0, 0.0, 0.0, 0.0, 0.0, 0.0, 0.0, 0.0, 0.0, 0.0, 0.0, 0.0, 0.0, 0.0, 0.0, 0.0, 0.0, 0.0, 0.0, 0.0, 0.0, 0.0086975959024849208, -0.0006378309819542044, 0.0, 0.0, 0.0, 0.0, -0.00063783098198262611, 0.019526074989457135]
---
header: 
  seq: 2737
  stamp: 
    secs: 1559229338
    nsecs: 626646746
  frame_id: map
pose: 
  pose: 
    position: 
      x: 11.3470782387
      y: -12.1482926453
      z: 0.0
    orientation: 
      x: 0.0
      y: 0.0
      z: 0.99961556513
      w: 0.0277258354126
  covariance: [0.0037553987351272105, 0.0, 0.0, 0.0, 0.0, 0.0, 0.0, 0.0, 0.0, 0.0, 0.0, 0.0, 0.0, 0.0, 0.0, 0.0, 0.0, 0.0, 0.0, 0.0, 0.0, 0.0, 0.0, 0.0, 0.0, 0.0, 0.0, 0.0, 0.011142657454797145, -0.0015618210795166568, 0.0, 0.0, 0.0, 0.0, -0.0015618210795166568, 0.019687908620775182]
---
header: 
  seq: 2738
  stamp: 
    secs: 1559229339
    nsecs: 202707241
  frame_id: map
pose: 
  pose: 
    position: 
      x: 10.8795416464
      y: -12.1644386177
      z: 0.0
    orientation: 
      x: 0.0
      y: 0.0
      z: -0.998734044022
      w: 0.050302179983
  covariance: [0.0040294774463875953, 0.0, 0.0, 0.0, 0.0, 0.0, 0.0, 0.0, 0.0, 0.0, 0.0, 0.0, 0.0, 0.0, 0.0, 0.0, 0.0, 0.0, 0.0, 0.0, 0.0, 0.0, 0.0, 0.0, 0.0, 0.0, 0.0, 0.0, 0.015278696816833956, -0.0021315484566750333, 0.0, 0.0, 0.0, 0.0, -0.0021315484566750333, 0.020308803705796848]
---
header: 
  seq: 2739
  stamp: 
    secs: 1559229339
    nsecs: 800996910
  frame_id: map
pose: 
  pose: 
    position: 
      x: 10.4407278165
      y: -12.2897560654
      z: 0.0
    orientation: 
      x: 0.0
      y: 0.0
      z: -0.992244232475
      w: 0.124303592543
  covariance: [0.0046482377981368417, 0.0, 0.0, 0.0, 0.0, 0.0, 0.0, 0.0, 0.0, 0.0, 0.0, 0.0, 0.0, 0.0, 0.0, 0.0, 0.0, 0.0, 0.0, 0.0, 0.0, 0.0, 0.0, 0.0, 0.0, 0.0, 0.0, 0.0, 0.021778272213822426, -0.001971135705286091, 0.0, 0.0, 0.0, 0.0, -0.001971135705286091, 0.022081717620039385]
---
header: 
  seq: 2740
  stamp: 
    secs: 1559229340
    nsecs: 407922907
  frame_id: map
pose: 
  pose: 
    position: 
      x: 10.0017145357
      y: -12.4524616854
      z: 0.0
    orientation: 
      x: 0.0
      y: 0.0
      z: -0.988666988943
      w: 0.150125230971
  covariance: [0.0048738225863912028, 0.0, 0.0, 0.0, 0.0, 0.0, 0.0, 0.0, 0.0, 0.0, 0.0, 0.0, 0.0, 0.0, 0.0, 0.0, 0.0, 0.0, 0.0, 0.0, 0.0, 0.0, 0.0, 0.0, 0.0, 0.0, 0.0, 0.0, 0.027384696019700384, -0.0037249554230973573, 0.0, 0.0, 0.0, 0.0, -0.0037249554230973573, 0.022689905823152286]
---
header: 
  seq: 2741
  stamp: 
    secs: 1559229341
    nsecs: 17410001
  frame_id: map
pose: 
  pose: 
    position: 
      x: 9.56589384002
      y: -12.620633432
      z: 0.0
    orientation: 
      x: 0.0
      y: 0.0
      z: -0.990334745184
      w: 0.138697845989
  covariance: [0.0084757744949496509, 0.0, 0.0, 0.0, 0.0, 0.0, 0.0, 0.0, 0.0, 0.0, 0.0, 0.0, 0.0, 0.0, 0.0, 0.0, 0.0, 0.0, 0.0, 0.0, 0.0, 0.0, 0.0, 0.0, 0.0, 0.0, 0.0, 0.0, 0.29202425793665188, 0.051036401728628208, 0.0, 0.0, 0.0, 0.0, 0.051036401728628208, 0.10314697059559337]
---
header: 
  seq: 2742
  stamp: 
    secs: 1559229341
    nsecs: 589804690
  frame_id: map
pose: 
  pose: 
    position: 
      x: 9.06678950944
      y: -12.8257381036
      z: 0.0
    orientation: 
      x: 0.0
      y: 0.0
      z: -0.993310187587
      w: 0.115476712957
  covariance: [0.0062980166721946047, 0.0, 0.0, 0.0, 0.0, 0.0, 0.0, 0.0, 0.0, 0.0, 0.0, 0.0, 0.0, 0.0, 0.0, 0.0, 0.0, 0.0, 0.0, 0.0, 0.0, 0.0, 0.0, 0.0, 0.0, 0.0, 0.0, 0.0, 0.15046222672990292, -0.013699272320452188, 0.0, 0.0, 0.0, 0.0, -0.013699272320452188, 0.036529214726562183]
---
header: 
  seq: 2743
  stamp: 
    secs: 1559229342
    nsecs: 192805538
  frame_id: map
pose: 
  pose: 
    position: 
      x: 8.57806174924
      y: -12.919072569
      z: 0.0
    orientation: 
      x: 0.0
      y: 0.0
      z: -0.999323889684
      w: 0.0367663365991
  covariance: [0.0054719267856664566, 0.0, 0.0, 0.0, 0.0, 0.0, 0.0, 0.0, 0.0, 0.0, 0.0, 0.0, 0.0, 0.0, 0.0, 0.0, 0.0, 0.0, 0.0, 0.0, 0.0, 0.0, 0.0, 0.0, 0.0, 0.0, 0.0, 0.0, 0.31303132872787576, -0.081155898173329785, 0.0, 0.0, 0.0, 0.0, -0.081155898173329785, 0.050063592586597282]
---
header: 
  seq: 2744
  stamp: 
    secs: 1559229342
    nsecs: 798909503
  frame_id: map
pose: 
  pose: 
    position: 
      x: 8.12180816936
      y: -12.9452546821
      z: 0.0
    orientation: 
      x: 0.0
      y: 0.0
      z: 0.998391282132
      w: 0.0566996275322
  covariance: [0.0048027255115915095, 0.0, 0.0, 0.0, 0.0, 0.0, 0.0, 0.0, 0.0, 0.0, 0.0, 0.0, 0.0, 0.0, 0.0, 0.0, 0.0, 0.0, 0.0, 0.0, 0.0, 0.0, 0.0, 0.0, 0.0, 0.0, 0.0, 0.0, 0.25549817569306338, -0.065898487774302489, 0.0, 0.0, 0.0, 0.0, -0.065898487774302489, 0.046399868068706739]
---
header: 
  seq: 2745
  stamp: 
    secs: 1559229343
    nsecs: 533837683
  frame_id: map
pose: 
  pose: 
    position: 
      x: 7.66909756032
      y: -12.8132495333
      z: 0.0
    orientation: 
      x: 0.0
      y: 0.0
      z: 0.990751915626
      w: 0.135685819761
  covariance: [0.003832996395215893, 0.0, 0.0, 0.0, 0.0, 0.0, 0.0, 0.0, 0.0, 0.0, 0.0, 0.0, 0.0, 0.0, 0.0, 0.0, 0.0, 0.0, 0.0, 0.0, 0.0, 0.0, 0.0, 0.0, 0.0, 0.0, 0.0, 0.0, 0.083978366488495354, -0.019691338147572721, 0.0, 0.0, 0.0, 0.0, -0.019691338147572721, 0.035154987587711864]
---
header: 
  seq: 2746
  stamp: 
    secs: 1559229344
    nsecs: 283580424
  frame_id: map
pose: 
  pose: 
    position: 
      x: 7.11402520369
      y: -12.6493341707
      z: 0.0
    orientation: 
      x: 0.0
      y: 0.0
      z: 0.988720214321
      w: 0.149774289492
  covariance: [0.0035401152262565429, 0.0, 0.0, 0.0, 0.0, 0.0, 0.0, 0.0, 0.0, 0.0, 0.0, 0.0, 0.0, 0.0, 0.0, 0.0, 0.0, 0.0, 0.0, 0.0, 0.0, 0.0, 0.0, 0.0, 0.0, 0.0, 0.0, 0.0, 0.020230602734199778, -0.0032007962460473285, 0.0, 0.0, 0.0, 0.0, -0.0032007962460473285, 0.029373187525296843]
---
header: 
  seq: 2747
  stamp: 
    secs: 1559229345
    nsecs: 178023648
  frame_id: map
pose: 
  pose: 
    position: 
      x: 6.54753606601
      y: -12.5037815555
      z: 0.0
    orientation: 
      x: 0.0
      y: 0.0
      z: 0.997203814804
      w: 0.0747298584211
  covariance: [0.0039628144927604716, 0.0, 0.0, 0.0, 0.0, 0.0, 0.0, 0.0, 0.0, 0.0, 0.0, 0.0, 0.0, 0.0, 0.0, 0.0, 0.0, 0.0, 0.0, 0.0, 0.0, 0.0, 0.0, 0.0, 0.0, 0.0, 0.0, 0.0, 0.022058882112737113, -0.0030908243706484345, 0.0, 0.0, 0.0, 0.0, -0.0030908243706484345, 0.028611572270367043]
---
header: 
  seq: 2748
  stamp: 
    secs: 1559229346
    nsecs: 403017063
  frame_id: map
pose: 
  pose: 
    position: 
      x: 6.09388903038
      y: -12.5045660814
      z: 0.0
    orientation: 
      x: 0.0
      y: 0.0
      z: -0.985267729153
      w: 0.171019010316
  covariance: [0.0040747202981122133, 0.0, 0.0, 0.0, 0.0, 0.0, 0.0, 0.0, 0.0, 0.0, 0.0, 0.0, 0.0, 0.0, 0.0, 0.0, 0.0, 0.0, 0.0, 0.0, 0.0, 0.0, 0.0, 0.0, 0.0, 0.0, 0.0, 0.0, 0.020489495205828916, -0.0022615100234309178, 0.0, 0.0, 0.0, 0.0, -0.0022615100234309178, 0.02697023145330223]
---
header: 
  seq: 2749
  stamp: 
    secs: 1559229348
    nsecs: 563257913
  frame_id: map
pose: 
  pose: 
    position: 
      x: 5.895317786
      y: -12.7069895276
      z: 0.0
    orientation: 
      x: 0.0
      y: 0.0
      z: -0.747667806307
      w: 0.664072926275
  covariance: [0.0053348507295656626, 0.0, 0.0, 0.0, 0.0, 0.0, 0.0, 0.0, 0.0, 0.0, 0.0, 0.0, 0.0, 0.0, 0.0, 0.0, 0.0, 0.0, 0.0, 0.0, 0.0, 0.0, 0.0, 0.0, 0.0, 0.0, 0.0, 0.0, 0.017213953906282279, 0.00053799044804980214, 0.0, 0.0, 0.0, 0.0, 0.00053799044804980214, 0.023476352570104924]
---
header: 
  seq: 2750
  stamp: 
    secs: 1559229362
    nsecs: 329787161
  frame_id: map
pose: 
  pose: 
    position: 
      x: 5.9963301083
      y: -13.1028745092
      z: 0.0
    orientation: 
      x: 0.0
      y: 0.0
      z: -0.637013895762
      w: 0.770852318286
  covariance: [0.0057246666553819985, 0.0, 0.0, 0.0, 0.0, 0.0, 0.0, 0.0, 0.0, 0.0, 0.0, 0.0, 0.0, 0.0, 0.0, 0.0, 0.0, 0.0, 0.0, 0.0, 0.0, 0.0, 0.0, 0.0, 0.0, 0.0, 0.0, 0.0, 0.013389504205479611, 0.00015733999833929932, 0.0, 0.0, 0.0, 0.0, 0.00015733999833929932, 0.020028723575891628]
---
header: 
  seq: 2751
  stamp: 
    secs: 1559229369
    nsecs: 181340402
  frame_id: map
pose: 
  pose: 
    position: 
      x: 6.04373051235
      y: -13.5011951718
      z: 0.0
    orientation: 
      x: 0.0
      y: 0.0
      z: -0.684533683152
      w: 0.728981232015
  covariance: [0.0051611981821916711, 0.0, 0.0, 0.0, 0.0, 0.0, 0.0, 0.0, 0.0, 0.0, 0.0, 0.0, 0.0, 0.0, 0.0, 0.0, 0.0, 0.0, 0.0, 0.0, 0.0, 0.0, 0.0, 0.0, 0.0, 0.0, 0.0, 0.0, 0.0092249625238901654, 0.00043305479631807289, 0.0, 0.0, 0.0, 0.0, 0.00043305479630386203, 0.017048187137529827]
---
header: 
  seq: 2752
  stamp: 
    secs: 1559229389
    nsecs: 98126237
  frame_id: map
pose: 
  pose: 
    position: 
      x: 6.01127557393
      y: -13.4965914326
      z: 0.0
    orientation: 
      x: 0.0
      y: 0.0
      z: -0.678758210852
      w: 0.734361825806
  covariance: [0.004836714209229891, 0.0, 0.0, 0.0, 0.0, 0.0, 0.0, 0.0, 0.0, 0.0, 0.0, 0.0, 0.0, 0.0, 0.0, 0.0, 0.0, 0.0, 0.0, 0.0, 0.0, 0.0, 0.0, 0.0, 0.0, 0.0, 0.0, 0.0, 0.0072425445712192118, 0.00096301468662307588, 0.0, 0.0, 0.0, 0.0, 0.00096301468662307588, 0.01447794758760034]
---
header: 
  seq: 2753
  stamp: 
    secs: 1559229390
    nsecs: 491024334
  frame_id: map
pose: 
  pose: 
    position: 
      x: 5.97609711617
      y: -13.075641025
      z: 0.0
    orientation: 
      x: 0.0
      y: 0.0
      z: -0.688923812953
      w: 0.724833760215
  covariance: [0.0042361067166891957, 0.0, 0.0, 0.0, 0.0, 0.0, 0.0, 0.0, 0.0, 0.0, 0.0, 0.0, 0.0, 0.0, 0.0, 0.0, 0.0, 0.0, 0.0, 0.0, 0.0, 0.0, 0.0, 0.0, 0.0, 0.0, 0.0, 0.0, 0.0063270230261293827, 0.0019782096482315291, 0.0, 0.0, 0.0, 0.0, 0.0019782096482457399, 0.013803480092690857]
---
header: 
  seq: 2754
  stamp: 
    secs: 1559229394
    nsecs: 469533040
  frame_id: map
pose: 
  pose: 
    position: 
      x: 5.99627685886
      y: -12.8971104167
      z: 0.0
    orientation: 
      x: 0.0
      y: 0.0
      z: -0.474990012512
      w: 0.879991186327
  covariance: [0.0065513617944204438, 0.0, 0.0, 0.0, 0.0, 0.0, 0.0, 0.0, 0.0, 0.0, 0.0, 0.0, 0.0, 0.0, 0.0, 0.0, 0.0, 0.0, 0.0, 0.0, 0.0, 0.0, 0.0, 0.0, 0.0, 0.0, 0.0, 0.0, 0.0074593681776329458, 0.0013575593072369179, 0.0, 0.0, 0.0, 0.0, 0.0013575593072369179, 0.015094805304062405]
---
header: 
  seq: 2755
  stamp: 
    secs: 1559229396
    nsecs: 123352019
  frame_id: map
pose: 
  pose: 
    position: 
      x: 6.38776699546
      y: -13.2276161721
      z: 0.0
    orientation: 
      x: 0.0
      y: 0.0
      z: -0.282619348753
      w: 0.959232142763
  covariance: [0.0063774873874192393, 0.0, 0.0, 0.0, 0.0, 0.0, 0.0, 0.0, 0.0, 0.0, 0.0, 0.0, 0.0, 0.0, 0.0, 0.0, 0.0, 0.0, 0.0, 0.0, 0.0, 0.0, 0.0, 0.0, 0.0, 0.0, 0.0, 0.0, 0.0062636445063275975, 0.00011459701584084007, 0.0, 0.0, 0.0, 0.0, 0.00011459701584084007, 0.01440343217456295]
---
header: 
  seq: 2756
  stamp: 
    secs: 1559229397
    nsecs: 260094744
  frame_id: map
pose: 
  pose: 
    position: 
      x: 6.85544120222
      y: -13.4979634734
      z: 0.0
    orientation: 
      x: 0.0
      y: 0.0
      z: -0.322965174837
      w: 0.94641084939
  covariance: [0.0060085933399346399, 0.0, 0.0, 0.0, 0.0, 0.0, 0.0, 0.0, 0.0, 0.0, 0.0, 0.0, 0.0, 0.0, 0.0, 0.0, 0.0, 0.0, 0.0, 0.0, 0.0, 0.0, 0.0, 0.0, 0.0, 0.0, 0.0, 0.0, 0.0065204218071339397, 0.0001991865215779232, 0.0, 0.0, 0.0, 0.0, 0.0001991865215779232, 0.01390770906516855]
---
header: 
  seq: 2757
  stamp: 
    secs: 1559229399
    nsecs: 552824923
  frame_id: map
pose: 
  pose: 
    position: 
      x: 7.04142620786
      y: -13.8938505765
      z: 0.0
    orientation: 
      x: 0.0
      y: 0.0
      z: -0.695992236204
      w: 0.718049306903
  covariance: [0.0069738815937548555, 0.0, 0.0, 0.0, 0.0, 0.0, 0.0, 0.0, 0.0, 0.0, 0.0, 0.0, 0.0, 0.0, 0.0, 0.0, 0.0, 0.0, 0.0, 0.0, 0.0, 0.0, 0.0, 0.0, 0.0, 0.0, 0.0, 0.0, 0.0076525176063700785, 0.00062622350326879618, 0.0, 0.0, 0.0, 0.0, 0.00062622350326879618, 0.014541940477240212]
---
header: 
  seq: 2758
  stamp: 
    secs: 1559229412
    nsecs: 13200220
  frame_id: map
pose: 
  pose: 
    position: 
      x: 7.09364008408
      y: -14.290248095
      z: 0.0
    orientation: 
      x: 0.0
      y: 0.0
      z: -0.643288830159
      w: 0.765623589627
  covariance: [0.0071939667168302796, 0.0, 0.0, 0.0, 0.0, 0.0, 0.0, 0.0, 0.0, 0.0, 0.0, 0.0, 0.0, 0.0, 0.0, 0.0, 0.0, 0.0, 0.0, 0.0, 0.0, 0.0, 0.0, 0.0, 0.0, 0.0, 0.0, 0.0, 0.0068824555412939229, 0.0015464625604914189, 0.0, 0.0, 0.0, 0.0, 0.0015464625604914189, 0.016735933319289804]
---
header: 
  seq: 2759
  stamp: 
    secs: 1559229413
    nsecs: 701071483
  frame_id: map
pose: 
  pose: 
    position: 
      x: 7.1746864209
      y: -14.688383857
      z: 0.0
    orientation: 
      x: 0.0
      y: 0.0
      z: -0.638457318298
      w: 0.769657230663
  covariance: [0.0064021344550114854, 0.0, 0.0, 0.0, 0.0, 0.0, 0.0, 0.0, 0.0, 0.0, 0.0, 0.0, 0.0, 0.0, 0.0, 0.0, 0.0, 0.0, 0.0, 0.0, 0.0, 0.0, 0.0, 0.0, 0.0, 0.0, 0.0, 0.0, 0.0059235233410824348, 0.001944818601889414, 0.0, 0.0, 0.0, 0.0, 0.0019448186019036249, 0.019003205968563218]
---
header: 
  seq: 2760
  stamp: 
    secs: 1559229424
    nsecs: 53700250
  frame_id: map
pose: 
  pose: 
    position: 
      x: 7.11736293955
      y: -15.1646985712
      z: 0.0
    orientation: 
      x: 0.0
      y: 0.0
      z: -0.746977506527
      w: 0.664849309801
  covariance: [0.0069385855314010626, 0.0, 0.0, 0.0, 0.0, 0.0, 0.0, 0.0, 0.0, 0.0, 0.0, 0.0, 0.0, 0.0, 0.0, 0.0, 0.0, 0.0, 0.0, 0.0, 0.0, 0.0, 0.0, 0.0, 0.0, 0.0, 0.0, 0.0, 0.0050686048916325256, 0.002266105524837051, 0.0, 0.0, 0.0, 0.0, 0.002266105524837051, 0.024570851004976062]
---
header: 
  seq: 2761
  stamp: 
    secs: 1559229576
    nsecs: 257510703
  frame_id: map
pose: 
  pose: 
    position: 
      x: 7.2292925061
      y: -14.6762527241
      z: 0.0
    orientation: 
      x: 0.0
      y: 0.0
      z: -0.755138815264
      w: 0.655564924078
  covariance: [0.0076629470481256153, 0.0, 0.0, 0.0, 0.0, 0.0, 0.0, 0.0, 0.0, 0.0, 0.0, 0.0, 0.0, 0.0, 0.0, 0.0, 0.0, 0.0, 0.0, 0.0, 0.0, 0.0, 0.0, 0.0, 0.0, 0.0, 0.0, 0.0, 0.0051082059438948947, 0.0020215958113833552, 0.0, 0.0, 0.0, 0.0, 0.0020215958113833552, 0.018531395523843877]
---
header: 
  seq: 2762
  stamp: 
    secs: 1559229577
    nsecs: 852204050
  frame_id: map
pose: 
  pose: 
    position: 
      x: 7.29543855696
      y: -14.207531067
      z: 0.0
    orientation: 
      x: 0.0
      y: 0.0
      z: -0.752964017784
      w: 0.658061690058
  covariance: [0.0080404216743137098, 0.0, 0.0, 0.0, 0.0, 0.0, 0.0, 0.0, 0.0, 0.0, 0.0, 0.0, 0.0, 0.0, 0.0, 0.0, 0.0, 0.0, 0.0, 0.0, 0.0, 0.0, 0.0, 0.0, 0.0, 0.0, 0.0, 0.0, 0.0052250240055900779, 0.001158109586332784, 0.0, 0.0, 0.0, 0.0, 0.0011581095863469949, 0.014875908338144204]
---
header: 
  seq: 2763
  stamp: 
    secs: 1559229579
    nsecs: 447604757
  frame_id: map
pose: 
  pose: 
    position: 
      x: 7.35724137973
      y: -13.7281535885
      z: 0.0
    orientation: 
      x: 0.0
      y: 0.0
      z: -0.738970632699
      w: 0.67373763737
  covariance: [0.0081516526893761314, 0.0, 0.0, 0.0, 0.0, 0.0, 0.0, 0.0, 0.0, 0.0, 0.0, 0.0, 0.0, 0.0, 0.0, 0.0, 0.0, 0.0, 0.0, 0.0, 0.0, 0.0, 0.0, 0.0, 0.0, 0.0, 0.0, 0.0, 0.0052679606778755928, 3.5212792603190438e-05, 0.0, 0.0, 0.0, 0.0, 3.5212792603190438e-05, 0.01438422727750103]
---
header: 
  seq: 2764
  stamp: 
    secs: 1559229583
    nsecs: 537833538
  frame_id: map
pose: 
  pose: 
    position: 
      x: 7.34451297972
      y: -13.4222249427
      z: 0.0
    orientation: 
      x: 0.0
      y: 0.0
      z: -0.893028130057
      w: 0.450000843252
  covariance: [0.010221546394605256, 0.0, 0.0, 0.0, 0.0, 0.0, 0.0, 0.0, 0.0, 0.0, 0.0, 0.0, 0.0, 0.0, 0.0, 0.0, 0.0, 0.0, 0.0, 0.0, 0.0, 0.0, 0.0, 0.0, 0.0, 0.0, 0.0, 0.0, 0.0080782185839821732, -0.0006774161776049104, 0.0, 0.0, 0.0, 0.0, -0.00067741617759069955, 0.016118162775586215]
---
header: 
  seq: 2765
  stamp: 
    secs: 1559229585
    nsecs: 723678919
  frame_id: map
pose: 
  pose: 
    position: 
      x: 7.32436604442
      y: -13.3837426176
      z: 0.0
    orientation: 
      x: 0.0
      y: 0.0
      z: 0.997668655039
      w: 0.0682440821749
  covariance: [0.011583557301755622, 0.0, 0.0, 0.0, 0.0, 0.0, 0.0, 0.0, 0.0, 0.0, 0.0, 0.0, 0.0, 0.0, 0.0, 0.0, 0.0, 0.0, 0.0, 0.0, 0.0, 0.0, 0.0, 0.0, 0.0, 0.0, 0.0, 0.0, 0.0079189295340496516, -0.00052829225980648641, 0.0, 0.0, 0.0, 0.0, -0.00052829225980648641, 0.018206202890747328]
---
header: 
  seq: 2766
  stamp: 
    secs: 1559229587
    nsecs: 317222886
  frame_id: map
pose: 
  pose: 
    position: 
      x: 6.83913964885
      y: -13.1320412748
      z: 0.0
    orientation: 
      x: 0.0
      y: 0.0
      z: 0.947944731296
      w: 0.318434901367
  covariance: [0.010520683500617649, 0.0, 0.0, 0.0, 0.0, 0.0, 0.0, 0.0, 0.0, 0.0, 0.0, 0.0, 0.0, 0.0, 0.0, 0.0, 0.0, 0.0, 0.0, 0.0, 0.0, 0.0, 0.0, 0.0, 0.0, 0.0, 0.0, 0.0, 0.0077967099894562068, 0.00053851791654395301, 0.0, 0.0, 0.0, 0.0, 0.00053851791654395301, 0.020172516606281918]
---
header: 
  seq: 2767
  stamp: 
    secs: 1559229588
    nsecs: 219870376
  frame_id: map
pose: 
  pose: 
    position: 
      x: 6.47111440949
      y: -12.8355399189
      z: 0.0
    orientation: 
      x: 0.0
      y: 0.0
      z: 0.946818882967
      w: 0.321767000882
  covariance: [0.0079791503483929889, 0.0, 0.0, 0.0, 0.0, 0.0, 0.0, 0.0, 0.0, 0.0, 0.0, 0.0, 0.0, 0.0, 0.0, 0.0, 0.0, 0.0, 0.0, 0.0, 0.0, 0.0, 0.0, 0.0, 0.0, 0.0, 0.0, 0.0, 0.0099961476673602993, 0.0025414537822038247, 0.0, 0.0, 0.0, 0.0, 0.0025414537822038247, 0.019921639680077152]
---
header: 
  seq: 2768
  stamp: 
    secs: 1559229590
    nsecs: 101935927
  frame_id: map
pose: 
  pose: 
    position: 
      x: 5.98898954696
      y: -12.6467159061
      z: 0.0
    orientation: 
      x: 0.0
      y: 0.0
      z: 0.998806135397
      w: 0.0488498095445
  covariance: [0.0066163317318138634, 0.0, 0.0, 0.0, 0.0, 0.0, 0.0, 0.0, 0.0, 0.0, 0.0, 0.0, 0.0, 0.0, 0.0, 0.0, 0.0, 0.0, 0.0, 0.0, 0.0, 0.0, 0.0, 0.0, 0.0, 0.0, 0.0, 0.0, 0.012645901013467194, 0.0038635363695229121, 0.0, 0.0, 0.0, 0.0, 0.0038635363695229121, 0.02082659654541176]
---
header: 
  seq: 2769
  stamp: 
    secs: 1559229591
    nsecs: 30497397
  frame_id: map
pose: 
  pose: 
    position: 
      x: 5.54192754035
      y: -12.6579897306
      z: 0.0
    orientation: 
      x: 0.0
      y: 0.0
      z: -0.994627047129
      w: 0.103523123596
  covariance: [0.0049241222705953321, 0.0, 0.0, 0.0, 0.0, 0.0, 0.0, 0.0, 0.0, 0.0, 0.0, 0.0, 0.0, 0.0, 0.0, 0.0, 0.0, 0.0, 0.0, 0.0, 0.0, 0.0, 0.0, 0.0, 0.0, 0.0, 0.0, 0.0, 0.013670763797466319, 0.0040735600689831321, 0.0, 0.0, 0.0, 0.0, 0.0040735600689831321, 0.018388311616255489]
---
header: 
  seq: 2770
  stamp: 
    secs: 1559229591
    nsecs: 702183480
  frame_id: map
pose: 
  pose: 
    position: 
      x: 5.05875946583
      y: -12.7809593176
      z: 0.0
    orientation: 
      x: 0.0
      y: 0.0
      z: -0.984483896866
      w: 0.175474946393
  covariance: [0.0040235077289675842, 0.0, 0.0, 0.0, 0.0, 0.0, 0.0, 0.0, 0.0, 0.0, 0.0, 0.0, 0.0, 0.0, 0.0, 0.0, 0.0, 0.0, 0.0, 0.0, 0.0, 0.0, 0.0, 0.0, 0.0, 0.0, 0.0, 0.0, 0.014401522283403051, 0.0041640727967690782, 0.0, 0.0, 0.0, 0.0, 0.0041640727967690782, 0.01594066472563678]
---
header: 
  seq: 2771
  stamp: 
    secs: 1559229592
    nsecs: 304346599
  frame_id: map
pose: 
  pose: 
    position: 
      x: 4.60855710085
      y: -12.9634293456
      z: 0.0
    orientation: 
      x: 0.0
      y: 0.0
      z: -0.980773520203
      w: 0.195149435225
  covariance: [0.0036117879672874762, 0.0, 0.0, 0.0, 0.0, 0.0, 0.0, 0.0, 0.0, 0.0, 0.0, 0.0, 0.0, 0.0, 0.0, 0.0, 0.0, 0.0, 0.0, 0.0, 0.0, 0.0, 0.0, 0.0, 0.0, 0.0, 0.0, 0.0, 0.015990149695931457, 0.0041606005574371489, 0.0, 0.0, 0.0, 0.0, 0.0041606005574371489, 0.014502176590455582]
---
header: 
  seq: 2772
  stamp: 
    secs: 1559229592
    nsecs: 919395872
  frame_id: map
pose: 
  pose: 
    position: 
      x: 4.15328804802
      y: -13.1666168314
      z: 0.0
    orientation: 
      x: 0.0
      y: 0.0
      z: -0.976638610032
      w: 0.214888402188
  covariance: [0.0028572637133338916, 0.0, 0.0, 0.0, 0.0, 0.0, 0.0, 0.0, 0.0, 0.0, 0.0, 0.0, 0.0, 0.0, 0.0, 0.0, 0.0, 0.0, 0.0, 0.0, 0.0, 0.0, 0.0, 0.0, 0.0, 0.0, 0.0, 0.0, 0.014502666983988945, 0.0024643804285460081, 0.0, 0.0, 0.0, 0.0, 0.0024643804285460081, 0.012386849568772788]
---
header: 
  seq: 2773
  stamp: 
    secs: 1559229593
    nsecs: 489851457
  frame_id: map
pose: 
  pose: 
    position: 
      x: 3.73247948516
      y: -13.336737583
      z: 0.0
    orientation: 
      x: 0.0
      y: 0.0
      z: -0.979771737725
      w: 0.20011831989
  covariance: [0.0025403097227557989, 0.0, 0.0, 0.0, 0.0, 0.0, 0.0, 0.0, 0.0, 0.0, 0.0, 0.0, 0.0, 0.0, 0.0, 0.0, 0.0, 0.0, 0.0, 0.0, 0.0, 0.0, 0.0, 0.0, 0.0, 0.0, 0.0, 0.0, 0.013344456291359576, 0.0011927923247964142, 0.0, 0.0, 0.0, 0.0, 0.0011927923247964142, 0.011156680175940417]
---
header: 
  seq: 2774
  stamp: 
    secs: 1559229594
    nsecs: 121753368
  frame_id: map
pose: 
  pose: 
    position: 
      x: 3.26208550259
      y: -13.552208938
      z: 0.0
    orientation: 
      x: 0.0
      y: 0.0
      z: -0.982977520415
      w: 0.18372586742
  covariance: [0.0026629723648919513, 0.0, 0.0, 0.0, 0.0, 0.0, 0.0, 0.0, 0.0, 0.0, 0.0, 0.0, 0.0, 0.0, 0.0, 0.0, 0.0, 0.0, 0.0, 0.0, 0.0, 0.0, 0.0, 0.0, 0.0, 0.0, 0.0, 0.0, 0.013671093940621451, -5.1335417615649861e-05, 0.0, 0.0, 0.0, 0.0, -5.1335417615649861e-05, 0.011277538492646167]
---
header: 
  seq: 2775
  stamp: 
    secs: 1559229594
    nsecs: 703370709
  frame_id: map
pose: 
  pose: 
    position: 
      x: 2.80134055751
      y: -13.6831285337
      z: 0.0
    orientation: 
      x: 0.0
      y: 0.0
      z: -0.989288444567
      w: 0.145973879327
  covariance: [0.0024143916718362842, 0.0, 0.0, 0.0, 0.0, 0.0, 0.0, 0.0, 0.0, 0.0, 0.0, 0.0, 0.0, 0.0, 0.0, 0.0, 0.0, 0.0, 0.0, 0.0, 0.0, 0.0, 0.0, 0.0, 0.0, 0.0, 0.0, 0.0, 0.012332245728136643, -0.00050566060374438078, 0.0, 0.0, 0.0, 0.0, -0.00050566060374438078, 0.010804957069917529]
---
header: 
  seq: 2776
  stamp: 
    secs: 1559229595
    nsecs: 309627649
  frame_id: map
pose: 
  pose: 
    position: 
      x: 2.34753488685
      y: -13.8219334581
      z: 0.0
    orientation: 
      x: 0.0
      y: 0.0
      z: -0.994951969175
      w: 0.100352274691
  covariance: [0.0020376001809055307, 0.0, 0.0, 0.0, 0.0, 0.0, 0.0, 0.0, 0.0, 0.0, 0.0, 0.0, 0.0, 0.0, 0.0, 0.0, 0.0, 0.0, 0.0, 0.0, 0.0, 0.0, 0.0, 0.0, 0.0, 0.0, 0.0, 0.0, 0.011190888921895115, -0.0007052217674610652, 0.0, 0.0, 0.0, 0.0, -0.0007052217674610652, 0.01030169710608545]
---
header: 
  seq: 2777
  stamp: 
    secs: 1559229595
    nsecs: 885818118
  frame_id: map
pose: 
  pose: 
    position: 
      x: 1.91082498275
      y: -13.8806878671
      z: 0.0
    orientation: 
      x: 0.0
      y: 0.0
      z: -0.99994382985
      w: 0.0105989219191
  covariance: [0.0018532449575064073, 0.0, 0.0, 0.0, 0.0, 0.0, 0.0, 0.0, 0.0, 0.0, 0.0, 0.0, 0.0, 0.0, 0.0, 0.0, 0.0, 0.0, 0.0, 0.0, 0.0, 0.0, 0.0, 0.0, 0.0, 0.0, 0.0, 0.0, 0.010277661690551172, -0.00020479029860290531, 0.0, 0.0, 0.0, 0.0, -0.00020479029860290531, 0.0099518005631438686]
---
header: 
  seq: 2778
  stamp: 
    secs: 1559229596
    nsecs: 718793970
  frame_id: map
pose: 
  pose: 
    position: 
      x: 1.34472095585
      y: -13.8522560989
      z: 0.0
    orientation: 
      x: 0.0
      y: 0.0
      z: 0.993040793997
      w: 0.117770885441
  covariance: [0.002421010333456567, 0.0, 0.0, 0.0, 0.0, 0.0, 0.0, 0.0, 0.0, 0.0, 0.0, 0.0, 0.0, 0.0, 0.0, 0.0, 0.0, 0.0, 0.0, 0.0, 0.0, 0.0, 0.0, 0.0, 0.0, 0.0, 0.0, 0.0, 0.0093157228164388751, -0.0005770342774962105, 0.0, 0.0, 0.0, 0.0, -0.00057703427749976322, 0.010276852006343044]
---
header: 
  seq: 2779
  stamp: 
    secs: 1559229597
    nsecs: 489356460
  frame_id: map
pose: 
  pose: 
    position: 
      x: 0.783103841275
      y: -13.639687053
      z: 0.0
    orientation: 
      x: 0.0
      y: 0.0
      z: 0.967565864372
      w: 0.252618879148
  covariance: [0.0031846230281700784, 0.0, 0.0, 0.0, 0.0, 0.0, 0.0, 0.0, 0.0, 0.0, 0.0, 0.0, 0.0, 0.0, 0.0, 0.0, 0.0, 0.0, 0.0, 0.0, 0.0, 0.0, 0.0, 0.0, 0.0, 0.0, 0.0, 0.0, 0.0099760006234171344, 4.932972449193542e-05, 0.0, 0.0, 0.0, 0.0, 4.932972449193542e-05, 0.0096495865011986832]
---
header: 
  seq: 2780
  stamp: 
    secs: 1559229598
    nsecs: 239382507
  frame_id: map
pose: 
  pose: 
    position: 
      x: 0.311290214985
      y: -13.2846849736
      z: 0.0
    orientation: 
      x: 0.0
      y: 0.0
      z: 0.935694530232
      w: 0.352811204604
  covariance: [0.0036718168299193139, 0.0, 0.0, 0.0, 0.0, 0.0, 0.0, 0.0, 0.0, 0.0, 0.0, 0.0, 0.0, 0.0, 0.0, 0.0, 0.0, 0.0, 0.0, 0.0, 0.0, 0.0, 0.0, 0.0, 0.0, 0.0, 0.0, 0.0, 0.010236184955444821, 0.00068593549867349132, 0.0, 0.0, 0.0, 0.0, 0.00068593549867349132, 0.010250652642994681]
---
header: 
  seq: 2781
  stamp: 
    secs: 1559229598
    nsecs: 965235972
  frame_id: map
pose: 
  pose: 
    position: 
      x: -0.0649294073789
      y: -12.9214417707
      z: 0.0
    orientation: 
      x: 0.0
      y: 0.0
      z: 0.924065132351
      w: 0.382235047022
  covariance: [0.0034277665377634844, 0.0, 0.0, 0.0, 0.0, 0.0, 0.0, 0.0, 0.0, 0.0, 0.0, 0.0, 0.0, 0.0, 0.0, 0.0, 0.0, 0.0, 0.0, 0.0, 0.0, 0.0, 0.0, 0.0, 0.0, 0.0, 0.0, 0.0, 0.010357427045797023, 0.0012469860582364131, 0.0, 0.0, 0.0, 0.0, 0.0012469860582364131, 0.010462093988635313]
---
header: 
  seq: 2782
  stamp: 
    secs: 1559229599
    nsecs: 865290695
  frame_id: map
pose: 
  pose: 
    position: 
      x: -0.408666643142
      y: -12.5991781888
      z: 0.0
    orientation: 
      x: 0.0
      y: 0.0
      z: 0.940391930253
      w: 0.340092660191
  covariance: [0.0027785447461628316, 0.0, 0.0, 0.0, 0.0, 0.0, 0.0, 0.0, 0.0, 0.0, 0.0, 0.0, 0.0, 0.0, 0.0, 0.0, 0.0, 0.0, 0.0, 0.0, 0.0, 0.0, 0.0, 0.0, 0.0, 0.0, 0.0, 0.0, 0.0094179659680757328, 0.0016353621075984614, 0.0, 0.0, 0.0, 0.0, 0.0016353621075984614, 0.010411258132009183]
---
header: 
  seq: 2783
  stamp: 
    secs: 1559229601
    nsecs: 674940835
  frame_id: map
pose: 
  pose: 
    position: 
      x: -0.818742542362
      y: -12.317633159
      z: 0.0
    orientation: 
      x: 0.0
      y: 0.0
      z: 0.971616310034
      w: 0.236562351349
  covariance: [0.0025994924775104376, 0.0, 0.0, 0.0, 0.0, 0.0, 0.0, 0.0, 0.0, 0.0, 0.0, 0.0, 0.0, 0.0, 0.0, 0.0, 0.0, 0.0, 0.0, 0.0, 0.0, 0.0, 0.0, 0.0, 0.0, 0.0, 0.0, 0.0, 0.0095509871628435168, 0.0019611397914851667, 0.0, 0.0, 0.0, 0.0, 0.001961139791486943, 0.0098762692518457214]
---
header: 
  seq: 2784
  stamp: 
    secs: 1559229607
    nsecs: 298447945
  frame_id: map
pose: 
  pose: 
    position: 
      x: -1.07895314589
      y: -12.1895669409
      z: 0.0
    orientation: 
      x: 0.0
      y: 0.0
      z: 0.902129632951
      w: 0.431465091695
  covariance: [0.005089274563522872, 0.0, 0.0, 0.0, 0.0, 0.0, 0.0, 0.0, 0.0, 0.0, 0.0, 0.0, 0.0, 0.0, 0.0, 0.0, 0.0, 0.0, 0.0, 0.0, 0.0, 0.0, 0.0, 0.0, 0.0, 0.0, 0.0, 0.0, 0.0090451319327076053, 0.0007555689623072433, 0.0, 0.0, 0.0, 0.0, 0.00075556896230901966, 0.011028836069051709]
---
header: 
  seq: 2785
  stamp: 
    secs: 1559229617
    nsecs: 292417405
  frame_id: map
pose: 
  pose: 
    position: 
      x: -1.14353996174
      y: -11.9604505665
      z: 0.0
    orientation: 
      x: 0.0
      y: 0.0
      z: 0.785429138422
      w: 0.618951588186
  covariance: [0.0071271390513956813, 0.0, 0.0, 0.0, 0.0, 0.0, 0.0, 0.0, 0.0, 0.0, 0.0, 0.0, 0.0, 0.0, 0.0, 0.0, 0.0, 0.0, 0.0, 0.0, 0.0, 0.0, 0.0, 0.0, 0.0, 0.0, 0.0, 0.0, 0.0083057262762528204, -0.00026238071653959897, 0.0, 0.0, 0.0, 0.0, -0.00026238071653959897, 0.011481904547582911]
---
header: 
  seq: 2786
  stamp: 
    secs: 1559229627
    nsecs: 364741143
  frame_id: map
pose: 
  pose: 
    position: 
      x: -1.14608356976
      y: -11.4868706755
      z: 0.0
    orientation: 
      x: 0.0
      y: 0.0
      z: 0.710338724905
      w: 0.703859997372
  covariance: [0.006783939173685736, 0.0, 0.0, 0.0, 0.0, 0.0, 0.0, 0.0, 0.0, 0.0, 0.0, 0.0, 0.0, 0.0, 0.0, 0.0, 0.0, 0.0, 0.0, 0.0, 0.0, 0.0, 0.0, 0.0, 0.0, 0.0, 0.0, 0.0, 0.0059752372280686781, 0.00040808759279724501, 0.0, 0.0, 0.0, 0.0, 0.00040808759279724501, 0.01225456322096297]
---
