header: 
  seq: 521
  stamp: 
    secs: 1559282315
    nsecs: 804078280
  frame_id: map
pose: 
  pose: 
    position: 
      x: 7.17454497024
      y: -15.0079411392
      z: 0.0
    orientation: 
      x: 0.0
      y: 0.0
      z: -0.721932648502
      w: 0.691963330695
  covariance: [0.019233181798463249, 0.0, 0.0, 0.0, 0.0, 0.0, 0.0, 0.0, 0.0, 0.0, 0.0, 0.0, 0.0, 0.0, 0.0, 0.0, 0.0, 0.0, 0.0, 0.0, 0.0, 0.0, 0.0, 0.0, 0.0, 0.0, 0.0, 0.0, 0.0088468899399258057, 0.0047834601577257923, 0.0, 0.0, 0.0, 0.0, 0.0047834601577257923, 0.040291139708026183]
---
header: 
  seq: 522
  stamp: 
    secs: 1559284450
    nsecs: 791346295
  frame_id: map
pose: 
  pose: 
    position: 
      x: 7.19889484464
      y: -15.0003239828
      z: 0.0
    orientation: 
      x: 0.0
      y: 0.0
      z: -0.67717143337
      w: 0.735825284852
  covariance: [0.016959740499766653, 0.0, 0.0, 0.0, 0.0, 0.0, 0.0, 0.0, 0.0, 0.0, 0.0, 0.0, 0.0, 0.0, 0.0, 0.0, 0.0, 0.0, 0.0, 0.0, 0.0, 0.0, 0.0, 0.0, 0.0, 0.0, 0.0, 0.0, 0.0069173895063408455, 0.0028552623947898019, 0.0, 0.0, 0.0, 0.0, 0.0028552623947898019, 0.032261773903636964]
---
header: 
  seq: 523
  stamp: 
    secs: 1559284452
    nsecs: 190352301
  frame_id: map
pose: 
  pose: 
    position: 
      x: 7.13147786388
      y: -14.5840990217
      z: 0.0
    orientation: 
      x: 0.0
      y: 0.0
      z: -0.678744351523
      w: 0.734374635507
  covariance: [0.015829150181464507, 0.0, 0.0, 0.0, 0.0, 0.0, 0.0, 0.0, 0.0, 0.0, 0.0, 0.0, 0.0, 0.0, 0.0, 0.0, 0.0, 0.0, 0.0, 0.0, 0.0, 0.0, 0.0, 0.0, 0.0, 0.0, 0.0, 0.0, 0.0061904630720880328, 0.0027125023095449408, 0.0, 0.0, 0.0, 0.0, 0.0027125023095449408, 0.02137916426132884]
---
header: 
  seq: 524
  stamp: 
    secs: 1559284453
    nsecs: 591605044
  frame_id: map
pose: 
  pose: 
    position: 
      x: 7.12113194399
      y: -14.1751726868
      z: 0.0
    orientation: 
      x: 0.0
      y: 0.0
      z: -0.684467250045
      w: 0.729043608857
  covariance: [0.013798780216157014, 0.0, 0.0, 0.0, 0.0, 0.0, 0.0, 0.0, 0.0, 0.0, 0.0, 0.0, 0.0, 0.0, 0.0, 0.0, 0.0, 0.0, 0.0, 0.0, 0.0, 0.0, 0.0, 0.0, 0.0, 0.0, 0.0, 0.0, 0.0057662026780632269, 0.0026250739613971176, 0.0, 0.0, 0.0, 0.0, 0.0026250739613971176, 0.01677836789303111]
---
header: 
  seq: 525
  stamp: 
    secs: 1559284455
    nsecs: 2126471
  frame_id: map
pose: 
  pose: 
    position: 
      x: 7.09633456401
      y: -13.7454313319
      z: 0.0
    orientation: 
      x: 0.0
      y: 0.0
      z: -0.691049635165
      w: 0.722807306091
  covariance: [0.01132922416215329, 0.0, 0.0, 0.0, 0.0, 0.0, 0.0, 0.0, 0.0, 0.0, 0.0, 0.0, 0.0, 0.0, 0.0, 0.0, 0.0, 0.0, 0.0, 0.0, 0.0, 0.0, 0.0, 0.0, 0.0, 0.0, 0.0, 0.0, 0.0055722385177102316, 0.0028229423930284732, 0.0, 0.0, 0.0, 0.0, 0.0028229423930142624, 0.018489820506735772]
---
header: 
  seq: 526
  stamp: 
    secs: 1559284459
    nsecs: 312405416
  frame_id: map
pose: 
  pose: 
    position: 
      x: 7.06221432343
      y: -13.3661949336
      z: 0.0
    orientation: 
      x: 0.0
      y: 0.0
      z: -0.855761768388
      w: 0.517370076218
  covariance: [0.013049396878593099, 0.0, 0.0, 0.0, 0.0, 0.0, 0.0, 0.0, 0.0, 0.0, 0.0, 0.0, 0.0, 0.0, 0.0, 0.0, 0.0, 0.0, 0.0, 0.0, 0.0, 0.0, 0.0, 0.0, 0.0, 0.0, 0.0, 0.0, 0.008349395500381265, 0.0026867981129985613, 0.0, 0.0, 0.0, 0.0, 0.0026867981129843504, 0.022206691586259993]
---
header: 
  seq: 527
  stamp: 
    secs: 1559284461
    nsecs: 532367719
  frame_id: map
pose: 
  pose: 
    position: 
      x: 7.03835756041
      y: -13.3578034986
      z: 0.0
    orientation: 
      x: 0.0
      y: 0.0
      z: 0.999765186411
      w: 0.0216696109788
  covariance: [0.013483068939154561, 0.0, 0.0, 0.0, 0.0, 0.0, 0.0, 0.0, 0.0, 0.0, 0.0, 0.0, 0.0, 0.0, 0.0, 0.0, 0.0, 0.0, 0.0, 0.0, 0.0, 0.0, 0.0, 0.0, 0.0, 0.0, 0.0, 0.0, 0.0080762412289491284, 0.0030566088846205714, 0.0, 0.0, 0.0, 0.0, 0.0030566088846205714, 0.024461111072461419]
---
header: 
  seq: 528
  stamp: 
    secs: 1559284462
    nsecs: 948988620
  frame_id: map
pose: 
  pose: 
    position: 
      x: 6.64533117557
      y: -13.2098022467
      z: 0.0
    orientation: 
      x: 0.0
      y: 0.0
      z: 0.969968746663
      w: 0.243229583926
  covariance: [0.009910846371622423, 0.0, 0.0, 0.0, 0.0, 0.0, 0.0, 0.0, 0.0, 0.0, 0.0, 0.0, 0.0, 0.0, 0.0, 0.0, 0.0, 0.0, 0.0, 0.0, 0.0, 0.0, 0.0, 0.0, 0.0, 0.0, 0.0, 0.0, 0.0095511836460727174, 0.0053579921972878482, 0.0, 0.0, 0.0, 0.0, 0.005357992197302059, 0.023948878339680808]
---
header: 
  seq: 529
  stamp: 
    secs: 1559284464
    nsecs: 863730481
  frame_id: map
pose: 
  pose: 
    position: 
      x: 6.22216207795
      y: -13.0164151365
      z: 0.0
    orientation: 
      x: 0.0
      y: 0.0
      z: 0.986408083029
      w: 0.164314009553
  covariance: [0.0076939168905117193, 0.0, 0.0, 0.0, 0.0, 0.0, 0.0, 0.0, 0.0, 0.0, 0.0, 0.0, 0.0, 0.0, 0.0, 0.0, 0.0, 0.0, 0.0, 0.0, 0.0, 0.0, 0.0, 0.0, 0.0, 0.0, 0.0, 0.0, 0.011619356059802034, 0.0063305825759996407, 0.0, 0.0, 0.0, 0.0, 0.0063305825759996407, 0.024022224432425385]
---
header: 
  seq: 530
  stamp: 
    secs: 1559284470
    nsecs: 171521348
  frame_id: map
pose: 
  pose: 
    position: 
      x: 6.0819094119
      y: -12.9723579546
      z: 0.0
    orientation: 
      x: 0.0
      y: 0.0
      z: -0.934183716214
      w: 0.356792354683
  covariance: [0.011340038701325017, 0.0, 0.0, 0.0, 0.0, 0.0, 0.0, 0.0, 0.0, 0.0, 0.0, 0.0, 0.0, 0.0, 0.0, 0.0, 0.0, 0.0, 0.0, 0.0, 0.0, 0.0, 0.0, 0.0, 0.0, 0.0, 0.0, 0.0, 0.011155119156379888, 0.0062840716743265603, 0.0, 0.0, 0.0, 0.0, 0.0062840716743123495, 0.027569986152748343]
---
header: 
  seq: 531
  stamp: 
    secs: 1559284480
    nsecs: 882088739
  frame_id: map
pose: 
  pose: 
    position: 
      x: 5.98507504328
      y: -13.1699072525
      z: 0.0
    orientation: 
      x: 0.0
      y: 0.0
      z: -0.859256460111
      w: 0.511545047633
  covariance: [0.011685351578981077, 0.0, 0.0, 0.0, 0.0, 0.0, 0.0, 0.0, 0.0, 0.0, 0.0, 0.0, 0.0, 0.0, 0.0, 0.0, 0.0, 0.0, 0.0, 0.0, 0.0, 0.0, 0.0, 0.0, 0.0, 0.0, 0.0, 0.0, 0.011398395977830676, 0.0059217027023308584, 0.0, 0.0, 0.0, 0.0, 0.0059217027023308584, 0.0248964146152903]
---
header: 
  seq: 532
  stamp: 
    secs: 1559284488
    nsecs: 902405633
  frame_id: map
pose: 
  pose: 
    position: 
      x: 5.92170508724
      y: -13.5283383604
      z: 0.0
    orientation: 
      x: 0.0
      y: 0.0
      z: -0.716844989432
      w: 0.697232573196
  covariance: [0.011961056712792321, 0.0, 0.0, 0.0, 0.0, 0.0, 0.0, 0.0, 0.0, 0.0, 0.0, 0.0, 0.0, 0.0, 0.0, 0.0, 0.0, 0.0, 0.0, 0.0, 0.0, 0.0, 0.0, 0.0, 0.0, 0.0, 0.0, 0.0, 0.012072927542596942, 0.0039514527868528652, 0.0, 0.0, 0.0, 0.0, 0.0039514527868528652, 0.022523141103619113]
---
header: 
  seq: 533
  stamp: 
    secs: 1559284494
    nsecs: 525415072
  frame_id: map
pose: 
  pose: 
    position: 
      x: 5.91151226089
      y: -13.9354103207
      z: 0.0
    orientation: 
      x: 0.0
      y: 0.0
      z: -0.725314933184
      w: 0.688417204681
  covariance: [0.010527843902607486, 0.0, 0.0, 0.0, 0.0, 0.0, 0.0, 0.0, 0.0, 0.0, 0.0, 0.0, 0.0, 0.0, 0.0, 0.0, 0.0, 0.0, 0.0, 0.0, 0.0, 0.0, 0.0, 0.0, 0.0, 0.0, 0.0, 0.0, 0.009615758683364688, 0.0018462178779851545, 0.0, 0.0, 0.0, 0.0, 0.0018462178779851545, 0.02153979704441265]
---
header: 
  seq: 534
  stamp: 
    secs: 1559284509
    nsecs: 663140174
  frame_id: map
pose: 
  pose: 
    position: 
      x: 5.95057701425
      y: -13.5166240192
      z: 0.0
    orientation: 
      x: 0.0
      y: 0.0
      z: -0.734995509423
      w: 0.678071973413
  covariance: [0.009797970696717534, 0.0, 0.0, 0.0, 0.0, 0.0, 0.0, 0.0, 0.0, 0.0, 0.0, 0.0, 0.0, 0.0, 0.0, 0.0, 0.0, 0.0, 0.0, 0.0, 0.0, 0.0, 0.0, 0.0, 0.0, 0.0, 0.0, 0.0, 0.0082723301395138758, 0.0034458382652839455, 0.0, 0.0, 0.0, 0.0, 0.0034458382652839455, 0.017915575208831344]
---
header: 
  seq: 535
  stamp: 
    secs: 1559284511
    nsecs: 64281215
  frame_id: map
pose: 
  pose: 
    position: 
      x: 5.99464331498
      y: -13.1043292409
      z: 0.0
    orientation: 
      x: 0.0
      y: 0.0
      z: -0.736974127064
      w: 0.675920953986
  covariance: [0.0090508969902027992, 0.0, 0.0, 0.0, 0.0, 0.0, 0.0, 0.0, 0.0, 0.0, 0.0, 0.0, 0.0, 0.0, 0.0, 0.0, 0.0, 0.0, 0.0, 0.0, 0.0, 0.0, 0.0, 0.0, 0.0, 0.0, 0.0, 0.0, 0.007760352345043374, 0.0044405729342644699, 0.0, 0.0, 0.0, 0.0, 0.0044405729342644699, 0.019536031361723116]
---
header: 
  seq: 536
  stamp: 
    secs: 1559284515
    nsecs: 90728665
  frame_id: map
pose: 
  pose: 
    position: 
      x: 6.02019384523
      y: -12.8032501246
      z: 0.0
    orientation: 
      x: 0.0
      y: 0.0
      z: -0.895153058307
      w: 0.445758905917
  covariance: [0.010106370130395099, 0.0, 0.0, 0.0, 0.0, 0.0, 0.0, 0.0, 0.0, 0.0, 0.0, 0.0, 0.0, 0.0, 0.0, 0.0, 0.0, 0.0, 0.0, 0.0, 0.0, 0.0, 0.0, 0.0, 0.0, 0.0, 0.0, 0.0, 0.009294037046156476, 0.0048436029059300877, 0.0, 0.0, 0.0, 0.0, 0.0048436029059300877, 0.022092444820676852]
---
header: 
  seq: 537
  stamp: 
    secs: 1559284517
    nsecs: 282422463
  frame_id: map
pose: 
  pose: 
    position: 
      x: 5.98214172442
      y: -12.7955967848
      z: 0.0
    orientation: 
      x: 0.0
      y: 0.0
      z: 0.997034552921
      w: 0.0769551835924
  covariance: [0.010474745106418942, 0.0, 0.0, 0.0, 0.0, 0.0, 0.0, 0.0, 0.0, 0.0, 0.0, 0.0, 0.0, 0.0, 0.0, 0.0, 0.0, 0.0, 0.0, 0.0, 0.0, 0.0, 0.0, 0.0, 0.0, 0.0, 0.0, 0.0, 0.0093893089914124598, 0.0051485899638541418, 0.0, 0.0, 0.0, 0.0, 0.0051485899638541418, 0.022630732959773435]
---
header: 
  seq: 538
  stamp: 
    secs: 1559284519
    nsecs: 492262595
  frame_id: map
pose: 
  pose: 
    position: 
      x: 5.888476077
      y: -12.7433679622
      z: 0.0
    orientation: 
      x: 0.0
      y: 0.0
      z: 0.810466214181
      w: 0.585785383628
  covariance: [0.011751410543820052, 0.0, 0.0, 0.0, 0.0, 0.0, 0.0, 0.0, 0.0, 0.0, 0.0, 0.0, 0.0, 0.0, 0.0, 0.0, 0.0, 0.0, 0.0, 0.0, 0.0, 0.0, 0.0, 0.0, 0.0, 0.0, 0.0, 0.0, 0.011048132933158606, 0.0045728349364654274, 0.0, 0.0, 0.0, 0.0, 0.0045728349364654274, 0.023779981513298659]
---
header: 
  seq: 539
  stamp: 
    secs: 1559284521
    nsecs: 695577432
  frame_id: map
pose: 
  pose: 
    position: 
      x: 5.95787228912
      y: -12.588692118
      z: 0.0
    orientation: 
      x: 0.0
      y: 0.0
      z: 0.399515794728
      w: 0.916726311263
  covariance: [0.013324063520939497, 0.0, 0.0, 0.0, 0.0, 0.0, 0.0, 0.0, 0.0, 0.0, 0.0, 0.0, 0.0, 0.0, 0.0, 0.0, 0.0, 0.0, 0.0, 0.0, 0.0, 0.0, 0.0, 0.0, 0.0, 0.0, 0.0, 0.0, 0.015743384552883398, 0.0039848688879019281, 0.0, 0.0, 0.0, 0.0, 0.003984868887916139, 0.024894607573999753]
---
header: 
  seq: 540
  stamp: 
    secs: 1559284523
    nsecs: 621966781
  frame_id: map
pose: 
  pose: 
    position: 
      x: 6.35897086457
      y: -12.4349616169
      z: 0.0
    orientation: 
      x: 0.0
      y: 0.0
      z: 0.0654988310452
      w: 0.997852646001
  covariance: [0.0093555346862719251, 0.0, 0.0, 0.0, 0.0, 0.0, 0.0, 0.0, 0.0, 0.0, 0.0, 0.0, 0.0, 0.0, 0.0, 0.0, 0.0, 0.0, 0.0, 0.0, 0.0, 0.0, 0.0, 0.0, 0.0, 0.0, 0.0, 0.0, 0.015922260502560796, 0.0020259486648488982, 0.0, 0.0, 0.0, 0.0, 0.0020259486648346874, 0.023188993206613412]
---
header: 
  seq: 541
  stamp: 
    secs: 1559284524
    nsecs: 505442173
  frame_id: map
pose: 
  pose: 
    position: 
      x: 6.81053019695
      y: -12.3723188006
      z: 0.0
    orientation: 
      x: 0.0
      y: 0.0
      z: 0.0183505065089
      w: 0.999831615279
  covariance: [0.0050378735940363436, 0.0, 0.0, 0.0, 0.0, 0.0, 0.0, 0.0, 0.0, 0.0, 0.0, 0.0, 0.0, 0.0, 0.0, 0.0, 0.0, 0.0, 0.0, 0.0, 0.0, 0.0, 0.0, 0.0, 0.0, 0.0, 0.0, 0.0, 0.014335474421590423, 0.0010955456431489252, 0.0, 0.0, 0.0, 0.0, 0.0010955456431489252, 0.019457104206611214]
---
header: 
  seq: 542
  stamp: 
    secs: 1559284525
    nsecs: 119397738
  frame_id: map
pose: 
  pose: 
    position: 
      x: 7.2031035912
      y: -12.33272574
      z: 0.0
    orientation: 
      x: 0.0
      y: 0.0
      z: 0.0205792488308
      w: 0.999788224834
  covariance: [0.0034623587645557031, 0.0, 0.0, 0.0, 0.0, 0.0, 0.0, 0.0, 0.0, 0.0, 0.0, 0.0, 0.0, 0.0, 0.0, 0.0, 0.0, 0.0, 0.0, 0.0, 0.0, 0.0, 0.0, 0.0, 0.0, 0.0, 0.0, 0.0, 0.013396992035473298, -0.00036849098698388732, 0.0, 0.0, 0.0, 0.0, -0.00036849098698388732, 0.016978774605627606]
---
header: 
  seq: 543
  stamp: 
    secs: 1559284525
    nsecs: 710801087
  frame_id: map
pose: 
  pose: 
    position: 
      x: 7.67261723129
      y: -12.3202503611
      z: 0.0
    orientation: 
      x: 0.0
      y: 0.0
      z: 0.0188641072502
      w: 0.999822056897
  covariance: [0.0027502815862861202, 0.0, 0.0, 0.0, 0.0, 0.0, 0.0, 0.0, 0.0, 0.0, 0.0, 0.0, 0.0, 0.0, 0.0, 0.0, 0.0, 0.0, 0.0, 0.0, 0.0, 0.0, 0.0, 0.0, 0.0, 0.0, 0.0, 0.0, 0.013550587394780338, -0.00096094149319391896, 0.0, 0.0, 0.0, 0.0, -0.00096094149319391896, 0.015618384004093355]
---
header: 
  seq: 544
  stamp: 
    secs: 1559284526
    nsecs: 330266192
  frame_id: map
pose: 
  pose: 
    position: 
      x: 8.13794485844
      y: -12.3358669075
      z: 0.0
    orientation: 
      x: 0.0
      y: 0.0
      z: -0.00661795798591
      w: 0.999978101076
  covariance: [0.0023394008265127096, 0.0, 0.0, 0.0, 0.0, 0.0, 0.0, 0.0, 0.0, 0.0, 0.0, 0.0, 0.0, 0.0, 0.0, 0.0, 0.0, 0.0, 0.0, 0.0, 0.0, 0.0, 0.0, 0.0, 0.0, 0.0, 0.0, 0.0, 0.012702984027915178, -0.0012708781733475904, 0.0, 0.0, 0.0, 0.0, -0.0012708781733333796, 0.014159795240340943]
---
header: 
  seq: 545
  stamp: 
    secs: 1559284526
    nsecs: 911755484
  frame_id: map
pose: 
  pose: 
    position: 
      x: 8.60644245199
      y: -12.3549585365
      z: 0.0
    orientation: 
      x: 0.0
      y: 0.0
      z: -0.0233005499198
      w: 0.999728505332
  covariance: [0.0022708874399554805, 0.0, 0.0, 0.0, 0.0, 0.0, 0.0, 0.0, 0.0, 0.0, 0.0, 0.0, 0.0, 0.0, 0.0, 0.0, 0.0, 0.0, 0.0, 0.0, 0.0, 0.0, 0.0, 0.0, 0.0, 0.0, 0.0, 0.0, 0.012388568261896432, -0.0013867008784230639, 0.0, 0.0, 0.0, 0.0, -0.0013867008784088531, 0.013501559562981234]
---
header: 
  seq: 546
  stamp: 
    secs: 1559284527
    nsecs: 521519204
  frame_id: map
pose: 
  pose: 
    position: 
      x: 9.09253313035
      y: -12.3882258602
      z: 0.0
    orientation: 
      x: 0.0
      y: 0.0
      z: -0.0292184678558
      w: 0.999573049425
  covariance: [0.002020702917172231, 0.0, 0.0, 0.0, 0.0, 0.0, 0.0, 0.0, 0.0, 0.0, 0.0, 0.0, 0.0, 0.0, 0.0, 0.0, 0.0, 0.0, 0.0, 0.0, 0.0, 0.0, 0.0, 0.0, 0.0, 0.0, 0.0, 0.0, 0.012218679586221522, -0.0013775835120856342, 0.0, 0.0, 0.0, 0.0, -0.0013775835120998451, 0.012447883881086225]
---
header: 
  seq: 547
  stamp: 
    secs: 1559284528
    nsecs: 112953544
  frame_id: map
pose: 
  pose: 
    position: 
      x: 9.56302685229
      y: -12.421187379
      z: 0.0
    orientation: 
      x: 0.0
      y: 0.0
      z: -0.0300919114901
      w: 0.999547135888
  covariance: [0.0018538484253683273, 0.0, 0.0, 0.0, 0.0, 0.0, 0.0, 0.0, 0.0, 0.0, 0.0, 0.0, 0.0, 0.0, 0.0, 0.0, 0.0, 0.0, 0.0, 0.0, 0.0, 0.0, 0.0, 0.0, 0.0, 0.0, 0.0, 0.0, 0.011071395426691128, -0.00091015227896697833, 0.0, 0.0, 0.0, 0.0, -0.00091015227898118918, 0.01166121835652678]
---
header: 
  seq: 548
  stamp: 
    secs: 1559284528
    nsecs: 730958246
  frame_id: map
pose: 
  pose: 
    position: 
      x: 10.0585674885
      y: -12.4590276257
      z: 0.0
    orientation: 
      x: 0.0
      y: 0.0
      z: -0.0391793821536
      w: 0.999232193243
  covariance: [0.0017467204037126623, 0.0, 0.0, 0.0, 0.0, 0.0, 0.0, 0.0, 0.0, 0.0, 0.0, 0.0, 0.0, 0.0, 0.0, 0.0, 0.0, 0.0, 0.0, 0.0, 0.0, 0.0, 0.0, 0.0, 0.0, 0.0, 0.0, 0.0, 0.010203091088665914, -0.00094117008478174062, 0.0, 0.0, 0.0, 0.0, -0.00094117008475331891, 0.011504489838675573]
---
header: 
  seq: 549
  stamp: 
    secs: 1559284529
    nsecs: 327808790
  frame_id: map
pose: 
  pose: 
    position: 
      x: 10.5280400911
      y: -12.4957850608
      z: 0.0
    orientation: 
      x: 0.0
      y: 0.0
      z: -0.0175022966584
      w: 0.999846823074
  covariance: [0.0018437640681085649, 0.0, 0.0, 0.0, 0.0, 0.0, 0.0, 0.0, 0.0, 0.0, 0.0, 0.0, 0.0, 0.0, 0.0, 0.0, 0.0, 0.0, 0.0, 0.0, 0.0, 0.0, 0.0, 0.0, 0.0, 0.0, 0.0, 0.0, 0.0097851344796315836, -0.001030378429667246, 0.0, 0.0, 0.0, 0.0, -0.001030378429667246, 0.011344279467788241]
---
header: 
  seq: 550
  stamp: 
    secs: 1559284529
    nsecs: 964835560
  frame_id: map
pose: 
  pose: 
    position: 
      x: 11.0372532513
      y: -12.5015763404
      z: 0.0
    orientation: 
      x: 0.0
      y: 0.0
      z: 0.0187372777034
      w: 0.999824441802
  covariance: [0.0020771468969360452, 0.0, 0.0, 0.0, 0.0, 0.0, 0.0, 0.0, 0.0, 0.0, 0.0, 0.0, 0.0, 0.0, 0.0, 0.0, 0.0, 0.0, 0.0, 0.0, 0.0, 0.0, 0.0, 0.0, 0.0, 0.0, 0.0, 0.0, 0.0084350332718608773, -0.00083984578374486011, 0.0, 0.0, 0.0, 0.0, -0.00083984578371643841, 0.010797407800632037]
---
header: 
  seq: 551
  stamp: 
    secs: 1559284530
    nsecs: 573526890
  frame_id: map
pose: 
  pose: 
    position: 
      x: 11.5184470605
      y: -12.4768747556
      z: 0.0
    orientation: 
      x: 0.0
      y: 0.0
      z: 0.0416393283207
      w: 0.99913270707
  covariance: [0.0021964356587405713, 0.0, 0.0, 0.0, 0.0, 0.0, 0.0, 0.0, 0.0, 0.0, 0.0, 0.0, 0.0, 0.0, 0.0, 0.0, 0.0, 0.0, 0.0, 0.0, 0.0, 0.0, 0.0, 0.0, 0.0, 0.0, 0.0, 0.0, 0.0074478990197585316, -0.00058603570860574314, 0.0, 0.0, 0.0, 0.0, -0.00058603570860574314, 0.010629629319538925]
---
header: 
  seq: 552
  stamp: 
    secs: 1559284531
    nsecs: 170111081
  frame_id: map
pose: 
  pose: 
    position: 
      x: 12.0012564803
      y: -12.4484609978
      z: 0.0
    orientation: 
      x: 0.0
      y: 0.0
      z: 0.0368082015343
      w: 0.999322348544
  covariance: [0.0023008701076381801, 0.0, 0.0, 0.0, 0.0, 0.0, 0.0, 0.0, 0.0, 0.0, 0.0, 0.0, 0.0, 0.0, 0.0, 0.0, 0.0, 0.0, 0.0, 0.0, 0.0, 0.0, 0.0, 0.0, 0.0, 0.0, 0.0, 0.0, 0.006765026640966061, -0.00042210404058629585, 0.0, 0.0, 0.0, 0.0, -0.00042210404055787414, 0.010463078626718797]
---
header: 
  seq: 553
  stamp: 
    secs: 1559284531
    nsecs: 735406053
  frame_id: map
pose: 
  pose: 
    position: 
      x: 12.4613681179
      y: -12.4536600055
      z: 0.0
    orientation: 
      x: 0.0
      y: 0.0
      z: 0.00681894905234
      w: 0.999976750697
  covariance: [0.0021945250139054871, 0.0, 0.0, 0.0, 0.0, 0.0, 0.0, 0.0, 0.0, 0.0, 0.0, 0.0, 0.0, 0.0, 0.0, 0.0, 0.0, 0.0, 0.0, 0.0, 0.0, 0.0, 0.0, 0.0, 0.0, 0.0, 0.0, 0.0, 0.0063719255463050694, -0.00021742774119523276, 0.0, 0.0, 0.0, 0.0, -0.00021742774119523276, 0.0095351370813516294]
---
header: 
  seq: 554
  stamp: 
    secs: 1559284532
    nsecs: 457639120
  frame_id: map
pose: 
  pose: 
    position: 
      x: 13.0253834099
      y: -12.4683402249
      z: 0.0
    orientation: 
      x: 0.0
      y: 0.0
      z: -0.0411892578182
      w: 0.999151362427
  covariance: [0.0024870321389093811, 0.0, 0.0, 0.0, 0.0, 0.0, 0.0, 0.0, 0.0, 0.0, 0.0, 0.0, 0.0, 0.0, 0.0, 0.0, 0.0, 0.0, 0.0, 0.0, 0.0, 0.0, 0.0, 0.0, 0.0, 0.0, 0.0, 0.0, 0.0064380447029173966, -2.9343504112473509e-05, 0.0, 0.0, 0.0, 0.0, -2.93435040840518e-05, 0.0090549220157894045]
---
header: 
  seq: 555
  stamp: 
    secs: 1559284533
    nsecs: 155558906
  frame_id: map
pose: 
  pose: 
    position: 
      x: 13.5036847797
      y: -12.5559984506
      z: 0.0
    orientation: 
      x: 0.0
      y: 0.0
      z: -0.117179317721
      w: 0.993110773025
  covariance: [0.0027621040145192313, 0.0, 0.0, 0.0, 0.0, 0.0, 0.0, 0.0, 0.0, 0.0, 0.0, 0.0, 0.0, 0.0, 0.0, 0.0, 0.0, 0.0, 0.0, 0.0, 0.0, 0.0, 0.0, 0.0, 0.0, 0.0, 0.0, 0.0, 0.0064314997092818123, -0.00011721358375230709, 0.0, 0.0, 0.0, 0.0, -0.00011721358375230709, 0.0093778263041878335]
---
header: 
  seq: 556
  stamp: 
    secs: 1559284534
    nsecs: 162535360
  frame_id: map
pose: 
  pose: 
    position: 
      x: 13.9205156093
      y: -12.7022395623
      z: 0.0
    orientation: 
      x: 0.0
      y: 0.0
      z: -0.213708606583
      w: 0.976897451871
  covariance: [0.0025993883745998839, 0.0, 0.0, 0.0, 0.0, 0.0, 0.0, 0.0, 0.0, 0.0, 0.0, 0.0, 0.0, 0.0, 0.0, 0.0, 0.0, 0.0, 0.0, 0.0, 0.0, 0.0, 0.0, 0.0, 0.0, 0.0, 0.0, 0.0, 0.006046641497778448, -2.4413414572264062e-05, 0.0, 0.0, 0.0, 0.0, -2.4413414572264062e-05, 0.0093349169568715754]
---
header: 
  seq: 557
  stamp: 
    secs: 1559284538
    nsecs: 594910790
  frame_id: map
pose: 
  pose: 
    position: 
      x: 14.1454739433
      y: -12.8478703445
      z: 0.0
    orientation: 
      x: 0.0
      y: 0.0
      z: -0.54975281603
      w: 0.83532738568
  covariance: [0.0040433655011080328, 0.0, 0.0, 0.0, 0.0, 0.0, 0.0, 0.0, 0.0, 0.0, 0.0, 0.0, 0.0, 0.0, 0.0, 0.0, 0.0, 0.0, 0.0, 0.0, 0.0, 0.0, 0.0, 0.0, 0.0, 0.0, 0.0, 0.0, 0.0062432661913209902, -0.00059441128675474808, 0.0, 0.0, 0.0, 0.0, -0.00059441128675474808, 0.010006254707828286]
---
header: 
  seq: 558
  stamp: 
    secs: 1559284548
    nsecs: 993520240
  frame_id: map
pose: 
  pose: 
    position: 
      x: 14.1405077067
      y: -13.0751712793
      z: 0.0
    orientation: 
      x: 0.0
      y: 0.0
      z: -0.726103405926
      w: 0.68758551752
  covariance: [0.0071564584235252167, 0.0, 0.0, 0.0, 0.0, 0.0, 0.0, 0.0, 0.0, 0.0, 0.0, 0.0, 0.0, 0.0, 0.0, 0.0, 0.0, 0.0, 0.0, 0.0, 0.0, 0.0, 0.0, 0.0, 0.0, 0.0, 0.0, 0.0, 0.0065882469167752233, -0.0010802480469125435, 0.0, 0.0, 0.0, 0.0, -0.0010802480469125435, 0.010624183867288589]
---
header: 
  seq: 559
  stamp: 
    secs: 1559284556
    nsecs: 332264205
  frame_id: map
pose: 
  pose: 
    position: 
      x: 14.0975660872
      y: -13.4950454983
      z: 0.0
    orientation: 
      x: 0.0
      y: 0.0
      z: -0.77065302816
      w: 0.637254980512
  covariance: [0.0074565614080475432, 0.0, 0.0, 0.0, 0.0, 0.0, 0.0, 0.0, 0.0, 0.0, 0.0, 0.0, 0.0, 0.0, 0.0, 0.0, 0.0, 0.0, 0.0, 0.0, 0.0, 0.0, 0.0, 0.0, 0.0, 0.0, 0.0, 0.0, 0.0050302053451357215, -0.00050952569698473808, 0.0, 0.0, 0.0, 0.0, -0.00050952569698473808, 0.013192753558681132]
---
header: 
  seq: 560
  stamp: 
    secs: 1559284573
    nsecs: 408039924
  frame_id: map
pose: 
  pose: 
    position: 
      x: 14.1977376252
      y: -13.0925199542
      z: 0.0
    orientation: 
      x: 0.0
      y: 0.0
      z: -0.776201545382
      w: 0.630484861791
  covariance: [0.0082684748647490619, 0.0, 0.0, 0.0, 0.0, 0.0, 0.0, 0.0, 0.0, 0.0, 0.0, 0.0, 0.0, 0.0, 0.0, 0.0, 0.0, 0.0, 0.0, 0.0, 0.0, 0.0, 0.0, 0.0, 0.0, 0.0, 0.0, 0.0, 0.0047857803227317596, -0.00052554048469911463, 0.0, 0.0, 0.0, 0.0, -0.00052554048472753633, 0.010788076631528693]
---
header: 
  seq: 561
  stamp: 
    secs: 1559284574
    nsecs: 900712758
  frame_id: map
pose: 
  pose: 
    position: 
      x: 14.3019828044
      y: -12.687086513
      z: 0.0
    orientation: 
      x: 0.0
      y: 0.0
      z: -0.772121589512
      w: 0.63547482327
  covariance: [0.009167905683670553, 0.0, 0.0, 0.0, 0.0, 0.0, 0.0, 0.0, 0.0, 0.0, 0.0, 0.0, 0.0, 0.0, 0.0, 0.0, 0.0, 0.0, 0.0, 0.0, 0.0, 0.0, 0.0, 0.0, 0.0, 0.0, 0.0, 0.0, 0.0048760731859664574, -0.0014762066666662093, 0.0, 0.0, 0.0, 0.0, -0.0014762066666662093, 0.010601131782167289]
---
header: 
  seq: 562
  stamp: 
    secs: 1559284579
    nsecs: 731020708
  frame_id: map
pose: 
  pose: 
    position: 
      x: 14.3014422961
      y: -12.634297306
      z: 0.0
    orientation: 
      x: 0.0
      y: 0.0
      z: -0.984787091444
      w: 0.173765314504
  covariance: [0.015175217270948085, 0.0, 0.0, 0.0, 0.0, 0.0, 0.0, 0.0, 0.0, 0.0, 0.0, 0.0, 0.0, 0.0, 0.0, 0.0, 0.0, 0.0, 0.0, 0.0, 0.0, 0.0, 0.0, 0.0, 0.0, 0.0, 0.0, 0.0, 0.0084572434404883105, -0.00027746947877446308, 0.0, 0.0, 0.0, 0.0, -0.00027746947874604137, 0.011985402384760127]
---
header: 
  seq: 563
  stamp: 
    secs: 1559284584
    nsecs: 575301345
  frame_id: map
pose: 
  pose: 
    position: 
      x: 13.8719870649
      y: -12.7857483802
      z: 0.0
    orientation: 
      x: 0.0
      y: 0.0
      z: -0.993979898244
      w: 0.109562593469
  covariance: [0.01386022827262318, 0.0, 0.0, 0.0, 0.0, 0.0, 0.0, 0.0, 0.0, 0.0, 0.0, 0.0, 0.0, 0.0, 0.0, 0.0, 0.0, 0.0, 0.0, 0.0, 0.0, 0.0, 0.0, 0.0, 0.0, 0.0, 0.0, 0.0, 0.0064428296255397586, -6.1301456678879461e-05, 0.0, 0.0, 0.0, 0.0, -6.1301456678879461e-05, 0.011288445090342334]
---
header: 
  seq: 564
  stamp: 
    secs: 1559284586
    nsecs: 272636245
  frame_id: map
pose: 
  pose: 
    position: 
      x: 13.4086327506
      y: -12.876138491
      z: 0.0
    orientation: 
      x: 0.0
      y: 0.0
      z: -0.99904698012
      w: 0.0436478122261
  covariance: [0.010569101952322704, 0.0, 0.0, 0.0, 0.0, 0.0, 0.0, 0.0, 0.0, 0.0, 0.0, 0.0, 0.0, 0.0, 0.0, 0.0, 0.0, 0.0, 0.0, 0.0, 0.0, 0.0, 0.0, 0.0, 0.0, 0.0, 0.0, 0.0, 0.0082576120161545041, -0.00051201788091352553, 0.0, 0.0, 0.0, 0.0, -0.00051201788091352553, 0.011075500900510613]
---
header: 
  seq: 565
  stamp: 
    secs: 1559284587
    nsecs: 249927795
  frame_id: map
pose: 
  pose: 
    position: 
      x: 12.9582329242
      y: -12.9513262828
      z: 0.0
    orientation: 
      x: 0.0
      y: 0.0
      z: -0.998329369778
      w: 0.0577794897673
  covariance: [0.0072638353986836449, 0.0, 0.0, 0.0, 0.0, 0.0, 0.0, 0.0, 0.0, 0.0, 0.0, 0.0, 0.0, 0.0, 0.0, 0.0, 0.0, 0.0, 0.0, 0.0, 0.0, 0.0, 0.0, 0.0, 0.0, 0.0, 0.0, 0.0, 0.0090622691816863044, -0.00086104662208823289, 0.0, 0.0, 0.0, 0.0, -0.00086104662208823289, 0.010762187721666323]
---
header: 
  seq: 566
  stamp: 
    secs: 1559284588
    nsecs: 147978627
  frame_id: map
pose: 
  pose: 
    position: 
      x: 12.5021723375
      y: -13.0192193473
      z: 0.0
    orientation: 
      x: 0.0
      y: 0.0
      z: -0.999632935388
      w: 0.0270923326509
  covariance: [0.0046495140703915108, 0.0, 0.0, 0.0, 0.0, 0.0, 0.0, 0.0, 0.0, 0.0, 0.0, 0.0, 0.0, 0.0, 0.0, 0.0, 0.0, 0.0, 0.0, 0.0, 0.0, 0.0, 0.0, 0.0, 0.0, 0.0, 0.0, 0.0, 0.0084156432549420158, -0.001141966234792474, 0.0, 0.0, 0.0, 0.0, -0.001141966234792474, 0.010546538920396042]
---
header: 
  seq: 567
  stamp: 
    secs: 1559284590
    nsecs: 52899783
  frame_id: map
pose: 
  pose: 
    position: 
      x: 12.0275582302
      y: -13.0191812516
      z: 0.0
    orientation: 
      x: 0.0
      y: 0.0
      z: 0.999414871902
      w: 0.0342040029871
  covariance: [0.003699461508437047, 0.0, 0.0, 0.0, 0.0, 0.0, 0.0, 0.0, 0.0, 0.0, 0.0, 0.0, 0.0, 0.0, 0.0, 0.0, 0.0, 0.0, 0.0, 0.0, 0.0, 0.0, 0.0, 0.0, 0.0, 0.0, 0.0, 0.0, 0.0091286720032913039, -0.0010662100100397103, 0.0, 0.0, 0.0, 0.0, -0.0010662100100397103, 0.010049837088469009]
---
header: 
  seq: 568
  stamp: 
    secs: 1559284594
    nsecs: 84647191
  frame_id: map
pose: 
  pose: 
    position: 
      x: 11.8516166482
      y: -12.9751875743
      z: 0.0
    orientation: 
      x: 0.0
      y: 0.0
      z: 0.836246683862
      w: 0.548353429578
  covariance: [0.0052318053571397145, 0.0, 0.0, 0.0, 0.0, 0.0, 0.0, 0.0, 0.0, 0.0, 0.0, 0.0, 0.0, 0.0, 0.0, 0.0, 0.0, 0.0, 0.0, 0.0, 0.0, 0.0, 0.0, 0.0, 0.0, 0.0, 0.0, 0.0, 0.0093346815487286919, -0.00203005789960395, 0.0, 0.0, 0.0, 0.0, -0.00203005789960395, 0.013207759301782526]
---
header: 
  seq: 569
  stamp: 
    secs: 1559284600
    nsecs: 26962031
  frame_id: map
pose: 
  pose: 
    position: 
      x: 11.7601142126
      y: -12.8898273082
      z: 0.0
    orientation: 
      x: 0.0
      y: 0.0
      z: 0.999372767006
      w: 0.0354128870141
  covariance: [0.005861474572916173, 0.0, 0.0, 0.0, 0.0, 0.0, 0.0, 0.0, 0.0, 0.0, 0.0, 0.0, 0.0, 0.0, 0.0, 0.0, 0.0, 0.0, 0.0, 0.0, 0.0, 0.0, 0.0, 0.0, 0.0, 0.0, 0.0, 0.0, 0.010828778843042097, -0.0031045222494964957, 0.0, 0.0, 0.0, 0.0, -0.003104522249468074, 0.015160970482064825]
---
header: 
  seq: 570
  stamp: 
    secs: 1559284602
    nsecs: 211070038
  frame_id: map
pose: 
  pose: 
    position: 
      x: 11.7608999542
      y: -12.909917513
      z: 0.0
    orientation: 
      x: 0.0
      y: 0.0
      z: -0.874954380742
      w: 0.484205360998
  covariance: [0.010281546287763574, 0.0, 0.0, 0.0, 0.0, 0.0, 0.0, 0.0, 0.0, 0.0, 0.0, 0.0, 0.0, 0.0, 0.0, 0.0, 0.0, 0.0, 0.0, 0.0, 0.0, 0.0, 0.0, 0.0, 0.0, 0.0, 0.0, 0.0, 0.0082405692719333002, -0.001767702442393673, 0.0, 0.0, 0.0, 0.0, -0.001767702442393673, 0.019232640689490949]
---
header: 
  seq: 571
  stamp: 
    secs: 1559284610
    nsecs: 222810323
  frame_id: map
pose: 
  pose: 
    position: 
      x: 11.7548844513
      y: -12.9141008801
      z: 0.0
    orientation: 
      x: 0.0
      y: 0.0
      z: -0.516202863555
      w: 0.856466347066
  covariance: [0.010864688798850886, 0.0, 0.0, 0.0, 0.0, 0.0, 0.0, 0.0, 0.0, 0.0, 0.0, 0.0, 0.0, 0.0, 0.0, 0.0, 0.0, 0.0, 0.0, 0.0, 0.0, 0.0, 0.0, 0.0, 0.0, 0.0, 0.0, 0.0, 0.0083754873243171487, -0.00011319771003303129, 0.0, 0.0, 0.0, 0.0, -0.00011319771000460958, 0.018736878632545136]
---
header: 
  seq: 572
  stamp: 
    secs: 1559284616
    nsecs: 162269315
  frame_id: map
pose: 
  pose: 
    position: 
      x: 11.9873006428
      y: -13.1357308239
      z: 0.0
    orientation: 
      x: 0.0
      y: 0.0
      z: -0.621054797509
      w: 0.78376714558
  covariance: [0.014710007657246183, 0.0, 0.0, 0.0, 0.0, 0.0, 0.0, 0.0, 0.0, 0.0, 0.0, 0.0, 0.0, 0.0, 0.0, 0.0, 0.0, 0.0, 0.0, 0.0, 0.0, 0.0, 0.0, 0.0, 0.0, 0.0, 0.0, 0.0, 0.0074319071263112919, -0.0022242469504479248, 0.0, 0.0, 0.0, 0.0, -0.0022242469504479248, 0.020265973380336727]
---
header: 
  seq: 573
  stamp: 
    secs: 1559284625
    nsecs: 669076417
  frame_id: map
pose: 
  pose: 
    position: 
      x: 11.9925353468
      y: -13.5534741075
      z: 0.0
    orientation: 
      x: 0.0
      y: 0.0
      z: -0.712725499724
      w: 0.701443056879
  covariance: [0.014201308433214042, 0.0, 0.0, 0.0, 0.0, 0.0, 0.0, 0.0, 0.0, 0.0, 0.0, 0.0, 0.0, 0.0, 0.0, 0.0, 0.0, 0.0, 0.0, 0.0, 0.0, 0.0, 0.0, 0.0, 0.0, 0.0, 0.0, 0.0, 0.0060076010606454761, -0.0020652617797916736, 0.0, 0.0, 0.0, 0.0, -0.0020652617797916736, 0.022051379912839095]
---
header: 
  seq: 574
  stamp: 
    secs: 1559284642
    nsecs: 134735119
  frame_id: map
pose: 
  pose: 
    position: 
      x: 12.0129121452
      y: -13.1282036947
      z: 0.0
    orientation: 
      x: 0.0
      y: 0.0
      z: -0.706777660765
      w: 0.707435748492
  covariance: [0.012215614355336756, 0.0, 0.0, 0.0, 0.0, 0.0, 0.0, 0.0, 0.0, 0.0, 0.0, 0.0, 0.0, 0.0, 0.0, 0.0, 0.0, 0.0, 0.0, 0.0, 0.0, 0.0, 0.0, 0.0, 0.0, 0.0, 0.0, 0.0, 0.0049601911084219503, -0.0010488011903862855, 0.0, 0.0, 0.0, 0.0, -0.0010488011903862855, 0.017418540314156995]
---
header: 
  seq: 575
  stamp: 
    secs: 1559284643
    nsecs: 528871088
  frame_id: map
pose: 
  pose: 
    position: 
      x: 11.9929802711
      y: -12.7334789688
      z: 0.0
    orientation: 
      x: 0.0
      y: 0.0
      z: -0.702476014141
      w: 0.711707418506
  covariance: [0.0095789085021527921, 0.0, 0.0, 0.0, 0.0, 0.0, 0.0, 0.0, 0.0, 0.0, 0.0, 0.0, 0.0, 0.0, 0.0, 0.0, 0.0, 0.0, 0.0, 0.0, 0.0, 0.0, 0.0, 0.0, 0.0, 0.0, 0.0, 0.0, 0.0043552386413997259, -0.00047849636776772466, 0.0, 0.0, 0.0, 0.0, -0.00047849636776772466, 0.018139795164276599]
---
header: 
  seq: 576
  stamp: 
    secs: 1559284648
    nsecs: 146199085
  frame_id: map
pose: 
  pose: 
    position: 
      x: 11.945860622
      y: -12.5927684895
      z: 0.0
    orientation: 
      x: 0.0
      y: 0.0
      z: -0.974012386951
      w: 0.226494746222
  covariance: [0.012169309485792538, 0.0, 0.0, 0.0, 0.0, 0.0, 0.0, 0.0, 0.0, 0.0, 0.0, 0.0, 0.0, 0.0, 0.0, 0.0, 0.0, 0.0, 0.0, 0.0, 0.0, 0.0, 0.0, 0.0, 0.0, 0.0, 0.0, 0.0, 0.0074129208597572107, 0.00028401898962762597, 0.0, 0.0, 0.0, 0.0, 0.00028401898962762597, 0.020362450848340777]
---
header: 
  seq: 577
  stamp: 
    secs: 1559284649
    nsecs: 653998638
  frame_id: map
pose: 
  pose: 
    position: 
      x: 11.4811712679
      y: -12.6278416669
      z: 0.0
    orientation: 
      x: 0.0
      y: 0.0
      z: 0.999278835234
      w: 0.0379711660711
  covariance: [0.010118082790271848, 0.0, 0.0, 0.0, 0.0, 0.0, 0.0, 0.0, 0.0, 0.0, 0.0, 0.0, 0.0, 0.0, 0.0, 0.0, 0.0, 0.0, 0.0, 0.0, 0.0, 0.0, 0.0, 0.0, 0.0, 0.0, 0.0, 0.0, 0.0097836377497844094, 0.0016464480558309768, 0.0, 0.0, 0.0, 0.0, 0.0016464480558593985, 0.019649106950919738]
---
header: 
  seq: 578
  stamp: 
    secs: 1559284650
    nsecs: 374975326
  frame_id: map
pose: 
  pose: 
    position: 
      x: 11.0307270251
      y: -12.5512421905
      z: 0.0
    orientation: 
      x: 0.0
      y: 0.0
      z: 0.995207935562
      w: 0.0977812098194
  covariance: [0.0072023116889110292, 0.0, 0.0, 0.0, 0.0, 0.0, 0.0, 0.0, 0.0, 0.0, 0.0, 0.0, 0.0, 0.0, 0.0, 0.0, 0.0, 0.0, 0.0, 0.0, 0.0, 0.0, 0.0, 0.0, 0.0, 0.0, 0.0, 0.0, 0.013432788187023644, 0.0022027905195910837, 0.0, 0.0, 0.0, 0.0, 0.0022027905195910837, 0.019394346329313854]
---
header: 
  seq: 579
  stamp: 
    secs: 1559284650
    nsecs: 981841016
  frame_id: map
pose: 
  pose: 
    position: 
      x: 10.5694094742
      y: -12.4383501069
      z: 0.0
    orientation: 
      x: 0.0
      y: 0.0
      z: 0.995234202806
      w: 0.0975134942768
  covariance: [0.0049058426816443786, 0.0, 0.0, 0.0, 0.0, 0.0, 0.0, 0.0, 0.0, 0.0, 0.0, 0.0, 0.0, 0.0, 0.0, 0.0, 0.0, 0.0, 0.0, 0.0, 0.0, 0.0, 0.0, 0.0, 0.0, 0.0, 0.0, 0.0, 0.015153872924335766, 0.0026497733752370027, 0.0, 0.0, 0.0, 0.0, 0.002649773375208581, 0.018454648033034638]
---
header: 
  seq: 580
  stamp: 
    secs: 1559284651
    nsecs: 548190164
  frame_id: map
pose: 
  pose: 
    position: 
      x: 10.1299839105
      y: -12.3582729711
      z: 0.0
    orientation: 
      x: 0.0
      y: 0.0
      z: 0.998069303333
      w: 0.0621101098466
  covariance: [0.0039452352714001741, 0.0, 0.0, 0.0, 0.0, 0.0, 0.0, 0.0, 0.0, 0.0, 0.0, 0.0, 0.0, 0.0, 0.0, 0.0, 0.0, 0.0, 0.0, 0.0, 0.0, 0.0, 0.0, 0.0, 0.0, 0.0, 0.0, 0.0, 0.015969933711898521, 0.00285218090548296, 0.0, 0.0, 0.0, 0.0, 0.00285218090548296, 0.018589599388485673]
---
header: 
  seq: 581
  stamp: 
    secs: 1559284652
    nsecs: 183965612
  frame_id: map
pose: 
  pose: 
    position: 
      x: 9.63485160355
      y: -12.2726780351
      z: 0.0
    orientation: 
      x: 0.0
      y: 0.0
      z: 0.999983913835
      w: 0.00567204303886
  covariance: [0.0037688358156111332, 0.0, 0.0, 0.0, 0.0, 0.0, 0.0, 0.0, 0.0, 0.0, 0.0, 0.0, 0.0, 0.0, 0.0, 0.0, 0.0, 0.0, 0.0, 0.0, 0.0, 0.0, 0.0, 0.0, 0.0, 0.0, 0.0, 0.0, 0.017573902033067718, 0.003313735528428112, 0.0, 0.0, 0.0, 0.0, 0.003313735528428112, 0.019026000402548468]
---
header: 
  seq: 582
  stamp: 
    secs: 1559284652
    nsecs: 757565031
  frame_id: map
pose: 
  pose: 
    position: 
      x: 9.15807197095
      y: -12.283866258
      z: 0.0
    orientation: 
      x: 0.0
      y: 0.0
      z: -0.999592582531
      w: 0.02854240617
  covariance: [0.0027483413654807733, 0.0, 0.0, 0.0, 0.0, 0.0, 0.0, 0.0, 0.0, 0.0, 0.0, 0.0, 0.0, 0.0, 0.0, 0.0, 0.0, 0.0, 0.0, 0.0, 0.0, 0.0, 0.0, 0.0, 0.0, 0.0, 0.0, 0.0, 0.013353241742073937, 0.0014866440083155935, 0.0, 0.0, 0.0, 0.0, 0.0014866440083155935, 0.018428504561059666]
---
header: 
  seq: 583
  stamp: 
    secs: 1559284653
    nsecs: 373653725
  frame_id: map
pose: 
  pose: 
    position: 
      x: 8.66484194687
      y: -12.3454008482
      z: 0.0
    orientation: 
      x: 0.0
      y: 0.0
      z: -0.997680638718
      w: 0.0680686648042
  covariance: [0.002347266251411123, 0.0, 0.0, 0.0, 0.0, 0.0, 0.0, 0.0, 0.0, 0.0, 0.0, 0.0, 0.0, 0.0, 0.0, 0.0, 0.0, 0.0, 0.0, 0.0, 0.0, 0.0, 0.0, 0.0, 0.0, 0.0, 0.0, 0.0, 0.011506026400176655, 0.00092116196413988131, 0.0, 0.0, 0.0, 0.0, 0.00092116196413988131, 0.016955473326692672]
---
header: 
  seq: 584
  stamp: 
    secs: 1559284653
    nsecs: 980713409
  frame_id: map
pose: 
  pose: 
    position: 
      x: 8.18407449368
      y: -12.4272336781
      z: 0.0
    orientation: 
      x: 0.0
      y: 0.0
      z: -0.995062310009
      w: 0.099252199974
  covariance: [0.002050293016907468, 0.0, 0.0, 0.0, 0.0, 0.0, 0.0, 0.0, 0.0, 0.0, 0.0, 0.0, 0.0, 0.0, 0.0, 0.0, 0.0, 0.0, 0.0, 0.0, 0.0, 0.0, 0.0, 0.0, 0.0, 0.0, 0.0, 0.0, 0.0091446646181236151, 0.00045119867297764864, 0.0, 0.0, 0.0, 0.0, 0.00045119867297764864, 0.016729743590712613]
---
header: 
  seq: 585
  stamp: 
    secs: 1559284654
    nsecs: 560911404
  frame_id: map
pose: 
  pose: 
    position: 
      x: 7.72476639672
      y: -12.5238966764
      z: 0.0
    orientation: 
      x: 0.0
      y: 0.0
      z: -0.99521619043
      w: 0.0976971560844
  covariance: [0.0018656527643293561, 0.0, 0.0, 0.0, 0.0, 0.0, 0.0, 0.0, 0.0, 0.0, 0.0, 0.0, 0.0, 0.0, 0.0, 0.0, 0.0, 0.0, 0.0, 0.0, 0.0, 0.0, 0.0, 0.0, 0.0, 0.0, 0.0, 0.0, 0.0070735724021625049, 6.1402000333668514e-06, 0.0, 0.0, 0.0, 0.0, 6.1402000191559966e-06, 0.015627826617232825]
---
header: 
  seq: 586
  stamp: 
    secs: 1559284655
    nsecs: 175121019
  frame_id: map
pose: 
  pose: 
    position: 
      x: 7.24185503223
      y: -12.6272332329
      z: 0.0
    orientation: 
      x: 0.0
      y: 0.0
      z: -0.994543564742
      w: 0.104322086973
  covariance: [0.0019528048115504527, 0.0, 0.0, 0.0, 0.0, 0.0, 0.0, 0.0, 0.0, 0.0, 0.0, 0.0, 0.0, 0.0, 0.0, 0.0, 0.0, 0.0, 0.0, 0.0, 0.0, 0.0, 0.0, 0.0, 0.0, 0.0, 0.0, 0.0, 0.0068254373913132242, 2.7748770224608779e-05, 0.0, 0.0, 0.0, 0.0, 2.7748770224608779e-05, 0.015080266190005992]
---
header: 
  seq: 587
  stamp: 
    secs: 1559284655
    nsecs: 771669963
  frame_id: map
pose: 
  pose: 
    position: 
      x: 6.78373619305
      y: -12.724963815
      z: 0.0
    orientation: 
      x: 0.0
      y: 0.0
      z: -0.994069364272
      w: 0.108747869022
  covariance: [0.001938244681508461, 0.0, 0.0, 0.0, 0.0, 0.0, 0.0, 0.0, 0.0, 0.0, 0.0, 0.0, 0.0, 0.0, 0.0, 0.0, 0.0, 0.0, 0.0, 0.0, 0.0, 0.0, 0.0, 0.0, 0.0, 0.0, 0.0, 0.0, 0.0061382409708006097, 1.3717562048203022e-05, 0.0, 0.0, 0.0, 0.0, 1.3717562048203022e-05, 0.014011259004903517]
---
header: 
  seq: 588
  stamp: 
    secs: 1559284656
    nsecs: 474644936
  frame_id: map
pose: 
  pose: 
    position: 
      x: 6.33894783727
      y: -12.8241651577
      z: 0.0
    orientation: 
      x: 0.0
      y: 0.0
      z: -0.990209696853
      w: 0.139587808418
  covariance: [0.001764541866334143, 0.0, 0.0, 0.0, 0.0, 0.0, 0.0, 0.0, 0.0, 0.0, 0.0, 0.0, 0.0, 0.0, 0.0, 0.0, 0.0, 0.0, 0.0, 0.0, 0.0, 0.0, 0.0, 0.0, 0.0, 0.0, 0.0, 0.0, 0.0055760606846329856, 0.00017064898572245475, 0.0, 0.0, 0.0, 0.0, 0.00017064898572245475, 0.012652013710212856]
---
header: 
  seq: 589
  stamp: 
    secs: 1559284657
    nsecs: 670519914
  frame_id: map
pose: 
  pose: 
    position: 
      x: 5.90211246039
      y: -12.9597567697
      z: 0.0
    orientation: 
      x: 0.0
      y: 0.0
      z: -0.982943713294
      w: 0.183906651581
  covariance: [0.0017822789990709375, 0.0, 0.0, 0.0, 0.0, 0.0, 0.0, 0.0, 0.0, 0.0, 0.0, 0.0, 0.0, 0.0, 0.0, 0.0, 0.0, 0.0, 0.0, 0.0, 0.0, 0.0, 0.0, 0.0, 0.0, 0.0, 0.0, 0.0, 0.0057397261547964852, 7.9288584993151445e-05, 0.0, 0.0, 0.0, 0.0, 7.9288584993151445e-05, 0.011743662425342295]
---
header: 
  seq: 590
  stamp: 
    secs: 1559284661
    nsecs: 739284332
  frame_id: map
pose: 
  pose: 
    position: 
      x: 5.79849383593
      y: -13.002401847
      z: 0.0
    orientation: 
      x: 0.0
      y: 0.0
      z: 0.933218241979
      w: 0.359310051122
  covariance: [0.0088896291944524763, 0.0, 0.0, 0.0, 0.0, 0.0, 0.0, 0.0, 0.0, 0.0, 0.0, 0.0, 0.0, 0.0, 0.0, 0.0, 0.0, 0.0, 0.0, 0.0, 0.0, 0.0, 0.0, 0.0, 0.0, 0.0, 0.0, 0.0, 0.0070629828341343369, 0.0013009539917686256, 0.0, 0.0, 0.0, 0.0, 0.0013009539917686256, 0.018474107657122346]
---
header: 
  seq: 591
  stamp: 
    secs: 1559284663
    nsecs: 911534214
  frame_id: map
pose: 
  pose: 
    position: 
      x: 5.7323177548
      y: -12.8629848855
      z: 0.0
    orientation: 
      x: 0.0
      y: 0.0
      z: 0.610324831669
      w: 0.792151248088
  covariance: [0.056650016776213306, 0.0, 0.0, 0.0, 0.0, 0.0, 0.0, 0.0, 0.0, 0.0, 0.0, 0.0, 0.0, 0.0, 0.0, 0.0, 0.0, 0.0, 0.0, 0.0, 0.0, 0.0, 0.0, 0.0, 0.0, 0.0, 0.0, 0.0, 2.0359306695683679, 0.55718563124723264, 0.0, 0.0, 0.0, 0.0, 0.55718563124723264, 1.0762627440477637]
---
header: 
  seq: 592
  stamp: 
    secs: 1559284666
    nsecs: 251601407
  frame_id: map
pose: 
  pose: 
    position: 
      x: 5.89080805637
      y: -12.7102775542
      z: 0.0
    orientation: 
      x: 0.0
      y: 0.0
      z: 0.105021073287
      w: 0.994469996614
  covariance: [0.030898767454075837, 0.0, 0.0, 0.0, 0.0, 0.0, 0.0, 0.0, 0.0, 0.0, 0.0, 0.0, 0.0, 0.0, 0.0, 0.0, 0.0, 0.0, 0.0, 0.0, 0.0, 0.0, 0.0, 0.0, 0.0, 0.0, 0.0, 0.0, 1.2836150115969902, 0.37418726446237566, 0.0, 0.0, 0.0, 0.0, 0.37418726446237566, 0.51789925880548915]
---
header: 
  seq: 593
  stamp: 
    secs: 1559284668
    nsecs: 514590314
  frame_id: map
pose: 
  pose: 
    position: 
      x: 6.09148305613
      y: -12.7998518547
      z: 0.0
    orientation: 
      x: 0.0
      y: 0.0
      z: -0.429986530383
      w: 0.902835302638
  covariance: [0.015140839515498288, 0.0, 0.0, 0.0, 0.0, 0.0, 0.0, 0.0, 0.0, 0.0, 0.0, 0.0, 0.0, 0.0, 0.0, 0.0, 0.0, 0.0, 0.0, 0.0, 0.0, 0.0, 0.0, 0.0, 0.0, 0.0, 0.0, 0.0, 0.43435889951033019, 0.040838841565448203, 0.0, 0.0, 0.0, 0.0, 0.040838841565448203, 0.11856199571684191]
---
header: 
  seq: 594
  stamp: 
    secs: 1559284670
    nsecs: 731902124
  frame_id: map
pose: 
  pose: 
    position: 
      x: 6.10662338667
      y: -12.9031194182
      z: 0.0
    orientation: 
      x: 0.0
      y: 0.0
      z: -0.840006100093
      w: 0.542576954733
  covariance: [0.011968726151054423, 0.0, 0.0, 0.0, 0.0, 0.0, 0.0, 0.0, 0.0, 0.0, 0.0, 0.0, 0.0, 0.0, 0.0, 0.0, 0.0, 0.0, 0.0, 0.0, 0.0, 0.0, 0.0, 0.0, 0.0, 0.0, 0.0, 0.0, 0.22151290909329022, 0.016433680887265104, 0.0, 0.0, 0.0, 0.0, 0.016433680887265104, 0.042082031050335839]
---
header: 
  seq: 595
  stamp: 
    secs: 1559284673
    nsecs: 650368049
  frame_id: map
pose: 
  pose: 
    position: 
      x: 6.06221868244
      y: -12.952967047
      z: 0.0
    orientation: 
      x: 0.0
      y: 0.0
      z: -0.99922091022
      w: 0.0394660940564
  covariance: [0.0093083914617935175, 0.0, 0.0, 0.0, 0.0, 0.0, 0.0, 0.0, 0.0, 0.0, 0.0, 0.0, 0.0, 0.0, 0.0, 0.0, 0.0, 0.0, 0.0, 0.0, 0.0, 0.0, 0.0, 0.0, 0.0, 0.0, 0.0, 0.0, 0.069107390079204384, 0.0027403057687999037, 0.0, 0.0, 0.0, 0.0, 0.0027403057687999037, 0.023802209095548043]
---
header: 
  seq: 596
  stamp: 
    secs: 1559284679
    nsecs: 566114690
  frame_id: map
pose: 
  pose: 
    position: 
      x: 6.03486399547
      y: -12.9560842274
      z: 0.0
    orientation: 
      x: 0.0
      y: 0.0
      z: -0.851847546418
      w: 0.523789802937
  covariance: [0.012378562765279301, 0.0, 0.0, 0.0, 0.0, 0.0, 0.0, 0.0, 0.0, 0.0, 0.0, 0.0, 0.0, 0.0, 0.0, 0.0, 0.0, 0.0, 0.0, 0.0, 0.0, 0.0, 0.0, 0.0, 0.0, 0.0, 0.0, 0.0, 0.0080766297771664528, 0.0031131236259573447, 0.0, 0.0, 0.0, 0.0, 0.0031131236259573447, 0.022189054277237746]
---
header: 
  seq: 597
  stamp: 
    secs: 1559284687
    nsecs: 979673853
  frame_id: map
pose: 
  pose: 
    position: 
      x: 5.98203896874
      y: -13.3778696739
      z: 0.0
    orientation: 
      x: 0.0
      y: 0.0
      z: -0.728218052674
      w: 0.685345509768
  covariance: [0.0095899397941225581, 0.0, 0.0, 0.0, 0.0, 0.0, 0.0, 0.0, 0.0, 0.0, 0.0, 0.0, 0.0, 0.0, 0.0, 0.0, 0.0, 0.0, 0.0, 0.0, 0.0, 0.0, 0.0, 0.0, 0.0, 0.0, 0.0, 0.0, 0.0079140569781739802, 0.0023154370764006584, 0.0, 0.0, 0.0, 0.0, 0.0023154370763864476, 0.019986165640825563]
---
header: 
  seq: 598
  stamp: 
    secs: 1559284697
    nsecs: 621236022
  frame_id: map
pose: 
  pose: 
    position: 
      x: 5.97111264837
      y: -13.7835381982
      z: 0.0
    orientation: 
      x: 0.0
      y: 0.0
      z: -0.709247673234
      w: 0.704959387492
  covariance: [0.0085153850995268142, 0.0, 0.0, 0.0, 0.0, 0.0, 0.0, 0.0, 0.0, 0.0, 0.0, 0.0, 0.0, 0.0, 0.0, 0.0, 0.0, 0.0, 0.0, 0.0, 0.0, 0.0, 0.0, 0.0, 0.0, 0.0, 0.0, 0.0, 0.0069376019369463623, 0.0023399434959883282, 0.0, 0.0, 0.0, 0.0, 0.0023399434960025391, 0.019287974315542602]
---
header: 
  seq: 599
  stamp: 
    secs: 1559284715
    nsecs: 467502568
  frame_id: map
pose: 
  pose: 
    position: 
      x: 5.97312541892
      y: -13.3449482227
      z: 0.0
    orientation: 
      x: 0.0
      y: 0.0
      z: -0.699290779824
      w: 0.714837327826
  covariance: [0.0072326245560072663, 0.0, 0.0, 0.0, 0.0, 0.0, 0.0, 0.0, 0.0, 0.0, 0.0, 0.0, 0.0, 0.0, 0.0, 0.0, 0.0, 0.0, 0.0, 0.0, 0.0, 0.0, 0.0, 0.0, 0.0, 0.0, 0.0, 0.0, 0.0062858527048226332, 0.0024311295078130726, 0.0, 0.0, 0.0, 0.0, 0.0024311295078130726, 0.016715923981213354]
---
header: 
  seq: 600
  stamp: 
    secs: 1559284716
    nsecs: 871485507
  frame_id: map
pose: 
  pose: 
    position: 
      x: 5.96136597518
      y: -12.9273330298
      z: 0.0
    orientation: 
      x: 0.0
      y: 0.0
      z: -0.700014064729
      w: 0.714129056391
  covariance: [0.0058090450744952369, 0.0, 0.0, 0.0, 0.0, 0.0, 0.0, 0.0, 0.0, 0.0, 0.0, 0.0, 0.0, 0.0, 0.0, 0.0, 0.0, 0.0, 0.0, 0.0, 0.0, 0.0, 0.0, 0.0, 0.0, 0.0, 0.0, 0.0, 0.0058092315668395742, 0.0025768458299707327, 0.0, 0.0, 0.0, 0.0, 0.0025768458299707327, 0.01759647614247975]
---
header: 
  seq: 601
  stamp: 
    secs: 1559284721
    nsecs: 498246438
  frame_id: map
pose: 
  pose: 
    position: 
      x: 6.15870726605
      y: -13.1477935521
      z: 0.0
    orientation: 
      x: 0.0
      y: 0.0
      z: -0.31663028893
      w: 0.94854902885
  covariance: [0.083270752377948634, 0.0, 0.0, 0.0, 0.0, 0.0, 0.0, 0.0, 0.0, 0.0, 0.0, 0.0, 0.0, 0.0, 0.0, 0.0, 0.0, 0.0, 0.0, 0.0, 0.0, 0.0, 0.0, 0.0, 0.0, 0.0, 0.0, 0.0, 0.092471407832573474, 0.077017377785374236, 0.0, 0.0, 0.0, 0.0, 0.077017377785374236, 0.088888295390730357]
---
header: 
  seq: 602
  stamp: 
    secs: 1559284722
    nsecs: 592025377
  frame_id: map
pose: 
  pose: 
    position: 
      x: 6.58831754547
      y: -13.4327201534
      z: 0.0
    orientation: 
      x: 0.0
      y: 0.0
      z: -0.290444357079
      w: 0.956891882838
  covariance: [0.060314246386089614, 0.0, 0.0, 0.0, 0.0, 0.0, 0.0, 0.0, 0.0, 0.0, 0.0, 0.0, 0.0, 0.0, 0.0, 0.0, 0.0, 0.0, 0.0, 0.0, 0.0, 0.0, 0.0, 0.0, 0.0, 0.0, 0.0, 0.0, 0.071851202952338905, 0.058897558686592341, 0.0, 0.0, 0.0, 0.0, 0.05889755868657813, 0.074777619125242237]
---
header: 
  seq: 603
  stamp: 
    secs: 1559284724
    nsecs: 493598531
  frame_id: map
pose: 
  pose: 
    position: 
      x: 6.97748562707
      y: -13.7643954645
      z: 0.0
    orientation: 
      x: 0.0
      y: 0.0
      z: -0.530903576733
      w: 0.847432234584
  covariance: [0.044389272307404283, 0.0, 0.0, 0.0, 0.0, 0.0, 0.0, 0.0, 0.0, 0.0, 0.0, 0.0, 0.0, 0.0, 0.0, 0.0, 0.0, 0.0, 0.0, 0.0, 0.0, 0.0, 0.0, 0.0, 0.0, 0.0, 0.0, 0.0, 0.050411552623723904, 0.041366801176448031, 0.0, 0.0, 0.0, 0.0, 0.041366801176448031, 0.061219664151050665]
---
header: 
  seq: 604
  stamp: 
    secs: 1559284733
    nsecs: 921805622
  frame_id: map
pose: 
  pose: 
    position: 
      x: 7.04901642924
      y: -14.1840706653
      z: 0.0
    orientation: 
      x: 0.0
      y: 0.0
      z: -0.662986068327
      w: 0.748631734035
  covariance: [0.033725612165151436, 0.0, 0.0, 0.0, 0.0, 0.0, 0.0, 0.0, 0.0, 0.0, 0.0, 0.0, 0.0, 0.0, 0.0, 0.0, 0.0, 0.0, 0.0, 0.0, 0.0, 0.0, 0.0, 0.0, 0.0, 0.0, 0.0, 0.0, 0.03488829252225388, 0.031206952604148082, 0.0, 0.0, 0.0, 0.0, 0.031206952604148082, 0.057209859066272538]
---
header: 
  seq: 605
  stamp: 
    secs: 1559284735
    nsecs: 321857904
  frame_id: map
pose: 
  pose: 
    position: 
      x: 7.12705846852
      y: -14.5835941764
      z: 0.0
    orientation: 
      x: 0.0
      y: 0.0
      z: -0.661165444428
      w: 0.750240131621
  covariance: [0.024212981678252844, 0.0, 0.0, 0.0, 0.0, 0.0, 0.0, 0.0, 0.0, 0.0, 0.0, 0.0, 0.0, 0.0, 0.0, 0.0, 0.0, 0.0, 0.0, 0.0, 0.0, 0.0, 0.0, 0.0, 0.0, 0.0, 0.0, 0.0, 0.018999216873415499, 0.018947091003659239, 0.0, 0.0, 0.0, 0.0, 0.018947091003659239, 0.052679224003726745]
---
header: 
  seq: 606
  stamp: 
    secs: 1559284743
    nsecs: 970513909
  frame_id: map
pose: 
  pose: 
    position: 
      x: 7.11008547734
      y: -14.9846382849
      z: 0.0
    orientation: 
      x: 0.0
      y: 0.0
      z: -0.746420199222
      w: 0.665474932806
  covariance: [0.019052935214255273, 0.0, 0.0, 0.0, 0.0, 0.0, 0.0, 0.0, 0.0, 0.0, 0.0, 0.0, 0.0, 0.0, 0.0, 0.0, 0.0, 0.0, 0.0, 0.0, 0.0, 0.0, 0.0, 0.0, 0.0, 0.0, 0.0, 0.0, 0.010902764396343105, 0.0099894914203384078, 0.0, 0.0, 0.0, 0.0, 0.0099894914203526187, 0.049163767415116501]
---
header: 
  seq: 607
  stamp: 
    secs: 1559286856
    nsecs: 319481151
  frame_id: map
pose: 
  pose: 
    position: 
      x: 7.13762516626
      y: -14.997319226
      z: 0.0
    orientation: 
      x: 0.0
      y: 0.0
      z: -0.712066795644
      w: 0.702111727961
  covariance: [0.016333668686872835, 0.0, 0.0, 0.0, 0.0, 0.0, 0.0, 0.0, 0.0, 0.0, 0.0, 0.0, 0.0, 0.0, 0.0, 0.0, 0.0, 0.0, 0.0, 0.0, 0.0, 0.0, 0.0, 0.0, 0.0, 0.0, 0.0, 0.0, 0.0070490632839465515, 0.0058555563524368155, 0.0, 0.0, 0.0, 0.0, 0.0058555563524226046, 0.038765927441682745]
---
header: 
  seq: 608
  stamp: 
    secs: 1559286857
    nsecs: 710516162
  frame_id: map
pose: 
  pose: 
    position: 
      x: 7.16585254893
      y: -14.5859138967
      z: 0.0
    orientation: 
      x: 0.0
      y: 0.0
      z: -0.711759801162
      w: 0.702422939154
  covariance: [0.014537666758062151, 0.0, 0.0, 0.0, 0.0, 0.0, 0.0, 0.0, 0.0, 0.0, 0.0, 0.0, 0.0, 0.0, 0.0, 0.0, 0.0, 0.0, 0.0, 0.0, 0.0, 0.0, 0.0, 0.0, 0.0, 0.0, 0.0, 0.0, 0.0060844467841398575, 0.0050096074300314247, 0.0, 0.0, 0.0, 0.0, 0.0050096074300314247, 0.026000895903415002]
---
header: 
  seq: 609
  stamp: 
    secs: 1559286859
    nsecs: 109489140
  frame_id: map
pose: 
  pose: 
    position: 
      x: 7.16849231837
      y: -14.1773357592
      z: 0.0
    orientation: 
      x: 0.0
      y: 0.0
      z: -0.710762386652
      w: 0.70343217848
  covariance: [0.013307633953289497, 0.0, 0.0, 0.0, 0.0, 0.0, 0.0, 0.0, 0.0, 0.0, 0.0, 0.0, 0.0, 0.0, 0.0, 0.0, 0.0, 0.0, 0.0, 0.0, 0.0, 0.0, 0.0, 0.0, 0.0, 0.0, 0.0, 0.0, 0.0057077909591707922, 0.0046305983466991048, 0.0, 0.0, 0.0, 0.0, 0.0046305983466991048, 0.023124968339175836]
---
header: 
  seq: 610
  stamp: 
    secs: 1559286860
    nsecs: 499397717
  frame_id: map
pose: 
  pose: 
    position: 
      x: 7.16217636276
      y: -13.7655377145
      z: 0.0
    orientation: 
      x: 0.0
      y: 0.0
      z: -0.708710765831
      w: 0.705499149819
  covariance: [0.010692408258450498, 0.0, 0.0, 0.0, 0.0, 0.0, 0.0, 0.0, 0.0, 0.0, 0.0, 0.0, 0.0, 0.0, 0.0, 0.0, 0.0, 0.0, 0.0, 0.0, 0.0, 0.0, 0.0, 0.0, 0.0, 0.0, 0.0, 0.0, 0.0051377175308252917, 0.0033873381056059508, 0.0, 0.0, 0.0, 0.0, 0.0033873381056201616, 0.021917934851354001]
---
header: 
  seq: 611
  stamp: 
    secs: 1559286864
    nsecs: 783426633
  frame_id: map
pose: 
  pose: 
    position: 
      x: 7.17977943881
      y: -13.3688098332
      z: 0.0
    orientation: 
      x: 0.0
      y: 0.0
      z: -0.875337724518
      w: 0.483512014366
  covariance: [0.011300297909959857, 0.0, 0.0, 0.0, 0.0, 0.0, 0.0, 0.0, 0.0, 0.0, 0.0, 0.0, 0.0, 0.0, 0.0, 0.0, 0.0, 0.0, 0.0, 0.0, 0.0, 0.0, 0.0, 0.0, 0.0, 0.0, 0.0, 0.0, 0.0082012588794989974, 0.0025942901508252156, 0.0, 0.0, 0.0, 0.0, 0.0025942901508110047, 0.024905592101819155]
---
header: 
  seq: 612
  stamp: 
    secs: 1559286866
    nsecs: 913373339
  frame_id: map
pose: 
  pose: 
    position: 
      x: 7.06791272482
      y: -13.3672479275
      z: 0.0
    orientation: 
      x: 0.0
      y: 0.0
      z: 0.999559806217
      w: 0.0296680601796
  covariance: [0.010506850962613027, 0.0, 0.0, 0.0, 0.0, 0.0, 0.0, 0.0, 0.0, 0.0, 0.0, 0.0, 0.0, 0.0, 0.0, 0.0, 0.0, 0.0, 0.0, 0.0, 0.0, 0.0, 0.0, 0.0, 0.0, 0.0, 0.0, 0.0, 0.007968740211000044, 0.0029998355612323837, 0.0, 0.0, 0.0, 0.0, 0.0029998355612323837, 0.024561576248947517]
---
header: 
  seq: 613
  stamp: 
    secs: 1559286868
    nsecs: 210869329
  frame_id: map
pose: 
  pose: 
    position: 
      x: 6.62279373978
      y: -13.2291350191
      z: 0.0
    orientation: 
      x: 0.0
      y: 0.0
      z: 0.975381403306
      w: 0.220524642808
  covariance: [0.0077956811805845218, 0.0, 0.0, 0.0, 0.0, 0.0, 0.0, 0.0, 0.0, 0.0, 0.0, 0.0, 0.0, 0.0, 0.0, 0.0, 0.0, 0.0, 0.0, 0.0, 0.0, 0.0, 0.0, 0.0, 0.0, 0.0, 0.0, 0.0, 0.0088591149132903769, 0.0047685356982176616, 0.0, 0.0, 0.0, 0.0, 0.0047685356982318725, 0.023548864752474748]
---
header: 
  seq: 614
  stamp: 
    secs: 1559286870
    nsecs: 361939130
  frame_id: map
pose: 
  pose: 
    position: 
      x: 6.20841736411
      y: -12.9989867301
      z: 0.0
    orientation: 
      x: 0.0
      y: 0.0
      z: 0.983510548573
      w: 0.180850769546
  covariance: [0.0061730770319156523, 0.0, 0.0, 0.0, 0.0, 0.0, 0.0, 0.0, 0.0, 0.0, 0.0, 0.0, 0.0, 0.0, 0.0, 0.0, 0.0, 0.0, 0.0, 0.0, 0.0, 0.0, 0.0, 0.0, 0.0, 0.0, 0.0, 0.0, 0.01106813396341739, 0.0057975341663549862, 0.0, 0.0, 0.0, 0.0, 0.0057975341663549862, 0.021250159419136643]
---
header: 
  seq: 615
  stamp: 
    secs: 1559286875
    nsecs: 94040399
  frame_id: map
pose: 
  pose: 
    position: 
      x: 6.07479483867
      y: -12.9712112668
      z: 0.0
    orientation: 
      x: 0.0
      y: 0.0
      z: -0.940204388708
      w: 0.340610785876
  covariance: [0.0083419172116504531, 0.0, 0.0, 0.0, 0.0, 0.0, 0.0, 0.0, 0.0, 0.0, 0.0, 0.0, 0.0, 0.0, 0.0, 0.0, 0.0, 0.0, 0.0, 0.0, 0.0, 0.0, 0.0, 0.0, 0.0, 0.0, 0.0, 0.0, 0.0097383037033524494, 0.0047524302576967608, 0.0, 0.0, 0.0, 0.0, 0.0047524302577109717, 0.022920822915151764]
---
header: 
  seq: 616
  stamp: 
    secs: 1559286885
    nsecs: 14960927
  frame_id: map
pose: 
  pose: 
    position: 
      x: 5.9749768768
      y: -13.19508077
      z: 0.0
    orientation: 
      x: 0.0
      y: 0.0
      z: -0.840854970795
      w: 0.54126049005
  covariance: [0.010392175200892854, 0.0, 0.0, 0.0, 0.0, 0.0, 0.0, 0.0, 0.0, 0.0, 0.0, 0.0, 0.0, 0.0, 0.0, 0.0, 0.0, 0.0, 0.0, 0.0, 0.0, 0.0, 0.0, 0.0, 0.0, 0.0, 0.0, 0.0, 0.01005535819394934, 0.0047997899418082864, 0.0, 0.0, 0.0, 0.0, 0.0047997899418224972, 0.021800539174635421]
---
header: 
  seq: 617
  stamp: 
    secs: 1559286893
    nsecs: 378858456
  frame_id: map
pose: 
  pose: 
    position: 
      x: 5.88380703228
      y: -13.6111971578
      z: 0.0
    orientation: 
      x: 0.0
      y: 0.0
      z: -0.744919635435
      w: 0.667154207619
  covariance: [0.0098479369267637368, 0.0, 0.0, 0.0, 0.0, 0.0, 0.0, 0.0, 0.0, 0.0, 0.0, 0.0, 0.0, 0.0, 0.0, 0.0, 0.0, 0.0, 0.0, 0.0, 0.0, 0.0, 0.0, 0.0, 0.0, 0.0, 0.0, 0.0, 0.0096082105802116138, 0.0027610119791701354, 0.0, 0.0, 0.0, 0.0, 0.0027610119791701354, 0.019770326062018565]
---
header: 
  seq: 618
  stamp: 
    secs: 1559286912
    nsecs: 546170087
  frame_id: map
pose: 
  pose: 
    position: 
      x: 5.90785321398
      y: -13.6195670707
      z: 0.0
    orientation: 
      x: 0.0
      y: 0.0
      z: -0.772085913629
      w: 0.635518168092
  covariance: [0.0092275410362485568, 0.0, 0.0, 0.0, 0.0, 0.0, 0.0, 0.0, 0.0, 0.0, 0.0, 0.0, 0.0, 0.0, 0.0, 0.0, 0.0, 0.0, 0.0, 0.0, 0.0, 0.0, 0.0, 0.0, 0.0, 0.0, 0.0, 0.0, 0.0076768209653029834, 0.0019296798873741829, 0.0, 0.0, 0.0, 0.0, 0.0019296798873741829, 0.017235665605038312]
---
header: 
  seq: 619
  stamp: 
    secs: 1559286914
    nsecs: 48794236
  frame_id: map
pose: 
  pose: 
    position: 
      x: 6.03472727891
      y: -13.1821809011
      z: 0.0
    orientation: 
      x: 0.0
      y: 0.0
      z: -0.772041048905
      w: 0.635572669965
  covariance: [0.0090479089624726158, 0.0, 0.0, 0.0, 0.0, 0.0, 0.0, 0.0, 0.0, 0.0, 0.0, 0.0, 0.0, 0.0, 0.0, 0.0, 0.0, 0.0, 0.0, 0.0, 0.0, 0.0, 0.0, 0.0, 0.0, 0.0, 0.0, 0.0, 0.0066387751607507265, 0.0022917233769097034, 0.0, 0.0, 0.0, 0.0, 0.0022917233769097034, 0.017207586494110225]
---
header: 
  seq: 620
  stamp: 
    secs: 1559286917
    nsecs: 941490454
  frame_id: map
pose: 
  pose: 
    position: 
      x: 6.09076719252
      y: -12.8296080869
      z: 0.0
    orientation: 
      x: 0.0
      y: 0.0
      z: -0.902380189699
      w: 0.430940823362
  covariance: [0.011712974442814781, 0.0, 0.0, 0.0, 0.0, 0.0, 0.0, 0.0, 0.0, 0.0, 0.0, 0.0, 0.0, 0.0, 0.0, 0.0, 0.0, 0.0, 0.0, 0.0, 0.0, 0.0, 0.0, 0.0, 0.0, 0.0, 0.0, 0.0, 0.0094065943864082065, 0.0029507894758345793, 0.0, 0.0, 0.0, 0.0, 0.0029507894758345793, 0.020680013386100406]
---
header: 
  seq: 621
  stamp: 
    secs: 1559286920
    nsecs: 123252117
  frame_id: map
pose: 
  pose: 
    position: 
      x: 6.07217191627
      y: -12.8362206183
      z: 0.0
    orientation: 
      x: 0.0
      y: 0.0
      z: 0.995948192355
      w: 0.0899288504602
  covariance: [0.018602949629277651, 0.0, 0.0, 0.0, 0.0, 0.0, 0.0, 0.0, 0.0, 0.0, 0.0, 0.0, 0.0, 0.0, 0.0, 0.0, 0.0, 0.0, 0.0, 0.0, 0.0, 0.0, 0.0, 0.0, 0.0, 0.0, 0.0, 0.0, 0.011761611218821522, 0.0049231205145703963, 0.0, 0.0, 0.0, 0.0, 0.0049231205145703963, 0.024273242147299427]
---
header: 
  seq: 622
  stamp: 
    secs: 1559286922
    nsecs: 419586653
  frame_id: map
pose: 
  pose: 
    position: 
      x: 5.98799261275
      y: -12.7865309843
      z: 0.0
    orientation: 
      x: 0.0
      y: 0.0
      z: 0.813265553267
      w: 0.581892721959
  covariance: [0.019625303331797378, 0.0, 0.0, 0.0, 0.0, 0.0, 0.0, 0.0, 0.0, 0.0, 0.0, 0.0, 0.0, 0.0, 0.0, 0.0, 0.0, 0.0, 0.0, 0.0, 0.0, 0.0, 0.0, 0.0, 0.0, 0.0, 0.0, 0.0, 0.013765038196830594, 0.003878823052627258, 0.0, 0.0, 0.0, 0.0, 0.0038788230526130472, 0.024105577069831973]
---
header: 
  seq: 623
  stamp: 
    secs: 1559286924
    nsecs: 637051629
  frame_id: map
pose: 
  pose: 
    position: 
      x: 6.07609233761
      y: -12.6621898402
      z: 0.0
    orientation: 
      x: 0.0
      y: 0.0
      z: 0.387830698016
      w: 0.921730627503
  covariance: [0.022594939928262895, 0.0, 0.0, 0.0, 0.0, 0.0, 0.0, 0.0, 0.0, 0.0, 0.0, 0.0, 0.0, 0.0, 0.0, 0.0, 0.0, 0.0, 0.0, 0.0, 0.0, 0.0, 0.0, 0.0, 0.0, 0.0, 0.0, 0.0, 0.017808198570749792, 0.0040778774195691118, 0.0, 0.0, 0.0, 0.0, 0.004077877419554901, 0.027788393619742242]
---
header: 
  seq: 624
  stamp: 
    secs: 1559286926
    nsecs: 644262450
  frame_id: map
pose: 
  pose: 
    position: 
      x: 6.49675301016
      y: -12.4803676586
      z: 0.0
    orientation: 
      x: 0.0
      y: 0.0
      z: 0.0238642911826
      w: 0.99971520725
  covariance: [0.019612077817193291, 0.0, 0.0, 0.0, 0.0, 0.0, 0.0, 0.0, 0.0, 0.0, 0.0, 0.0, 0.0, 0.0, 0.0, 0.0, 0.0, 0.0, 0.0, 0.0, 0.0, 0.0, 0.0, 0.0, 0.0, 0.0, 0.0, 0.0, 0.019604397230823599, -0.00022465158014360189, 0.0, 0.0, 0.0, 0.0, -0.00022465158014360189, 0.029241654179030969]
---
header: 
  seq: 625
  stamp: 
    secs: 1559286927
    nsecs: 488558291
  frame_id: map
pose: 
  pose: 
    position: 
      x: 6.91972797119
      y: -12.4245871051
      z: 0.0
    orientation: 
      x: 0.0
      y: 0.0
      z: 0.0149926151102
      w: 0.99988760443
  covariance: [0.011415496404354608, 0.0, 0.0, 0.0, 0.0, 0.0, 0.0, 0.0, 0.0, 0.0, 0.0, 0.0, 0.0, 0.0, 0.0, 0.0, 0.0, 0.0, 0.0, 0.0, 0.0, 0.0, 0.0, 0.0, 0.0, 0.0, 0.0, 0.0, 0.020806150561961969, -0.0024327324732001626, 0.0, 0.0, 0.0, 0.0, -0.0024327324732001626, 0.023298083882332076]
---
header: 
  seq: 626
  stamp: 
    secs: 1559286928
    nsecs: 102223551
  frame_id: map
pose: 
  pose: 
    position: 
      x: 7.36100149936
      y: -12.3810593234
      z: 0.0
    orientation: 
      x: 0.0
      y: 0.0
      z: 0.00657086777267
      w: 0.999978411615
  covariance: [0.0059193325497013775, 0.0, 0.0, 0.0, 0.0, 0.0, 0.0, 0.0, 0.0, 0.0, 0.0, 0.0, 0.0, 0.0, 0.0, 0.0, 0.0, 0.0, 0.0, 0.0, 0.0, 0.0, 0.0, 0.0, 0.0, 0.0, 0.0, 0.0, 0.020699364502841096, -0.0029753825127653922, 0.0, 0.0, 0.0, 0.0, -0.0029753825127511813, 0.017930934158526625]
---
header: 
  seq: 627
  stamp: 
    secs: 1559286928
    nsecs: 745948342
  frame_id: map
pose: 
  pose: 
    position: 
      x: 7.86294471182
      y: -12.3708346855
      z: 0.0
    orientation: 
      x: 0.0
      y: 0.0
      z: -0.0155623832723
      w: 0.999878898781
  covariance: [0.0039179611757292421, 0.0, 0.0, 0.0, 0.0, 0.0, 0.0, 0.0, 0.0, 0.0, 0.0, 0.0, 0.0, 0.0, 0.0, 0.0, 0.0, 0.0, 0.0, 0.0, 0.0, 0.0, 0.0, 0.0, 0.0, 0.0, 0.0, 0.0, 0.020032413730789955, -0.0028476281507042859, 0.0, 0.0, 0.0, 0.0, -0.0028476281507042859, 0.015110839213885955]
---
header: 
  seq: 628
  stamp: 
    secs: 1559286929
    nsecs: 442837924
  frame_id: map
pose: 
  pose: 
    position: 
      x: 8.41224762494
