header: 
  seq: 496
  stamp: 
    secs: 1559649634
    nsecs: 624307929
  frame_id: map
pose: 
  pose: 
    position: 
      x: 7.18552075807
      y: -15.0475409561
      z: 0.0
    orientation: 
      x: 0.0
      y: 0.0
      z: -0.686356678953
      w: 0.72726508871
  covariance: [0.0084783494697983491, 0.0, 0.0, 0.0, 0.0, 0.0, 0.0, 0.0, 0.0, 0.0, 0.0, 0.0, 0.0, 0.0, 0.0, 0.0, 0.0, 0.0, 0.0, 0.0, 0.0, 0.0, 0.0, 0.0, 0.0, 0.0, 0.0, 0.0, 0.00600227601318377, 0.0018830350149559518, 0.0, 0.0, 0.0, 0.0, 0.0018830350149559518, 0.025610478631660397]
---
header: 
  seq: 497
  stamp: 
    secs: 1559651904
    nsecs: 542127171
  frame_id: map
pose: 
  pose: 
    position: 
      x: 7.21627131997
      y: -14.5889696145
      z: 0.0
    orientation: 
      x: 0.0
      y: 0.0
      z: -0.701615751875
      w: 0.712555497291
  covariance: [0.0082141075268505753, 0.0, 0.0, 0.0, 0.0, 0.0, 0.0, 0.0, 0.0, 0.0, 0.0, 0.0, 0.0, 0.0, 0.0, 0.0, 0.0, 0.0, 0.0, 0.0, 0.0, 0.0, 0.0, 0.0, 0.0, 0.0, 0.0, 0.0, 0.0052808414004143515, 0.001546769235786623, 0.0, 0.0, 0.0, 0.0, 0.001546769235786623, 0.015490307622340991]
---
header: 
  seq: 498
  stamp: 
    secs: 1559651906
    nsecs: 54602256
  frame_id: map
pose: 
  pose: 
    position: 
      x: 7.2073442249
      y: -14.1424797639
      z: 0.0
    orientation: 
      x: 0.0
      y: 0.0
      z: -0.696588527696
      w: 0.71747085173
  covariance: [0.0080055424516957581, 0.0, 0.0, 0.0, 0.0, 0.0, 0.0, 0.0, 0.0, 0.0, 0.0, 0.0, 0.0, 0.0, 0.0, 0.0, 0.0, 0.0, 0.0, 0.0, 0.0, 0.0, 0.0, 0.0, 0.0, 0.0, 0.0, 0.0, 0.0049571402271055354, 0.0010615775871258171, 0.0, 0.0, 0.0, 0.0, 0.0010615775871258171, 0.010879537742800174]
---
header: 
  seq: 499
  stamp: 
    secs: 1559651907
    nsecs: 635785744
  frame_id: map
pose: 
  pose: 
    position: 
      x: 7.19276391219
      y: -13.666657738
      z: 0.0
    orientation: 
      x: 0.0
      y: 0.0
      z: -0.693679752869
      w: 0.720283555594
  covariance: [0.007143175853946155, 0.0, 0.0, 0.0, 0.0, 0.0, 0.0, 0.0, 0.0, 0.0, 0.0, 0.0, 0.0, 0.0, 0.0, 0.0, 0.0, 0.0, 0.0, 0.0, 0.0, 0.0, 0.0, 0.0, 0.0, 0.0, 0.0, 0.0, 0.0047201643501557453, 0.00091419003466897098, 0.0, 0.0, 0.0, 0.0, 0.00091419003466897098, 0.010477690665350167]
---
header: 
  seq: 500
  stamp: 
    secs: 1559651911
    nsecs: 821593894
  frame_id: map
pose: 
  pose: 
    position: 
      x: 7.18438598756
      y: -13.3360595904
      z: 0.0
    orientation: 
      x: 0.0
      y: 0.0
      z: -0.867632962898
      w: 0.497205230959
  covariance: [0.0093173337743716177, 0.0, 0.0, 0.0, 0.0, 0.0, 0.0, 0.0, 0.0, 0.0, 0.0, 0.0, 0.0, 0.0, 0.0, 0.0, 0.0, 0.0, 0.0, 0.0, 0.0, 0.0, 0.0, 0.0, 0.0, 0.0, 0.0, 0.0, 0.0074911007785896828, 0.00073182235776573146, 0.0, 0.0, 0.0, 0.0, 0.00073182235776573146, 0.012270679616977575]
---
header: 
  seq: 501
  stamp: 
    secs: 1559651914
    nsecs: 7925845
  frame_id: map
pose: 
  pose: 
    position: 
      x: 7.18951775255
      y: -13.3172384552
      z: 0.0
    orientation: 
      x: 0.0
      y: 0.0
      z: 0.999420455588
      w: 0.0340404605059
  covariance: [0.01039126822573604, 0.0, 0.0, 0.0, 0.0, 0.0, 0.0, 0.0, 0.0, 0.0, 0.0, 0.0, 0.0, 0.0, 0.0, 0.0, 0.0, 0.0, 0.0, 0.0, 0.0, 0.0, 0.0, 0.0, 0.0, 0.0, 0.0, 0.0, 0.0079620521194192252, 0.0019815528939650991, 0.0, 0.0, 0.0, 0.0, 0.0019815528939650991, 0.014311645539744415]
---
header: 
  seq: 502
  stamp: 
    secs: 1559651915
    nsecs: 511563531
  frame_id: map
pose: 
  pose: 
    position: 
      x: 6.80001511193
      y: -13.1145118828
      z: 0.0
    orientation: 
      x: 0.0
      y: 0.0
      z: 0.946530999805
      w: 0.322612873904
  covariance: [0.010172888965895622, 0.0, 0.0, 0.0, 0.0, 0.0, 0.0, 0.0, 0.0, 0.0, 0.0, 0.0, 0.0, 0.0, 0.0, 0.0, 0.0, 0.0, 0.0, 0.0, 0.0, 0.0, 0.0, 0.0, 0.0, 0.0, 0.0, 0.0, 0.009258382978609269, 0.0033897817310405988, 0.0, 0.0, 0.0, 0.0, 0.003389781731026388, 0.01592724366300179]
---
header: 
  seq: 503
  stamp: 
    secs: 1559651916
    nsecs: 393327392
  frame_id: map
pose: 
  pose: 
    position: 
      x: 6.47853899187
      y: -12.7845020269
      z: 0.0
    orientation: 
      x: 0.0
      y: 0.0
      z: 0.925016154002
      w: 0.379927775815
  covariance: [0.0080473526205265562, 0.0, 0.0, 0.0, 0.0, 0.0, 0.0, 0.0, 0.0, 0.0, 0.0, 0.0, 0.0, 0.0, 0.0, 0.0, 0.0, 0.0, 0.0, 0.0, 0.0, 0.0, 0.0, 0.0, 0.0, 0.0, 0.0, 0.0, 0.011904513810454678, 0.0053219629035159101, 0.0, 0.0, 0.0, 0.0, 0.0053219629035159101, 0.017241804219005907]
---
header: 
  seq: 504
  stamp: 
    secs: 1559651918
    nsecs: 330523703
  frame_id: map
pose: 
  pose: 
    position: 
      x: 6.15232421138
      y: -12.4693129471
      z: 0.0
    orientation: 
      x: 0.0
      y: 0.0
      z: 0.988922634269
      w: 0.148431881449
  covariance: [0.0066847416592619733, 0.0, 0.0, 0.0, 0.0, 0.0, 0.0, 0.0, 0.0, 0.0, 0.0, 0.0, 0.0, 0.0, 0.0, 0.0, 0.0, 0.0, 0.0, 0.0, 0.0, 0.0, 0.0, 0.0, 0.0, 0.0, 0.0, 0.0, 0.013566991665611792, 0.0057529325594197081, 0.0, 0.0, 0.0, 0.0, 0.0057529325594197081, 0.017142742261358812]
---
header: 
  seq: 505
  stamp: 
    secs: 1559651919
    nsecs: 700104353
  frame_id: map
pose: 
  pose: 
    position: 
      x: 5.67701339742
      y: -12.4393269117
      z: 0.0
    orientation: 
      x: 0.0
      y: 0.0
      z: -0.997775151023
      w: 0.0666689432961
  covariance: [0.0052184842954252353, 0.0, 0.0, 0.0, 0.0, 0.0, 0.0, 0.0, 0.0, 0.0, 0.0, 0.0, 0.0, 0.0, 0.0, 0.0, 0.0, 0.0, 0.0, 0.0, 0.0, 0.0, 0.0, 0.0, 0.0, 0.0, 0.0, 0.0, 0.014530279578132412, 0.0045874775435823887, 0.0, 0.0, 0.0, 0.0, 0.0045874775435823887, 0.014467893409337464]
---
header: 
  seq: 506
  stamp: 
    secs: 1559651920
    nsecs: 578530069
  frame_id: map
pose: 
  pose: 
    position: 
      x: 5.11724509434
      y: -12.5606312374
      z: 0.0
    orientation: 
      x: 0.0
      y: 0.0
      z: -0.99528900488
      w: 0.096952549037
  covariance: [0.0048106820275515827, 0.0, 0.0, 0.0, 0.0, 0.0, 0.0, 0.0, 0.0, 0.0, 0.0, 0.0, 0.0, 0.0, 0.0, 0.0, 0.0, 0.0, 0.0, 0.0, 0.0, 0.0, 0.0, 0.0, 0.0, 0.0, 0.0, 0.0, 0.016697381210230081, 0.0036097040819377795, 0.0, 0.0, 0.0, 0.0, 0.0036097040819377795, 0.013277870041781447]
---
header: 
  seq: 507
  stamp: 
    secs: 1559651921
    nsecs: 222953447
  frame_id: map
pose: 
  pose: 
    position: 
      x: 4.60779318251
      y: -12.6465627503
      z: 0.0
    orientation: 
      x: 0.0
      y: 0.0
      z: -0.996927863876
      w: 0.0783251825924
  covariance: [0.0044849064781317628, 0.0, 0.0, 0.0, 0.0, 0.0, 0.0, 0.0, 0.0, 0.0, 0.0, 0.0, 0.0, 0.0, 0.0, 0.0, 0.0, 0.0, 0.0, 0.0, 0.0, 0.0, 0.0, 0.0, 0.0, 0.0, 0.0, 0.0, 0.018961490565562081, 0.002347658306706892, 0.0, 0.0, 0.0, 0.0, 0.002347658306706892, 0.012763720003696143]
---
header: 
  seq: 508
  stamp: 
    secs: 1559651921
    nsecs: 878004247
  frame_id: map
pose: 
  pose: 
    position: 
      x: 4.08182405796
      y: -12.6880544973
      z: 0.0
    orientation: 
      x: 0.0
      y: 0.0
      z: -0.999099032519
      w: 0.0424396420799
  covariance: [0.0042412306028217165, 0.0, 0.0, 0.0, 0.0, 0.0, 0.0, 0.0, 0.0, 0.0, 0.0, 0.0, 0.0, 0.0, 0.0, 0.0, 0.0, 0.0, 0.0, 0.0, 0.0, 0.0, 0.0, 0.0, 0.0, 0.0, 0.0, 0.0, 0.019816666727960026, 0.0011068690065404302, 0.0, 0.0, 0.0, 0.0, 0.0011068690065404302, 0.012995338042321959]
---
header: 
  seq: 509
  stamp: 
    secs: 1559651922
    nsecs: 486298514
  frame_id: map
pose: 
  pose: 
    position: 
      x: 3.58627093056
      y: -12.7215960821
      z: 0.0
    orientation: 
      x: 0.0
      y: 0.0
      z: -0.999972098838
      w: 0.00747004319699
  covariance: [0.0040506404325789886, 0.0, 0.0, 0.0, 0.0, 0.0, 0.0, 0.0, 0.0, 0.0, 0.0, 0.0, 0.0, 0.0, 0.0, 0.0, 0.0, 0.0, 0.0, 0.0, 0.0, 0.0, 0.0, 0.0, 0.0, 0.0, 0.0, 0.0, 0.021381309008325924, 0.00033851568443251116, 0.0, 0.0, 0.0, 0.0, 0.00033851568442540573, 0.011601967076769795]
---
header: 
  seq: 510
  stamp: 
    secs: 1559651923
    nsecs: 187759163
  frame_id: map
pose: 
  pose: 
    position: 
      x: 3.04382600555
      y: -12.7702896223
      z: 0.0
    orientation: 
      x: 0.0
      y: 0.0
      z: 0.999972520141
      w: 0.00741343119671
  covariance: [0.004019100874805742, 0.0, 0.0, 0.0, 0.0, 0.0, 0.0, 0.0, 0.0, 0.0, 0.0, 0.0, 0.0, 0.0, 0.0, 0.0, 0.0, 0.0, 0.0, 0.0, 0.0, 0.0, 0.0, 0.0, 0.0, 0.0, 0.0, 0.0, 0.023589519441683235, -0.00011450366123068239, 0.0, 0.0, 0.0, 0.0, -0.00011450366123068239, 0.010933915368676172]
---
header: 
  seq: 511
  stamp: 
    secs: 1559651923
    nsecs: 884159942
  frame_id: map
pose: 
  pose: 
    position: 
      x: 2.46858959315
      y: -12.7522837164
      z: 0.0
    orientation: 
      x: 0.0
      y: 0.0
      z: -0.999978485088
      w: 0.0065596768716
  covariance: [0.003569040488343301, 0.0, 0.0, 0.0, 0.0, 0.0, 0.0, 0.0, 0.0, 0.0, 0.0, 0.0, 0.0, 0.0, 0.0, 0.0, 0.0, 0.0, 0.0, 0.0, 0.0, 0.0, 0.0, 0.0, 0.0, 0.0, 0.0, 0.0, 0.022294405354429159, -0.00039673446722746959, 0.0, 0.0, 0.0, 0.0, -0.00039673446722746959, 0.0095249159860469317]
---
header: 
  seq: 512
  stamp: 
    secs: 1559651924
    nsecs: 608103151
  frame_id: map
pose: 
  pose: 
    position: 
      x: 1.91012599237
      y: -12.7947941255
      z: 0.0
    orientation: 
      x: 0.0
      y: 0.0
      z: -0.999820938162
      w: 0.0189233086943
  covariance: [0.0036034115222163031, 0.0, 0.0, 0.0, 0.0, 0.0, 0.0, 0.0, 0.0, 0.0, 0.0, 0.0, 0.0, 0.0, 0.0, 0.0, 0.0, 0.0, 0.0, 0.0, 0.0, 0.0, 0.0, 0.0, 0.0, 0.0, 0.0, 0.0, 0.020875383831018803, -0.0012105541011950014, 0.0, 0.0, 0.0, 0.0, -0.0012105541011950014, 0.0094015283497461775]
---
header: 
  seq: 513
  stamp: 
    secs: 1559651925
    nsecs: 277302175
  frame_id: map
pose: 
  pose: 
    position: 
      x: 1.3807065541
      y: -12.8130804936
      z: 0.0
    orientation: 
      x: 0.0
      y: 0.0
      z: -0.999947235613
      w: 0.0102725843888
  covariance: [0.0031257602410868922, 0.0, 0.0, 0.0, 0.0, 0.0, 0.0, 0.0, 0.0, 0.0, 0.0, 0.0, 0.0, 0.0, 0.0, 0.0, 0.0, 0.0, 0.0, 0.0, 0.0, 0.0, 0.0, 0.0, 0.0, 0.0, 0.0, 0.0, 0.018708803602656206, -0.0019202359248617722, 0.0, 0.0, 0.0, 0.0, -0.0019202359248617722, 0.0091499475256478068]
---
header: 
  seq: 514
  stamp: 
    secs: 1559651925
    nsecs: 857841996
  frame_id: map
pose: 
  pose: 
    position: 
      x: 0.903603524014
      y: -12.8038701893
      z: 0.0
    orientation: 
      x: 0.0
      y: 0.0
      z: 0.999639246092
      w: 0.0268584748927
  covariance: [0.0027675227355957129, 0.0, 0.0, 0.0, 0.0, 0.0, 0.0, 0.0, 0.0, 0.0, 0.0, 0.0, 0.0, 0.0, 0.0, 0.0, 0.0, 0.0, 0.0, 0.0, 0.0, 0.0, 0.0, 0.0, 0.0, 0.0, 0.0, 0.0, 0.016435311652047931, -0.0015493831680660959, 0.0, 0.0, 0.0, 0.0, -0.0015493831680643195, 0.0086036336942884317]
---
header: 
  seq: 515
  stamp: 
    secs: 1559651926
    nsecs: 600457278
  frame_id: map
pose: 
  pose: 
    position: 
      x: 0.316429934922
      y: -12.7609611018
      z: 0.0
    orientation: 
      x: 0.0
      y: 0.0
      z: 0.99748154877
      w: 0.0709264398047
  covariance: [0.0033460939402184574, 0.0, 0.0, 0.0, 0.0, 0.0, 0.0, 0.0, 0.0, 0.0, 0.0, 0.0, 0.0, 0.0, 0.0, 0.0, 0.0, 0.0, 0.0, 0.0, 0.0, 0.0, 0.0, 0.0, 0.0, 0.0, 0.0, 0.0, 0.014824647461859212, -0.0014676169780079738, 0.0, 0.0, 0.0, 0.0, -0.0014676169780079738, 0.0086086114616953039]
---
header: 
  seq: 516
  stamp: 
    secs: 1559651927
    nsecs: 162919375
  frame_id: map
pose: 
  pose: 
    position: 
      x: -0.0911343500037
      y: -12.6963310075
      z: 0.0
    orientation: 
      x: 0.0
      y: 0.0
      z: 0.994645320217
      w: 0.103347409117
  covariance: [0.0028647509468397148, 0.0, 0.0, 0.0, 0.0, 0.0, 0.0, 0.0, 0.0, 0.0, 0.0, 0.0, 0.0, 0.0, 0.0, 0.0, 0.0, 0.0, 0.0, 0.0, 0.0, 0.0, 0.0, 0.0, 0.0, 0.0, 0.0, 0.0, 0.01106166110632237, -0.00077635172570103734, 0.0, 0.0, 0.0, 0.0, -0.00077635172570103734, 0.0079409687378635095]
---
header: 
  seq: 517
  stamp: 
    secs: 1559651927
    nsecs: 954967626
  frame_id: map
pose: 
  pose: 
    position: 
      x: -0.572918642752
      y: -12.5623623574
      z: 0.0
    orientation: 
      x: 0.0
      y: 0.0
      z: 0.986448695877
      w: 0.164070016771
  covariance: [0.0024824553581268309, 0.0, 0.0, 0.0, 0.0, 0.0, 0.0, 0.0, 0.0, 0.0, 0.0, 0.0, 0.0, 0.0, 0.0, 0.0, 0.0, 0.0, 0.0, 0.0, 0.0, 0.0, 0.0, 0.0, 0.0, 0.0, 0.0, 0.0, 0.0095202945038106827, -0.00077816547733043672, 0.0, 0.0, 0.0, 0.0, -0.00077816547733043672, 0.0078518871234729611]
---
header: 
  seq: 518
  stamp: 
    secs: 1559651929
    nsecs: 373772532
  frame_id: map
pose: 
  pose: 
    position: 
      x: -0.954977305802
      y: -12.3764160782
      z: 0.0
    orientation: 
      x: 0.0
      y: 0.0
      z: 0.954308914382
      w: 0.298821846477
  covariance: [0.0022915591464164535, 0.0, 0.0, 0.0, 0.0, 0.0, 0.0, 0.0, 0.0, 0.0, 0.0, 0.0, 0.0, 0.0, 0.0, 0.0, 0.0, 0.0, 0.0, 0.0, 0.0, 0.0, 0.0, 0.0, 0.0, 0.0, 0.0, 0.0, 0.0092790743157298329, -0.00069399150969606089, 0.0, 0.0, 0.0, 0.0, -0.00069399150969428453, 0.0073598004234570677]
---
header: 
  seq: 519
  stamp: 
    secs: 1559651941
    nsecs: 603693919
  frame_id: map
pose: 
  pose: 
    position: 
      x: -1.145628869
      y: -12.0158041287
      z: 0.0
    orientation: 
      x: 0.0
      y: 0.0
      z: 0.768148924547
      w: 0.640271215749
  covariance: [0.004098052146894229, 0.0, 0.0, 0.0, 0.0, 0.0, 0.0, 0.0, 0.0, 0.0, 0.0, 0.0, 0.0, 0.0, 0.0, 0.0, 0.0, 0.0, 0.0, 0.0, 0.0, 0.0, 0.0, 0.0, 0.0, 0.0, 0.0, 0.0, 0.0089732247858257588, -0.00083881901037363888, 0.0, 0.0, 0.0, 0.0, -0.00083881901037363888, 0.0079491157935182698]
---
header: 
  seq: 520
  stamp: 
    secs: 1559651951
    nsecs: 475137645
  frame_id: map
pose: 
  pose: 
    position: 
      x: -1.15574297407
      y: -11.551014069
      z: 0.0
    orientation: 
      x: 0.0
      y: 0.0
      z: 0.714360287755
      w: 0.699778092883
  covariance: [0.004243301251016865, 0.0, 0.0, 0.0, 0.0, 0.0, 0.0, 0.0, 0.0, 0.0, 0.0, 0.0, 0.0, 0.0, 0.0, 0.0, 0.0, 0.0, 0.0, 0.0, 0.0, 0.0, 0.0, 0.0, 0.0, 0.0, 0.0, 0.0, 0.0065426605497731676, -6.1237877153594506e-05, 0.0, 0.0, 0.0, 0.0, -6.1237877153594506e-05, 0.0085950530488960852]
---
header: 
  seq: 521
  stamp: 
    secs: 1559651968
    nsecs: 848099337
  frame_id: map
pose: 
  pose: 
    position: 
      x: -1.12912840572
      y: -12.0319036196
      z: 0.0
    orientation: 
      x: 0.0
      y: 0.0
      z: 0.718365157397
      w: 0.695666227898
  covariance: [0.004050785233487935, 0.0, 0.0, 0.0, 0.0, 0.0, 0.0, 0.0, 0.0, 0.0, 0.0, 0.0, 0.0, 0.0, 0.0, 0.0, 0.0, 0.0, 0.0, 0.0, 0.0, 0.0, 0.0, 0.0, 0.0, 0.0, 0.0, 0.0, 0.0057709635525061524, -0.00048465552768991516, 0.0, 0.0, 0.0, 0.0, -0.0004846555276881388, 0.0070142580808796231]
---
header: 
  seq: 522
  stamp: 
    secs: 1559651970
    nsecs: 632403257
  frame_id: map
pose: 
  pose: 
    position: 
      x: -1.11951687605
      y: -12.4921383648
      z: 0.0
    orientation: 
      x: 0.0
      y: 0.0
      z: 0.713843360821
      w: 0.7003054021
  covariance: [0.004304966378115364, 0.0, 0.0, 0.0, 0.0, 0.0, 0.0, 0.0, 0.0, 0.0, 0.0, 0.0, 0.0, 0.0, 0.0, 0.0, 0.0, 0.0, 0.0, 0.0, 0.0, 0.0, 0.0, 0.0, 0.0, 0.0, 0.0, 0.0, 0.0050671105513577664, -0.00070461618516309485, 0.0, 0.0, 0.0, 0.0, -0.00070461618516309485, 0.0082196162646253085]
---
header: 
  seq: 523
  stamp: 
    secs: 1559651974
    nsecs: 513400813
  frame_id: map
pose: 
  pose: 
    position: 
      x: -1.06787635104
      y: -12.4427795936
      z: 0.0
    orientation: 
      x: 0.0
      y: 0.0
      z: 0.235497068921
      w: 0.971875059115
  covariance: [0.007452599673488304, 0.0, 0.0, 0.0, 0.0, 0.0, 0.0, 0.0, 0.0, 0.0, 0.0, 0.0, 0.0, 0.0, 0.0, 0.0, 0.0, 0.0, 0.0, 0.0, 0.0, 0.0, 0.0, 0.0, 0.0, 0.0, 0.0, 0.0, 0.0079845425959372933, 0.00016216048355498406, 0.0, 0.0, 0.0, 0.0, 0.00016216048355498406, 0.008376824419774059]
---
header: 
  seq: 524
  stamp: 
    secs: 1559651976
    nsecs: 2925992
  frame_id: map
pose: 
  pose: 
    position: 
      x: -0.554029535791
      y: -12.3814522632
      z: 0.0
    orientation: 
      x: 0.0
      y: 0.0
      z: -0.0244694767919
      w: 0.999700577526
  covariance: [0.0070241780006423176, 0.0, 0.0, 0.0, 0.0, 0.0, 0.0, 0.0, 0.0, 0.0, 0.0, 0.0, 0.0, 0.0, 0.0, 0.0, 0.0, 0.0, 0.0, 0.0, 0.0, 0.0, 0.0, 0.0, 0.0, 0.0, 0.0, 0.0, 0.0091621738117284614, 0.00055215970908670774, 0.0, 0.0, 0.0, 0.0, 0.00055215970908848409, 0.0089574476636604412]
---
header: 
  seq: 525
  stamp: 
    secs: 1559651976
    nsecs: 702641789
  frame_id: map
pose: 
  pose: 
    position: 
      x: -0.111551949568
      y: -12.4498316504
      z: 0.0
    orientation: 
      x: 0.0
      y: 0.0
      z: -0.08589561525
      w: 0.996304141957
  covariance: [0.0058551687254295784, 0.0, 0.0, 0.0, 0.0, 0.0, 0.0, 0.0, 0.0, 0.0, 0.0, 0.0, 0.0, 0.0, 0.0, 0.0, 0.0, 0.0, 0.0, 0.0, 0.0, 0.0, 0.0, 0.0, 0.0, 0.0, 0.0, 0.0, 0.010355885864744493, 0.00085827650140032658, 0.0, 0.0, 0.0, 0.0, 0.00085827650140032658, 0.0090583746325996438]
---
header: 
  seq: 526
  stamp: 
    secs: 1559651977
    nsecs: 304653370
  frame_id: map
pose: 
  pose: 
    position: 
      x: 0.347546876212
      y: -12.557362405
      z: 0.0
    orientation: 
      x: 0.0
      y: 0.0
      z: -0.104802606757
      w: 0.994493043524
  covariance: [0.0047834582336683945, 0.0, 0.0, 0.0, 0.0, 0.0, 0.0, 0.0, 0.0, 0.0, 0.0, 0.0, 0.0, 0.0, 0.0, 0.0, 0.0, 0.0, 0.0, 0.0, 0.0, 0.0, 0.0, 0.0, 0.0, 0.0, 0.0, 0.0, 0.01200911200514842, 0.00071215551528420378, 0.0, 0.0, 0.0, 0.0, 0.00071215551528509195, 0.0086897900569766102]
---
header: 
  seq: 527
  stamp: 
    secs: 1559651977
    nsecs: 906369606
  frame_id: map
pose: 
  pose: 
    position: 
      x: 0.806108007938
      y: -12.6755392714
      z: 0.0
    orientation: 
      x: 0.0
      y: 0.0
      z: -0.0859753803533
      w: 0.996297261852
  covariance: [0.0039749234345689962, 0.0, 0.0, 0.0, 0.0, 0.0, 0.0, 0.0, 0.0, 0.0, 0.0, 0.0, 0.0, 0.0, 0.0, 0.0, 0.0, 0.0, 0.0, 0.0, 0.0, 0.0, 0.0, 0.0, 0.0, 0.0, 0.0, 0.0, 0.013296536211005874, 0.00061165616170760762, 0.0, 0.0, 0.0, 0.0, 0.00061165616170760762, 0.0082680526509031627]
---
header: 
  seq: 528
  stamp: 
    secs: 1559651978
    nsecs: 494859981
  frame_id: map
pose: 
  pose: 
    position: 
      x: 1.26953574334
      y: -12.7525314985
      z: 0.0
    orientation: 
      x: 0.0
      y: 0.0
      z: -0.0577080166966
      w: 0.9983335038
  covariance: [0.0036378416972796257, 0.0, 0.0, 0.0, 0.0, 0.0, 0.0, 0.0, 0.0, 0.0, 0.0, 0.0, 0.0, 0.0, 0.0, 0.0, 0.0, 0.0, 0.0, 0.0, 0.0, 0.0, 0.0, 0.0, 0.0, 0.0, 0.0, 0.0, 0.015574139269225896, 0.00017730773000742807, 0.0, 0.0, 0.0, 0.0, 0.00017730773000742807, 0.0078752839591395268]
---
header: 
  seq: 529
  stamp: 
    secs: 1559651979
    nsecs: 96816557
  frame_id: map
pose: 
  pose: 
    position: 
      x: 1.75026556643
      y: -12.7974240279
      z: 0.0
    orientation: 
      x: 0.0
      y: 0.0
      z: -0.0327897744257
      w: 0.99946227077
  covariance: [0.0033513413087473912, 0.0, 0.0, 0.0, 0.0, 0.0, 0.0, 0.0, 0.0, 0.0, 0.0, 0.0, 0.0, 0.0, 0.0, 0.0, 0.0, 0.0, 0.0, 0.0, 0.0, 0.0, 0.0, 0.0, 0.0, 0.0, 0.0, 0.0, 0.017855061368804114, -0.00064555125703801258, 0.0, 0.0, 0.0, 0.0, -0.00064555125703445986, 0.0074294461653331327]
---
header: 
  seq: 530
  stamp: 
    secs: 1559651979
    nsecs: 691507176
  frame_id: map
pose: 
  pose: 
    position: 
      x: 2.21960909039
      y: -12.8166155946
      z: 0.0
    orientation: 
      x: 0.0
      y: 0.0
      z: 0.0128466647483
      w: 0.999917478197
  covariance: [0.0028156472487873381, 0.0, 0.0, 0.0, 0.0, 0.0, 0.0, 0.0, 0.0, 0.0, 0.0, 0.0, 0.0, 0.0, 0.0, 0.0, 0.0, 0.0, 0.0, 0.0, 0.0, 0.0, 0.0, 0.0, 0.0, 0.0, 0.0, 0.0, 0.017184913612845042, -0.00091275669552598514, 0.0, 0.0, 0.0, 0.0, -0.00091275669552598514, 0.0068124733078953059]
---
header: 
  seq: 531
  stamp: 
    secs: 1559651980
    nsecs: 318332404
  frame_id: map
pose: 
  pose: 
    position: 
      x: 2.70878645714
      y: -12.7901424569
      z: 0.0
    orientation: 
      x: 0.0
      y: 0.0
      z: 0.0437959768547
      w: 0.999040495882
  covariance: [0.0027255627090563535, 0.0, 0.0, 0.0, 0.0, 0.0, 0.0, 0.0, 0.0, 0.0, 0.0, 0.0, 0.0, 0.0, 0.0, 0.0, 0.0, 0.0, 0.0, 0.0, 0.0, 0.0, 0.0, 0.0, 0.0, 0.0, 0.0, 0.0, 0.01757200753858142, -0.0015227653668558683, 0.0, 0.0, 0.0, 0.0, -0.0015227653668558683, 0.0064177681544399807]
---
header: 
  seq: 532
  stamp: 
    secs: 1559651981
    nsecs: 6498400
  frame_id: map
pose: 
  pose: 
    position: 
      x: 3.25321413021
      y: -12.7288956345
      z: 0.0
    orientation: 
      x: 0.0
      y: 0.0
      z: 0.0526992090285
      w: 0.998610431233
  covariance: [0.0025902711959975965, 0.0, 0.0, 0.0, 0.0, 0.0, 0.0, 0.0, 0.0, 0.0, 0.0, 0.0, 0.0, 0.0, 0.0, 0.0, 0.0, 0.0, 0.0, 0.0, 0.0, 0.0, 0.0, 0.0, 0.0, 0.0, 0.0, 0.0, 0.016797200663253933, -0.0018074556632624154, 0.0, 0.0, 0.0, 0.0, -0.0018074556632624154, 0.0063914335375849403]
---
header: 
  seq: 533
  stamp: 
    secs: 1559651981
    nsecs: 701823012
  frame_id: map
pose: 
  pose: 
    position: 
      x: 3.80835411353
      y: -12.6706758486
      z: 0.0
    orientation: 
      x: 0.0
      y: 0.0
      z: 0.0463925340297
      w: 0.998923286737
  covariance: [0.0028539797139390398, 0.0, 0.0, 0.0, 0.0, 0.0, 0.0, 0.0, 0.0, 0.0, 0.0, 0.0, 0.0, 0.0, 0.0, 0.0, 0.0, 0.0, 0.0, 0.0, 0.0, 0.0, 0.0, 0.0, 0.0, 0.0, 0.0, 0.0, 0.018702329462209337, -0.0029546740408149265, 0.0, 0.0, 0.0, 0.0, -0.0029546740408149265, 0.0066451910776419969]
---
header: 
  seq: 534
  stamp: 
    secs: 1559651982
    nsecs: 287501602
  frame_id: map
pose: 
  pose: 
    position: 
      x: 4.28656900053
      y: -12.6232620707
      z: 0.0
    orientation: 
      x: 0.0
      y: 0.0
      z: 0.0412148718723
      w: 0.999150306178
  covariance: [0.0025187131917903905, 0.0, 0.0, 0.0, 0.0, 0.0, 0.0, 0.0, 0.0, 0.0, 0.0, 0.0, 0.0, 0.0, 0.0, 0.0, 0.0, 0.0, 0.0, 0.0, 0.0, 0.0, 0.0, 0.0, 0.0, 0.0, 0.0, 0.0, 0.017563605745729165, -0.0035135722679598557, 0.0, 0.0, 0.0, 0.0, -0.0035135722679598557, 0.0064307961199202802]
---
header: 
  seq: 535
  stamp: 
    secs: 1559651982
    nsecs: 882099213
  frame_id: map
pose: 
  pose: 
    position: 
      x: 4.74706347657
      y: -12.5821703528
      z: 0.0
    orientation: 
      x: 0.0
      y: 0.0
      z: 0.0508864312432
      w: 0.998704446328
  covariance: [0.0022155651249884229, 0.0, 0.0, 0.0, 0.0, 0.0, 0.0, 0.0, 0.0, 0.0, 0.0, 0.0, 0.0, 0.0, 0.0, 0.0, 0.0, 0.0, 0.0, 0.0, 0.0, 0.0, 0.0, 0.0, 0.0, 0.0, 0.0, 0.0, 0.016692948475108715, -0.003411467468544269, 0.0, 0.0, 0.0, 0.0, -0.0034114674685371636, 0.0062570268990457863]
---
header: 
  seq: 536
  stamp: 
    secs: 1559651983
    nsecs: 486954895
  frame_id: map
pose: 
  pose: 
    position: 
      x: 5.22864793223
      y: -12.5329482106
      z: 0.0
    orientation: 
      x: 0.0
      y: 0.0
      z: 0.0301649036577
      w: 0.999544935752
  covariance: [0.0022258196023836234, 0.0, 0.0, 0.0, 0.0, 0.0, 0.0, 0.0, 0.0, 0.0, 0.0, 0.0, 0.0, 0.0, 0.0, 0.0, 0.0, 0.0, 0.0, 0.0, 0.0, 0.0, 0.0, 0.0, 0.0, 0.0, 0.0, 0.0, 0.016728018699118292, -0.0032409739777831976, 0.0, 0.0, 0.0, 0.0, -0.0032409739777831976, 0.0060524344109655417]
---
header: 
  seq: 537
  stamp: 
    secs: 1559651984
    nsecs: 78874397
  frame_id: map
pose: 
  pose: 
    position: 
      x: 5.70251735138
      y: -12.5132889305
      z: 0.0
    orientation: 
      x: 0.0
      y: 0.0
      z: 0.032638475981
      w: 0.999467223017
  covariance: [0.0020020207278712756, 0.0, 0.0, 0.0, 0.0, 0.0, 0.0, 0.0, 0.0, 0.0, 0.0, 0.0, 0.0, 0.0, 0.0, 0.0, 0.0, 0.0, 0.0, 0.0, 0.0, 0.0, 0.0, 0.0, 0.0, 0.0, 0.0, 0.0, 0.014439942352059729, -0.0026837911210913345, 0.0, 0.0, 0.0, 0.0, -0.0026837911210913345, 0.0059129512258603249]
---
header: 
  seq: 538
  stamp: 
    secs: 1559651984
    nsecs: 680754626
  frame_id: map
pose: 
  pose: 
    position: 
      x: 6.18658997277
      y: -12.4765914034
      z: 0.0
    orientation: 
      x: 0.0
      y: 0.0
      z: 0.0256307797518
      w: 0.999671477601
  covariance: [0.0017773898609398651, 0.0, 0.0, 0.0, 0.0, 0.0, 0.0, 0.0, 0.0, 0.0, 0.0, 0.0, 0.0, 0.0, 0.0, 0.0, 0.0, 0.0, 0.0, 0.0, 0.0, 0.0, 0.0, 0.0, 0.0, 0.0, 0.0, 0.0, 0.01226371033921308, -0.0020389507979537325, 0.0, 0.0, 0.0, 0.0, -0.0020389507979537325, 0.0058026008518293464]
---
header: 
  seq: 539
  stamp: 
    secs: 1559651985
    nsecs: 275159891
  frame_id: map
pose: 
  pose: 
    position: 
      x: 6.6560892578
      y: -12.4642994687
      z: 0.0
    orientation: 
      x: 0.0
      y: 0.0
      z: -0.00277534487535
      w: 0.999996148723
  covariance: [0.0016189857822108912, 0.0, 0.0, 0.0, 0.0, 0.0, 0.0, 0.0, 0.0, 0.0, 0.0, 0.0, 0.0, 0.0, 0.0, 0.0, 0.0, 0.0, 0.0, 0.0, 0.0, 0.0, 0.0, 0.0, 0.0, 0.0, 0.0, 0.0, 0.010424973373819165, -0.001609006066190184, 0.0, 0.0, 0.0, 0.0, -0.0016090060662043949, 0.0057659171090424129]
---
header: 
  seq: 540
  stamp: 
    secs: 1559651985
    nsecs: 983911694
  frame_id: map
pose: 
  pose: 
    position: 
      x: 7.21410307147
      y: -12.4679302121
      z: 0.0
    orientation: 
      x: 0.0
      y: 0.0
      z: 0.000510032129188
      w: 0.999999869934
  covariance: [0.0019947771958014871, 0.0, 0.0, 0.0, 0.0, 0.0, 0.0, 0.0, 0.0, 0.0, 0.0, 0.0, 0.0, 0.0, 0.0, 0.0, 0.0, 0.0, 0.0, 0.0, 0.0, 0.0, 0.0, 0.0, 0.0, 0.0, 0.0, 0.0, 0.010322379879077356, -0.0013086665913153873, 0.0, 0.0, 0.0, 0.0, -0.0013086665913153873, 0.0059982278359061517]
---
header: 
  seq: 541
  stamp: 
    secs: 1559651986
    nsecs: 592123171
  frame_id: map
pose: 
  pose: 
    position: 
      x: 7.70750472303
      y: -12.4734983324
      z: 0.0
    orientation: 
      x: 0.0
      y: 0.0
      z: -0.0043298533823
      w: 0.999990626141
  covariance: [0.001759120880092474, 0.0, 0.0, 0.0, 0.0, 0.0, 0.0, 0.0, 0.0, 0.0, 0.0, 0.0, 0.0, 0.0, 0.0, 0.0, 0.0, 0.0, 0.0, 0.0, 0.0, 0.0, 0.0, 0.0, 0.0, 0.0, 0.0, 0.0, 0.0092464438407642759, -0.0011845483282336053, 0.0, 0.0, 0.0, 0.0, -0.0011845483282336053, 0.0057588327653786704]
---
header: 
  seq: 542
  stamp: 
    secs: 1559651987
    nsecs: 194569418
  frame_id: map
pose: 
  pose: 
    position: 
      x: 8.19030962335
      y: -12.4772784407
      z: 0.0
    orientation: 
      x: 0.0
      y: 0.0
      z: 0.0168286199562
      w: 0.999858388748
  covariance: [0.0018115060361169341, 0.0, 0.0, 0.0, 0.0, 0.0, 0.0, 0.0, 0.0, 0.0, 0.0, 0.0, 0.0, 0.0, 0.0, 0.0, 0.0, 0.0, 0.0, 0.0, 0.0, 0.0, 0.0, 0.0, 0.0, 0.0, 0.0, 0.0, 0.0098197958335686647, -0.0011355209406325921, 0.0, 0.0, 0.0, 0.0, -0.0011355209406325921, 0.0057521079715964762]
---
header: 
  seq: 543
  stamp: 
    secs: 1559651987
    nsecs: 889167988
  frame_id: map
pose: 
  pose: 
    position: 
      x: 8.73639897467
      y: -12.4536558149
      z: 0.0
    orientation: 
      x: 0.0
      y: 0.0
      z: 0.0409633746275
      w: 0.999160648714
  covariance: [0.002021074324107525, 0.0, 0.0, 0.0, 0.0, 0.0, 0.0, 0.0, 0.0, 0.0, 0.0, 0.0, 0.0, 0.0, 0.0, 0.0, 0.0, 0.0, 0.0, 0.0, 0.0, 0.0, 0.0, 0.0, 0.0, 0.0, 0.0, 0.0, 0.0096270330215388663, -0.0011809720940078041, 0.0, 0.0, 0.0, 0.0, -0.0011809720939935933, 0.006216128832709787]
---
header: 
  seq: 544
  stamp: 
    secs: 1559651988
    nsecs: 658289515
  frame_id: map
pose: 
  pose: 
    position: 
      x: 9.32476283139
      y: -12.4099600678
      z: 0.0
    orientation: 
      x: 0.0
      y: 0.0
      z: 0.0338326421698
      w: 0.999427512291
  covariance: [0.0020802223005674651, 0.0, 0.0, 0.0, 0.0, 0.0, 0.0, 0.0, 0.0, 0.0, 0.0, 0.0, 0.0, 0.0, 0.0, 0.0, 0.0, 0.0, 0.0, 0.0, 0.0, 0.0, 0.0, 0.0, 0.0, 0.0, 0.0, 0.0, 0.009288830265130648, -0.0010281953444740836, 0.0, 0.0, 0.0, 0.0, -0.0010281953444740836, 0.0064639099125499153]
---
header: 
  seq: 545
  stamp: 
    secs: 1559651989
    nsecs: 277316083
  frame_id: map
pose: 
  pose: 
    position: 
      x: 9.82510234914
      y: -12.3754198965
      z: 0.0
    orientation: 
      x: 0.0
      y: 0.0
      z: 0.0360462027405
      w: 0.999350124465
  covariance: [0.001899189953270547, 0.0, 0.0, 0.0, 0.0, 0.0, 0.0, 0.0, 0.0, 0.0, 0.0, 0.0, 0.0, 0.0, 0.0, 0.0, 0.0, 0.0, 0.0, 0.0, 0.0, 0.0, 0.0, 0.0, 0.0, 0.0, 0.0, 0.0, 0.0093357933396259283, -0.0011152965780067516, 0.0, 0.0, 0.0, 0.0, -0.0011152965779925408, 0.0064048194100754701]
---
header: 
  seq: 546
  stamp: 
    secs: 1559651990
    nsecs: 81787009
  frame_id: map
pose: 
  pose: 
    position: 
      x: 10.4738441512
      y: -12.3279169572
      z: 0.0
    orientation: 
      x: 0.0
      y: 0.0
      z: 0.0423879940629
      w: 0.999101225081
  covariance: [0.0025704127069132621, 0.0, 0.0, 0.0, 0.0, 0.0, 0.0, 0.0, 0.0, 0.0, 0.0, 0.0, 0.0, 0.0, 0.0, 0.0, 0.0, 0.0, 0.0, 0.0, 0.0, 0.0, 0.0, 0.0, 0.0, 0.0, 0.0, 0.0, 0.0087354688476005624, -0.0010942984149526474, 0.0, 0.0, 0.0, 0.0, -0.0010942984149810691, 0.0069925295651343507]
---
header: 
  seq: 547
  stamp: 
    secs: 1559651990
    nsecs: 783416852
  frame_id: map
pose: 
  pose: 
    position: 
      x: 11.0292640257
      y: -12.2815341157
      z: 0.0
    orientation: 
      x: 0.0
      y: 0.0
      z: 0.041089201046
      w: 0.999155482174
  covariance: [0.0025410972698517447, 0.0, 0.0, 0.0, 0.0, 0.0, 0.0, 0.0, 0.0, 0.0, 0.0, 0.0, 0.0, 0.0, 0.0, 0.0, 0.0, 0.0, 0.0, 0.0, 0.0, 0.0, 0.0, 0.0, 0.0, 0.0, 0.0, 0.0, 0.0086662843815732762, -0.0010606884837115564, 0.0, 0.0, 0.0, 0.0, -0.0010606884837115564, 0.0070492066280137388]
---
header: 
  seq: 548
  stamp: 
    secs: 1559651991
    nsecs: 475632987
  frame_id: map
pose: 
  pose: 
    position: 
      x: 11.5740744141
      y: -12.2410224044
      z: 0.0
    orientation: 
      x: 0.0
      y: 0.0
      z: 0.0143241025528
      w: 0.99989740478
  covariance: [0.0026468772796507814, 0.0, 0.0, 0.0, 0.0, 0.0, 0.0, 0.0, 0.0, 0.0, 0.0, 0.0, 0.0, 0.0, 0.0, 0.0, 0.0, 0.0, 0.0, 0.0, 0.0, 0.0, 0.0, 0.0, 0.0, 0.0, 0.0, 0.0, 0.0079611822442442002, -0.00065514624247257533, 0.0, 0.0, 0.0, 0.0, -0.00065514624247257533, 0.0071016747234341543]
---
header: 
  seq: 549
  stamp: 
    secs: 1559651992
    nsecs: 82133053
  frame_id: map
pose: 
  pose: 
    position: 
      x: 12.0549350531
      y: -12.2361868844
      z: 0.0
    orientation: 
      x: 0.0
      y: 0.0
      z: -0.022914513254
      w: 0.999737428069
  covariance: [0.0023302793478926871, 0.0, 0.0, 0.0, 0.0, 0.0, 0.0, 0.0, 0.0, 0.0, 0.0, 0.0, 0.0, 0.0, 0.0, 0.0, 0.0, 0.0, 0.0, 0.0, 0.0, 0.0, 0.0, 0.0, 0.0, 0.0, 0.0, 0.0, 0.0074764411845157901, -0.00044302869552697145, 0.0, 0.0, 0.0, 0.0, -0.00044302869552697145, 0.0070217497535153906]
---
header: 
  seq: 550
  stamp: 
    secs: 1559651992
    nsecs: 776391600
  frame_id: map
pose: 
  pose: 
    position: 
      x: 12.6102765652
      y: -12.2726002271
      z: 0.0
    orientation: 
      x: 0.0
      y: 0.0
      z: -0.0643201972412
      w: 0.99792931224
  covariance: [0.0026375976860976147, 0.0, 0.0, 0.0, 0.0, 0.0, 0.0, 0.0, 0.0, 0.0, 0.0, 0.0, 0.0, 0.0, 0.0, 0.0, 0.0, 0.0, 0.0, 0.0, 0.0, 0.0, 0.0, 0.0, 0.0, 0.0, 0.0, 0.0, 0.0078065038728524711, -0.00026503249399463806, 0.0, 0.0, 0.0, 0.0, -0.00026503249396621635, 0.0069475267457282689]
---
header: 
  seq: 551
  stamp: 
    secs: 1559651993
    nsecs: 371857559
  frame_id: map
pose: 
  pose: 
    position: 
      x: 13.0450125191
      y: -12.335430541
      z: 0.0
    orientation: 
      x: 0.0
      y: 0.0
      z: -0.0928625822706
      w: 0.995678934604
  covariance: [0.0025780460058029355, 0.0, 0.0, 0.0, 0.0, 0.0, 0.0, 0.0, 0.0, 0.0, 0.0, 0.0, 0.0, 0.0, 0.0, 0.0, 0.0, 0.0, 0.0, 0.0, 0.0, 0.0, 0.0, 0.0, 0.0, 0.0, 0.0, 0.0, 0.0075661918306655866, -0.00036179406954554025, 0.0, 0.0, 0.0, 0.0, -0.00036179406954554025, 0.0070798621698025229]
---
header: 
  seq: 552
  stamp: 
    secs: 1559651994
    nsecs: 259639780
  frame_id: map
pose: 
  pose: 
    position: 
      x: 13.5589299588
      y: -12.4599274829
      z: 0.0
    orientation: 
      x: 0.0
      y: 0.0
      z: -0.160137688656
      w: 0.987094686781
  covariance: [0.0029909783687084722, 0.0, 0.0, 0.0, 0.0, 0.0, 0.0, 0.0, 0.0, 0.0, 0.0, 0.0, 0.0, 0.0, 0.0, 0.0, 0.0, 0.0, 0.0, 0.0, 0.0, 0.0, 0.0, 0.0, 0.0, 0.0, 0.0, 0.0, 0.0081084153960904338, -0.00025442378978653959, 0.0, 0.0, 0.0, 0.0, -0.00025442378972969618, 0.0070952436305847114]
---
header: 
  seq: 553
  stamp: 
    secs: 1559651996
    nsecs: 43503212
  frame_id: map
pose: 
  pose: 
    position: 
      x: 13.9486871017
      y: -12.645452422
      z: 0.0
    orientation: 
      x: 0.0
      y: 0.0
      z: -0.321614179801
      w: 0.946870803938
  covariance: [0.0029817551918015278, 0.0, 0.0, 0.0, 0.0, 0.0, 0.0, 0.0, 0.0, 0.0, 0.0, 0.0, 0.0, 0.0, 0.0, 0.0, 0.0, 0.0, 0.0, 0.0, 0.0, 0.0, 0.0, 0.0, 0.0, 0.0, 0.0, 0.0, 0.0073654930895901815, 8.6255988353767853e-05, 0.0, 0.0, 0.0, 0.0, 8.6255988353767853e-05, 0.0072223019024684641]
---
header: 
  seq: 554
  stamp: 
    secs: 1559652010
    nsecs: 487219167
  frame_id: map
pose: 
  pose: 
    position: 
      x: 14.0936348663
      y: -12.995622489
      z: 0.0
    orientation: 
      x: 0.0
      y: 0.0
      z: -0.639120728057
      w: 0.769106426295
  covariance: [0.0052958483741575649, 0.0, 0.0, 0.0, 0.0, 0.0, 0.0, 0.0, 0.0, 0.0, 0.0, 0.0, 0.0, 0.0, 0.0, 0.0, 0.0, 0.0, 0.0, 0.0, 0.0, 0.0, 0.0, 0.0, 0.0, 0.0, 0.0, 0.0, 0.0075919019308127791, -5.1142615181884172e-05, 0.0, 0.0, 0.0, 0.0, -5.1142615181884172e-05, 0.0087495367189844003]
---
header: 
  seq: 555
  stamp: 
    secs: 1559652019
    nsecs: 640821406
  frame_id: map
pose: 
  pose: 
    position: 
      x: 14.11384969
      y: -13.4742506479
      z: 0.0
    orientation: 
      x: 0.0
      y: 0.0
      z: -0.727897879593
      w: 0.685685552483
  covariance: [0.005618012746373296, 0.0, 0.0, 0.0, 0.0, 0.0, 0.0, 0.0, 0.0, 0.0, 0.0, 0.0, 0.0, 0.0, 0.0, 0.0, 0.0, 0.0, 0.0, 0.0, 0.0, 0.0, 0.0, 0.0, 0.0, 0.0, 0.0, 0.0, 0.0057912059035007315, 0.0011971352898245157, 0.0, 0.0, 0.0, 0.0, 0.0011971352898245157, 0.011193302898916244]
---
header: 
  seq: 556
  stamp: 
    secs: 1559652037
    nsecs: 437087599
  frame_id: map
pose: 
  pose: 
    position: 
      x: 14.1118074743
      y: -12.99947927
      z: 0.0
    orientation: 
      x: 0.0
      y: 0.0
      z: -0.705220423007
      w: 0.708988120475
  covariance: [0.005546591232259597, 0.0, 0.0, 0.0, 0.0, 0.0, 0.0, 0.0, 0.0, 0.0, 0.0, 0.0, 0.0, 0.0, 0.0, 0.0, 0.0, 0.0, 0.0, 0.0, 0.0, 0.0, 0.0, 0.0, 0.0, 0.0, 0.0, 0.0, 0.0051401642035062518, -0.00012327634173691572, 0.0, 0.0, 0.0, 0.0, -0.00012327634176533743, 0.0080411779198786542]
---
header: 
  seq: 557
  stamp: 
    secs: 1559652041
    nsecs: 724965462
  frame_id: map
pose: 
  pose: 
    position: 
      x: 14.120738549
      y: -12.56371511
      z: 0.0
    orientation: 
      x: 0.0
      y: 0.0
      z: -0.873817160653
      w: 0.486254634681
  covariance: [0.0093511840114157488, 0.0, 0.0, 0.0, 0.0, 0.0, 0.0, 0.0, 0.0, 0.0, 0.0, 0.0, 0.0, 0.0, 0.0, 0.0, 0.0, 0.0, 0.0, 0.0, 0.0, 0.0, 0.0, 0.0, 0.0, 0.0, 0.0, 0.0, 0.0078871874662245732, -0.0012211040265114822, 0.0, 0.0, 0.0, 0.0, -0.0012211040265114822, 0.0077196792724499655]
---
header: 
  seq: 558
  stamp: 
    secs: 1559652053
    nsecs: 671522174
  frame_id: map
pose: 
  pose: 
    position: 
      x: 13.676972916
      y: -12.7611638375
      z: 0.0
    orientation: 
      x: 0.0
      y: 0.0
      z: -0.99758056315
      w: 0.0695199253876
  covariance: [0.0084983783111698043, 0.0, 0.0, 0.0, 0.0, 0.0, 0.0, 0.0, 0.0, 0.0, 0.0, 0.0, 0.0, 0.0, 0.0, 0.0, 0.0, 0.0, 0.0, 0.0, 0.0, 0.0, 0.0, 0.0, 0.0, 0.0, 0.0, 0.0, 0.0069454889280199357, 0.00020921320534915584, 0.0, 0.0, 0.0, 0.0, 0.00020921320532073413, 0.0095993874163359683]
---
header: 
  seq: 559
  stamp: 
    secs: 1559652058
    nsecs: 155136894
  frame_id: map
pose: 
  pose: 
    position: 
      x: 13.6287978853
      y: -12.7759879707
      z: 0.0
    orientation: 
      x: 0.0
      y: 0.0
      z: -0.823356460254
      w: 0.567524571589
  covariance: [0.01220438454582486, 0.0, 0.0, 0.0, 0.0, 0.0, 0.0, 0.0, 0.0, 0.0, 0.0, 0.0, 0.0, 0.0, 0.0, 0.0, 0.0, 0.0, 0.0, 0.0, 0.0, 0.0, 0.0, 0.0, 0.0, 0.0, 0.0, 0.0, 0.0063340467784328315, 0.0016215714146485471, 0.0, 0.0, 0.0, 0.0, 0.0016215714146485471, 0.013387481765696044]
---
header: 
  seq: 560
  stamp: 
    secs: 1559652068
    nsecs: 221598528
  frame_id: map
pose: 
  pose: 
    position: 
      x: 13.6292186967
      y: -12.7557686578
      z: 0.0
    orientation: 
      x: 0.0
      y: 0.0
      z: -0.825156108145
      w: 0.56490476825
  covariance: [0.011426671469236585, 0.0, 0.0, 0.0, 0.0, 0.0, 0.0, 0.0, 0.0, 0.0, 0.0, 0.0, 0.0, 0.0, 0.0, 0.0, 0.0, 0.0, 0.0, 0.0, 0.0, 0.0, 0.0, 0.0, 0.0, 0.0, 0.0, 0.0, 0.0068824489418723659, 0.0011891222719177053, 0.0, 0.0, 0.0, 0.0, 0.0011891222719177053, 0.012919030969711736]
---
header: 
  seq: 561
  stamp: 
    secs: 1559652075
    nsecs: 188582327
  frame_id: map
pose: 
  pose: 
    position: 
      x: 13.4803271156
      y: -13.1567373137
      z: 0.0
    orientation: 
      x: 0.0
      y: 0.0
      z: -0.690969925537
      w: 0.72288350514
  covariance: [0.011184384509363474, 0.0, 0.0, 0.0, 0.0, 0.0, 0.0, 0.0, 0.0, 0.0, 0.0, 0.0, 0.0, 0.0, 0.0, 0.0, 0.0, 0.0, 0.0, 0.0, 0.0, 0.0, 0.0, 0.0, 0.0, 0.0, 0.0, 0.0, 0.0064690361194171117, 0.00087933536600204548, 0.0, 0.0, 0.0, 0.0, 0.00087933536603046719, 0.014684688127731138]
---
header: 
  seq: 562
  stamp: 
    secs: 1559652081
    nsecs: 768474394
  frame_id: map
pose: 
  pose: 
    position: 
      x: 13.4916958469
      y: -13.617671289
      z: 0.0
    orientation: 
      x: 0.0
      y: 0.0
      z: -0.709649208819
      w: 0.704555179119
  covariance: [0.010994087819660554, 0.0, 0.0, 0.0, 0.0, 0.0, 0.0, 0.0, 0.0, 0.0, 0.0, 0.0, 0.0, 0.0, 0.0, 0.0, 0.0, 0.0, 0.0, 0.0, 0.0, 0.0, 0.0, 0.0, 0.0, 0.0, 0.0, 0.0, 0.0052417959959182477, 0.00060890433572586557, 0.0, 0.0, 0.0, 0.0, 0.00060890433572586557, 0.020469658268977231]
---
header: 
  seq: 563
  stamp: 
    secs: 1559652097
    nsecs: 656491238
  frame_id: map
pose: 
  pose: 
    position: 
      x: 13.5035000641
      y: -13.1757935611
      z: 0.0
    orientation: 
      x: 0.0
      y: 0.0
      z: -0.716227052525
      w: 0.697867329248
  covariance: [0.0099902036454507601, 0.0, 0.0, 0.0, 0.0, 0.0, 0.0, 0.0, 0.0, 0.0, 0.0, 0.0, 0.0, 0.0, 0.0, 0.0, 0.0, 0.0, 0.0, 0.0, 0.0, 0.0, 0.0, 0.0, 0.0, 0.0, 0.0, 0.0, 0.0044650339848806512, 0.00058431941114564197, 0.0, 0.0, 0.0, 0.0, 0.00058431941114564197, 0.013693162341546753]
---
header: 
  seq: 564
  stamp: 
    secs: 1559652099
    nsecs: 247308195
  frame_id: map
pose: 
  pose: 
    position: 
      x: 13.5098511463
      y: -12.7095700638
      z: 0.0
    orientation: 
      x: 0.0
      y: 0.0
      z: -0.71072005787
      w: 0.703474945781
  covariance: [0.0085092868054094488, 0.0, 0.0, 0.0, 0.0, 0.0, 0.0, 0.0, 0.0, 0.0, 0.0, 0.0, 0.0, 0.0, 0.0, 0.0, 0.0, 0.0, 0.0, 0.0, 0.0, 0.0, 0.0, 0.0, 0.0, 0.0, 0.0, 0.0, 0.0040090992983632711, 0.00076764853328877523, 0.0, 0.0, 0.0, 0.0, 0.00076764853328877523, 0.01264114814198322]
---
header: 
  seq: 565
  stamp: 
    secs: 1559652104
    nsecs: 243236483
  frame_id: map
pose: 
  pose: 
    position: 
      x: 13.4237849797
      y: -12.6449825548
      z: 0.0
    orientation: 
      x: 0.0
      y: 0.0
      z: -0.973471719221
      w: 0.228807368496
  covariance: [0.011055679234588459, 0.0, 0.0, 0.0, 0.0, 0.0, 0.0, 0.0, 0.0, 0.0, 0.0, 0.0, 0.0, 0.0, 0.0, 0.0, 0.0, 0.0, 0.0, 0.0, 0.0, 0.0, 0.0, 0.0, 0.0, 0.0, 0.0, 0.0, 0.0070845022542103007, 0.0013515200559915345, 0.0, 0.0, 0.0, 0.0, 0.0013515200559631128, 0.013478017524194237]
---
header: 
  seq: 566
  stamp: 
    secs: 1559652106
    nsecs: 127931639
  frame_id: map
pose: 
  pose: 
    position: 
      x: 12.9131014113
      y: -12.7167564776
      z: 0.0
    orientation: 
      x: 0.0
      y: 0.0
      z: 0.999983705674
      w: 0.00570862390521
  covariance: [0.0086884567494830388, 0.0, 0.0, 0.0, 0.0, 0.0, 0.0, 0.0, 0.0, 0.0, 0.0, 0.0, 0.0, 0.0, 0.0, 0.0, 0.0, 0.0, 0.0, 0.0, 0.0, 0.0, 0.0, 0.0, 0.0, 0.0, 0.0, 0.0, 0.0075731629571366759, 0.00093851088293401446, 0.0, 0.0, 0.0, 0.0, 0.00093851088293401446, 0.014282788879884007]
---
header: 
  seq: 567
  stamp: 
    secs: 1559652106
    nsecs: 916363659
  frame_id: map
pose: 
  pose: 
    position: 
      x: 12.4261886292
      y: -12.7202987163
      z: 0.0
    orientation: 
      x: 0.0
      y: 0.0
      z: -0.999817659604
      w: 0.0190957467285
  covariance: [0.0059488179414135768, 0.0, 0.0, 0.0, 0.0, 0.0, 0.0, 0.0, 0.0, 0.0, 0.0, 0.0, 0.0, 0.0, 0.0, 0.0, 0.0, 0.0, 0.0, 0.0, 0.0, 0.0, 0.0, 0.0, 0.0, 0.0, 0.0, 0.0, 0.0087347717783093186, -7.6333108156307331e-05, 0.0, 0.0, 0.0, 0.0, -7.6333108156307331e-05, 0.013987693069188836]
---
header: 
  seq: 568
  stamp: 
    secs: 1559652107
    nsecs: 522899186
  frame_id: map
pose: 
  pose: 
    position: 
      x: 11.9541935478
      y: -12.7539657516
      z: 0.0
    orientation: 
      x: 0.0
      y: 0.0
      z: -0.998600635885
      w: 0.052884496884
  covariance: [0.0048188406135209801, 0.0, 0.0, 0.0, 0.0, 0.0, 0.0, 0.0, 0.0, 0.0, 0.0, 0.0, 0.0, 0.0, 0.0, 0.0, 0.0, 0.0, 0.0, 0.0, 0.0, 0.0, 0.0, 0.0, 0.0, 0.0, 0.0, 0.0, 0.010468002218689865, -0.00023914654189029729, 0.0, 0.0, 0.0, 0.0, -0.00023914654189029729, 0.014258694917470661]
---
header: 
  seq: 569
  stamp: 
    secs: 1559652108
    nsecs: 215205754
  frame_id: map
pose: 
  pose: 
    position: 
      x: 11.4017872034
      y: -12.8202194627
      z: 0.0
    orientation: 
      x: 0.0
      y: 0.0
      z: -0.997355019313
      w: 0.0726840109732
  covariance: [0.0047875029936475444, 0.0, 0.0, 0.0, 0.0, 0.0, 0.0, 0.0, 0.0, 0.0, 0.0, 0.0, 0.0, 0.0, 0.0, 0.0, 0.0, 0.0, 0.0, 0.0, 0.0, 0.0, 0.0, 0.0, 0.0, 0.0, 0.0, 0.0, 0.015285126188031239, -0.002172415106278414, 0.0, 0.0, 0.0, 0.0, -0.002172415106278414, 0.014961841991996242]
---
header: 
  seq: 570
  stamp: 
    secs: 1559652108
    nsecs: 917227370
  frame_id: map
pose: 
  pose: 
    position: 
      x: 10.8764241591
      y: -12.9282001342
      z: 0.0
    orientation: 
      x: 0.0
      y: 0.0
      z: -0.99418508951
      w: 0.107684761203
  covariance: [0.0047507668791391643, 0.0, 0.0, 0.0, 0.0, 0.0, 0.0, 0.0, 0.0, 0.0, 0.0, 0.0, 0.0, 0.0, 0.0, 0.0, 0.0, 0.0, 0.0, 0.0, 0.0, 0.0, 0.0, 0.0, 0.0, 0.0, 0.0, 0.0, 0.020478651937802291, -0.0029593540217005589, 0.0, 0.0, 0.0, 0.0, -0.0029593540217005589, 0.015071864487626091]
---
header: 
  seq: 571
  stamp: 
    secs: 1559652109
    nsecs: 643296596
  frame_id: map
pose: 
  pose: 
    position: 
      x: 10.3363009027
      y: -13.0992934309
      z: 0.0
    orientation: 
      x: 0.0
      y: 0.0
      z: -0.987400136219
      w: 0.158243391632
  covariance: [0.0039773026620301436, 0.0, 0.0, 0.0, 0.0, 0.0, 0.0, 0.0, 0.0, 0.0, 0.0, 0.0, 0.0, 0.0, 0.0, 0.0, 0.0, 0.0, 0.0, 0.0, 0.0, 0.0, 0.0, 0.0, 0.0, 0.0, 0.0, 0.0, 0.02005423034201893, -0.0035431253864755844, 0.0, 0.0, 0.0, 0.0, -0.0035431253865040062, 0.014663653877307822]
---
header: 
  seq: 572
  stamp: 
    secs: 1559652110
    nsecs: 411064461
  frame_id: map
pose: 
  pose: 
    position: 
      x: 9.77727784523
      y: -13.302173314
      z: 0.0
    orientation: 
      x: 0.0
      y: 0.0
      z: -0.991595449424
      w: 0.129377218558
  covariance: [0.0039712886240847456, 0.0, 0.0, 0.0, 0.0, 0.0, 0.0, 0.0, 0.0, 0.0, 0.0, 0.0, 0.0, 0.0, 0.0, 0.0, 0.0, 0.0, 0.0, 0.0, 0.0, 0.0, 0.0, 0.0, 0.0, 0.0, 0.0, 0.0, 0.020020683054967618, -0.0041374557216135362, 0.0, 0.0, 0.0, 0.0, -0.0041374557216135362, 0.015302289245584341]
---
header: 
  seq: 573
  stamp: 
    secs: 1559652111
    nsecs: 220878312
  frame_id: map
pose: 
  pose: 
    position: 
      x: 9.16328557916
      y: -13.4385813488
      z: 0.0
    orientation: 
      x: 0.0
      y: 0.0
      z: -0.999191644763
      w: 0.0402002118906
  covariance: [0.0043743717649232664, 0.0, 0.0, 0.0, 0.0, 0.0, 0.0, 0.0, 0.0, 0.0, 0.0, 0.0, 0.0, 0.0, 0.0, 0.0, 0.0, 0.0, 0.0, 0.0, 0.0, 0.0, 0.0, 0.0, 0.0, 0.0, 0.0, 0.0, 0.020161546666091525, -0.0048172093661377159, 0.0, 0.0, 0.0, 0.0, -0.0048172093661377159, 0.016319473395018842]
---
header: 
  seq: 574
  stamp: 
    secs: 1559652111
    nsecs: 915923647
  frame_id: map
pose: 
  pose: 
    position: 
      x: 8.63787312844
      y: -13.4482729118
      z: 0.0
    orientation: 
      x: 0.0
      y: 0.0
      z: 0.997611503121
      w: 0.0690745165831
  covariance: [0.0037295356910661648, 0.0, 0.0, 0.0, 0.0, 0.0, 0.0, 0.0, 0.0, 0.0, 0.0, 0.0, 0.0, 0.0, 0.0, 0.0, 0.0, 0.0, 0.0, 0.0, 0.0, 0.0, 0.0, 0.0, 0.0, 0.0, 0.0, 0.0, 0.016752101081631571, -0.0042933862099372522, 0.0, 0.0, 0.0, 0.0, -0.0042933862099372522, 0.016040941155516325]
---
header: 
  seq: 575
  stamp: 
    secs: 1559652112
    nsecs: 494067050
  frame_id: map
pose: 
  pose: 
    position: 
      x: 8.20045750311
      y: -13.3676037057
      z: 0.0
    orientation: 
      x: 0.0
      y: 0.0
      z: 0.987018660948
      w: 0.160605613044
  covariance: [0.0032365154922693838, 0.0, 0.0, 0.0, 0.0, 0.0, 0.0, 0.0, 0.0, 0.0, 0.0, 0.0, 0.0, 0.0, 0.0, 0.0, 0.0, 0.0, 0.0, 0.0, 0.0, 0.0, 0.0, 0.0, 0.0, 0.0, 0.0, 0.0, 0.018202045104162297, -0.0039232766388956055, 0.0, 0.0, 0.0, 0.0, -0.0039232766388956055, 0.015236805291756087]
---
header: 
  seq: 576
  stamp: 
    secs: 1559652113
    nsecs: 91438875
  frame_id: map
pose: 
  pose: 
    position: 
      x: 7.76455458159
      y: -13.1745797028
      z: 0.0
    orientation: 
      x: 0.0
      y: 0.0
      z: 0.967983315974
      w: 0.251014541404
  covariance: [0.0030825420262262362, 0.0, 0.0, 0.0, 0.0, 0.0, 0.0, 0.0, 0.0, 0.0, 0.0, 0.0, 0.0, 0.0, 0.0, 0.0, 0.0, 0.0, 0.0, 0.0, 0.0, 0.0, 0.0, 0.0, 0.0, 0.0, 0.0, 0.0, 0.016621275457304734, -0.0029489172140760617, 0.0, 0.0, 0.0, 0.0, -0.0029489172140618508, 0.014977459004696502]
---
header: 
  seq: 577
  stamp: 
    secs: 1559652113
    nsecs: 702257227
  frame_id: map
pose: 
  pose: 
    position: 
      x: 7.36161445924
      y: -12.9360908057
      z: 0.0
    orientation: 
      x: 0.0
      y: 0.0
      z: 0.963830290607
      w: 0.266516736638
  covariance: [0.0025364910564616549, 0.0, 0.0, 0.0, 0.0, 0.0, 0.0, 0.0, 0.0, 0.0, 0.0, 0.0, 0.0, 0.0, 0.0, 0.0, 0.0, 0.0, 0.0, 0.0, 0.0, 0.0, 0.0, 0.0, 0.0, 0.0, 0.0, 0.0, 0.012964537138346345, -0.0010672714676385202, 0.0, 0.0, 0.0, 0.0, -0.0010672714676385202, 0.013482787243760298]
---
header: 
  seq: 578
  stamp: 
    secs: 1559652114
    nsecs: 333688389
  frame_id: map
pose: 
  pose: 
    position: 
      x: 6.96051471809
      y: -12.6733499911
      z: 0.0
    orientation: 
      x: 0.0
      y: 0.0
      z: 0.967676767359
      w: 0.252193722987
  covariance: [0.002546468321224407, 0.0, 0.0, 0.0, 0.0, 0.0, 0.0, 0.0, 0.0, 0.0, 0.0, 0.0, 0.0, 0.0, 0.0, 0.0, 0.0, 0.0, 0.0, 0.0, 0.0, 0.0, 0.0, 0.0, 0.0, 0.0, 0.0, 0.0, 0.014653118797074479, 0.00078583986377602671, 0.0, 0.0, 0.0, 0.0, 0.00078583986376181585, 0.012783483855692987]
---
header: 
  seq: 579
  stamp: 
    secs: 1559652115
    nsecs: 183113121
  frame_id: map
pose: 
  pose: 
    position: 
      x: 6.53395788231
      y: -12.4610804912
      z: 0.0
    orientation: 
      x: 0.0
      y: 0.0
      z: 0.987111450886
      w: 0.160034319848
  covariance: [0.0024595654651701463, 0.0, 0.0, 0.0, 0.0, 0.0, 0.0, 0.0, 0.0, 0.0, 0.0, 0.0, 0.0, 0.0, 0.0, 0.0, 0.0, 0.0, 0.0, 0.0, 0.0, 0.0, 0.0, 0.0, 0.0, 0.0, 0.0, 0.0, 0.014666048799319809, 0.0019749583682019947, 0.0, 0.0, 0.0, 0.0, 0.0019749583682019947, 0.0128327155843838]
---
header: 
  seq: 580
  stamp: 
    secs: 1559652116
    nsecs: 286024150
  frame_id: map
pose: 
  pose: 
    position: 
      x: 6.06619486583
      y: -12.3874641829
      z: 0.0
    orientation: 
      x: 0.0
      y: 0.0
      z: -0.999766295591
      w: 0.0216183764695
  covariance: [0.0025111059104139868, 0.0, 0.0, 0.0, 0.0, 0.0, 0.0, 0.0, 0.0, 0.0, 0.0, 0.0, 0.0, 0.0, 0.0, 0.0, 0.0, 0.0, 0.0, 0.0, 0.0, 0.0, 0.0, 0.0, 0.0, 0.0, 0.0, 0.0, 0.013987759790634682, 0.0022601908803971606, 0.0, 0.0, 0.0, 0.0, 0.0022601908803971606, 0.012013274917107367]
---
header: 
  seq: 581
  stamp: 
    secs: 1559652117
    nsecs: 27083618
  frame_id: map
pose: 
  pose: 
    position: 
      x: 5.58372388482
      y: -12.4448437552
      z: 0.0
    orientation: 
      x: 0.0
      y: 0.0
      z: -0.992130696152
      w: 0.125206556351
  covariance: [0.0023616028628436346, 0.0, 0.0, 0.0, 0.0, 0.0, 0.0, 0.0, 0.0, 0.0, 0.0, 0.0, 0.0, 0.0, 0.0, 0.0, 0.0, 0.0, 0.0, 0.0, 0.0, 0.0, 0.0, 0.0, 0.0, 0.0, 0.0, 0.0, 0.013985284085755707, 0.0022509191961477327, 0.0, 0.0, 0.0, 0.0, 0.0022509191961477327, 0.010849510539214654]
---
header: 
  seq: 582
  stamp: 
    secs: 1559652117
    nsecs: 775383701
  frame_id: map
pose: 
  pose: 
    position: 
      x: 5.0069251711
      y: -12.60927195
      z: 0.0
    orientation: 
      x: 0.0
      y: 0.0
      z: -0.989063097281
      w: 0.147493015419
  covariance: [0.0030341652498627161, 0.0, 0.0, 0.0, 0.0, 0.0, 0.0, 0.0, 0.0, 0.0, 0.0, 0.0, 0.0, 0.0, 0.0, 0.0, 0.0, 0.0, 0.0, 0.0, 0.0, 0.0, 0.0, 0.0, 0.0, 0.0, 0.0, 0.0, 0.015606279215764003, 0.0018717851111991785, 0.0, 0.0, 0.0, 0.0, 0.0018717851111991785, 0.010146696259743045]
---
header: 
  seq: 583
  stamp: 
    secs: 1559652118
    nsecs: 582626433
  frame_id: map
pose: 
  pose: 
    position: 
      x: 4.38898836563
      y: -12.770294194
      z: 0.0
    orientation: 
      x: 0.0
      y: 0.0
      z: -0.994584543055
      w: 0.103930682262
  covariance: [0.0040641534062249001, 0.0, 0.0, 0.0, 0.0, 0.0, 0.0, 0.0, 0.0, 0.0, 0.0, 0.0, 0.0, 0.0, 0.0, 0.0, 0.0, 0.0, 0.0, 0.0, 0.0, 0.0, 0.0, 0.0, 0.0, 0.0, 0.0, 0.0, 0.017358758528697955, 0.0012260241643203629, 0.0, 0.0, 0.0, 0.0, 0.0012260241643203629, 0.010063419633493107]
---
header: 
  seq: 584
  stamp: 
    secs: 1559652119
    nsecs: 221442544
  frame_id: map
pose: 
  pose: 
    position: 
      x: 3.86918703047
      y: -12.8545868043
      z: 0.0
    orientation: 
      x: 0.0
      y: 0.0
      z: -0.997843701202
      w: 0.0656349599799
  covariance: [0.0039148776284105543, 0.0, 0.0, 0.0, 0.0, 0.0, 0.0, 0.0, 0.0, 0.0, 0.0, 0.0, 0.0, 0.0, 0.0, 0.0, 0.0, 0.0, 0.0, 0.0, 0.0, 0.0, 0.0, 0.0, 0.0, 0.0, 0.0, 0.0, 0.018942788695844408, 0.00092845572830572846, 0.0, 0.0, 0.0, 0.0, 0.00092845572830572846, 0.010093060532019802]
---
header: 
  seq: 585
  stamp: 
    secs: 1559652119
    nsecs: 982002105
  frame_id: map
pose: 
  pose: 
    position: 
      x: 3.25800551779
      y: -12.8959838449
      z: 0.0
    orientation: 
      x: 0.0
      y: 0.0
      z: 0.999999999958
      w: 9.18147057354e-06
  covariance: [0.0041604945736338234, 0.0, 0.0, 0.0, 0.0, 0.0, 0.0, 0.0, 0.0, 0.0, 0.0, 0.0, 0.0, 0.0, 0.0, 0.0, 0.0, 0.0, 0.0, 0.0, 0.0, 0.0, 0.0, 0.0, 0.0, 0.0, 0.0, 0.0, 0.021391975732429538, 0.0001771506851690575, 0.0, 0.0, 0.0, 0.0, 0.0001771506851690575, 0.0099282226760671523]
---
header: 
  seq: 586
  stamp: 
    secs: 1559652120
    nsecs: 678076462
  frame_id: map
pose: 
  pose: 
    position: 
      x: 2.71320963765
      y: -12.8100431768
      z: 0.0
    orientation: 
      x: 0.0
      y: 0.0
      z: 0.997045698173
      w: 0.0768106487041
  covariance: [0.0038623280848166883, 0.0, 0.0, 0.0, 0.0, 0.0, 0.0, 0.0, 0.0, 0.0, 0.0, 0.0, 0.0, 0.0, 0.0, 0.0, 0.0, 0.0, 0.0, 0.0, 0.0, 0.0, 0.0, 0.0, 0.0, 0.0, 0.0, 0.0, 0.020904863350540318, -0.00021885337463368139, 0.0, 0.0, 0.0, 0.0, -0.00021885337463368139, 0.0097228257055692255]
---
header: 
  seq: 587
  stamp: 
    secs: 1559652121
    nsecs: 375410869
  frame_id: map
pose: 
  pose: 
    position: 
      x: 2.17866870923
      y: -12.6802608331
      z: 0.0
    orientation: 
      x: 0.0
      y: 0.0
      z: 0.995270757035
      w: 0.0971396942127
  covariance: [0.0035961910993752488, 0.0, 0.0, 0.0, 0.0, 0.0, 0.0, 0.0, 0.0, 0.0, 0.0, 0.0, 0.0, 0.0, 0.0, 0.0, 0.0, 0.0, 0.0, 0.0, 0.0, 0.0, 0.0, 0.0, 0.0, 0.0, 0.0, 0.0, 0.020551630113147507, 0.00076112829961703975, 0.0, 0.0, 0.0, 0.0, 0.00076112829961348704, 0.0098359930952298721]
---
header: 
  seq: 588
  stamp: 
    secs: 1559652122
    nsecs: 121706531
  frame_id: map
pose: 
  pose: 
    position: 
      x: 1.61224914657
      y: -12.5442284419
      z: 0.0
    orientation: 
      x: 0.0
      y: 0.0
      z: 0.995624289975
      w: 0.0934466329601
  covariance: [0.0035063525173492263, 0.0, 0.0, 0.0, 0.0, 0.0, 0.0, 0.0, 0.0, 0.0, 0.0, 0.0, 0.0, 0.0, 0.0, 0.0, 0.0, 0.0, 0.0, 0.0, 0.0, 0.0, 0.0, 0.0, 0.0, 0.0, 0.0, 0.0, 0.018796953158903538, 0.0017009938749719075, 0.0, 0.0, 0.0, 0.0, 0.0017009938749719075, 0.010109206844298385]
---
header: 
  seq: 589
  stamp: 
    secs: 1559652122
    nsecs: 765875178
  frame_id: map
pose: 
  pose: 
    position: 
      x: 1.10096547271
      y: -12.4477002335
      z: 0.0
    orientation: 
      x: 0.0
      y: 0.0
      z: 0.998458276258
      w: 0.0555073920462
  covariance: [0.0030966775503069302, 0.0, 0.0, 0.0, 0.0, 0.0, 0.0, 0.0, 0.0, 0.0, 0.0, 0.0, 0.0, 0.0, 0.0, 0.0, 0.0, 0.0, 0.0, 0.0, 0.0, 0.0, 0.0, 0.0, 0.0, 0.0, 0.0, 0.0, 0.017808832827499801, 0.0015538143188125904, 0.0, 0.0, 0.0, 0.0, 0.0015538143188108141, 0.0092398574838230014]
---
header: 
  seq: 590
  stamp: 
    secs: 1559652123
    nsecs: 351231514
  frame_id: map
pose: 
  pose: 
    position: 
      x: 0.629068545432
      y: -12.4048773501
      z: 0.0
    orientation: 
      x: 0.0
      y: 0.0
      z: 0.999582928177
      w: 0.0288785335065
  covariance: [0.0026499304616166251, 0.0, 0.0, 0.0, 0.0, 0.0, 0.0, 0.0, 0.0, 0.0, 0.0, 0.0, 0.0, 0.0, 0.0, 0.0, 0.0, 0.0, 0.0, 0.0, 0.0, 0.0, 0.0, 0.0, 0.0, 0.0, 0.0, 0.0, 0.016628360264770829, 0.0015059475620408593, 0.0, 0.0, 0.0, 0.0, 0.0015059475620408593, 0.0087037559960588713]
---
header: 
  seq: 591
  stamp: 
    secs: 1559652123
    nsecs: 955612262
  frame_id: map
pose: 
  pose: 
    position: 
      x: 0.152582414228
      y: -12.370676668
      z: 0.0
    orientation: 
      x: 0.0
      y: 0.0
      z: 0.999445297997
      w: 0.0333030976366
  covariance: [0.0027225394751046517, 0.0, 0.0, 0.0, 0.0, 0.0, 0.0, 0.0, 0.0, 0.0, 0.0, 0.0, 0.0, 0.0, 0.0, 0.0, 0.0, 0.0, 0.0, 0.0, 0.0, 0.0, 0.0, 0.0, 0.0, 0.0, 0.0, 0.0, 0.016138591755885372, 0.0010670820860946592, 0.0, 0.0, 0.0, 0.0, 0.0010670820860944371, 0.0080206777405280611]
---
header: 
  seq: 592
  stamp: 
    secs: 1559652124
    nsecs: 653287009
  frame_id: map
pose: 
  pose: 
    position: 
      x: -0.343798067922
      y: -12.3154101031
      z: 0.0
    orientation: 
      x: 0.0
      y: 0.0
      z: 0.998566320851
      w: 0.0535285238211
  covariance: [0.0026212930431879166, 0.0, 0.0, 0.0, 0.0, 0.0, 0.0, 0.0, 0.0, 0.0, 0.0, 0.0, 0.0, 0.0, 0.0, 0.0, 0.0, 0.0, 0.0, 0.0, 0.0, 0.0, 0.0, 0.0, 0.0, 0.0, 0.0, 0.0, 0.013093479651759566, 0.00088878512483739759, 0.0, 0.0, 0.0, 0.0, 0.00088878512483739759, 0.0076621195885435683]
---
header: 
  seq: 593
  stamp: 
    secs: 1559652125
    nsecs: 595701703
  frame_id: map
pose: 
  pose: 
    position: 
      x: -0.795237736359
      y: -12.2370898722
      z: 0.0
    orientation: 
      x: 0.0
      y: 0.0
      z: 0.995053087641
      w: 0.0993446162447
  covariance: [0.0021741985430274659, 0.0, 0.0, 0.0, 0.0, 0.0, 0.0, 0.0, 0.0, 0.0, 0.0, 0.0, 0.0, 0.0, 0.0, 0.0, 0.0, 0.0, 0.0, 0.0, 0.0, 0.0, 0.0, 0.0, 0.0, 0.0, 0.0, 0.0, 0.0095696045864897567, 0.0011206227803708393, 0.0, 0.0, 0.0, 0.0, 0.0011206227803708393, 0.0070817962343388725]
---
header: 
  seq: 594
  stamp: 
    secs: 1559652130
    nsecs: 627176679
  frame_id: map
pose: 
  pose: 
    position: 
      x: -1.06031131154
      y: -12.1713599605
      z: 0.0
    orientation: 
      x: 0.0
      y: 0.0
      z: 0.932255679191
      w: 0.361800150104
  covariance: [0.0041527148315967429, 0.0, 0.0, 0.0, 0.0, 0.0, 0.0, 0.0, 0.0, 0.0, 0.0, 0.0, 0.0, 0.0, 0.0, 0.0, 0.0, 0.0, 0.0, 0.0, 0.0, 0.0, 0.0, 0.0, 0.0, 0.0, 0.0, 0.0, 0.0086111371215320826, 0.0006483324950438933, 0.0, 0.0, 0.0, 0.0, 0.00064833249504211694, 0.008846052365958295]
---
header: 
  seq: 595
  stamp: 
    secs: 1559652141
    nsecs: 601844531
  frame_id: map
pose: 
  pose: 
    position: 
      x: -1.07871536773
      y: -11.9319069947
      z: 0.0
    orientation: 
      x: 0.0
      y: 0.0
      z: 0.70558204198
      w: 0.708628239654
  covariance: [0.0080457649201927956, 0.0, 0.0, 0.0, 0.0, 0.0, 0.0, 0.0, 0.0, 0.0, 0.0, 0.0, 0.0, 0.0, 0.0, 0.0, 0.0, 0.0, 0.0, 0.0, 0.0, 0.0, 0.0, 0.0, 0.0, 0.0, 0.0, 0.0, 0.0088199351121383066, -0.00062580846572553262, 0.0, 0.0, 0.0, 0.0, -0.00062580846572553262, 0.01056919619374708]
---
header: 
  seq: 596
  stamp: 
    secs: 1559652151
    nsecs: 443999968
  frame_id: map
pose: 
  pose: 
    position: 
      x: -1.08823330059
      y: -11.4860624921
      z: 0.0
    orientation: 
      x: 0.0
      y: 0.0
      z: 0.692356623426
      w: 0.721555476729
  covariance: [0.0077374749660824782, 0.0, 0.0, 0.0, 0.0, 0.0, 0.0, 0.0, 0.0, 0.0, 0.0, 0.0, 0.0, 0.0, 0.0, 0.0, 0.0, 0.0, 0.0, 0.0, 0.0, 0.0, 0.0, 0.0, 0.0, 0.0, 0.0, 0.0, 0.0056803246100673565, -0.00019167812632018441, 0.0, 0.0, 0.0, 0.0, -0.00019167812632018441, 0.011310823478178906]
---
header: 
  seq: 597
  stamp: 
    secs: 1559652168
    nsecs: 422930008
  frame_id: map
pose: 
  pose: 
    position: 
      x: -1.11608098064
      y: -11.9649840892
      z: 0.0
    orientation: 
      x: 0.0
      y: 0.0
      z: 0.701783831571
      w: 0.712389959043
  covariance: [0.0073097061214428376, 0.0, 0.0, 0.0, 0.0, 0.0, 0.0, 0.0, 0.0, 0.0, 0.0, 0.0, 0.0, 0.0, 0.0, 0.0, 0.0, 0.0, 0.0, 0.0, 0.0, 0.0, 0.0, 0.0, 0.0, 0.0, 0.0, 0.0, 0.0049968048024190224, -0.00072587217917238777, 0.0, 0.0, 0.0, 0.0, -0.00072587217917238777, 0.0080110005225928257]
---
header: 
  seq: 598
  stamp: 
    secs: 1559652170
    nsecs: 131792639
  frame_id: map
pose: 
  pose: 
    position: 
      x: -1.12945799462
      y: -12.4402835967
      z: 0.0
    orientation: 
      x: 0.0
      y: 0.0
      z: 0.699853442277
      w: 0.714286468676
  covariance: [0.006894112491062596, 0.0, 0.0, 0.0, 0.0, 0.0, 0.0, 0.0, 0.0, 0.0, 0.0, 0.0, 0.0, 0.0, 0.0, 0.0, 0.0, 0.0, 0.0, 0.0, 0.0, 0.0, 0.0, 0.0, 0.0, 0.0, 0.0, 0.0, 0.004463902105905527, -0.00059984207940629833, 0.0, 0.0, 0.0, 0.0, -0.00059984207940629833, 0.0091886037238725869]
---
header: 
  seq: 599
  stamp: 
    secs: 1559652174
    nsecs: 97617195
  frame_id: map
pose: 
  pose: 
    position: 
      x: -1.09781020603
      y: -12.452416752
      z: 0.0
    orientation: 
      x: 0.0
      y: 0.0
      z: 0.242878065577
      w: 0.97005682579
  covariance: [0.0090831419787879512, 0.0, 0.0, 0.0, 0.0, 0.0, 0.0, 0.0, 0.0, 0.0, 0.0, 0.0, 0.0, 0.0, 0.0, 0.0, 0.0, 0.0, 0.0, 0.0, 0.0, 0.0, 0.0, 0.0, 0.0, 0.0, 0.0, 0.0, 0.0071021532924459277, 0.00016770590723396239, 0.0, 0.0, 0.0, 0.0, 0.00016770590723396239, 0.0096312290544111386]
---
header: 
  seq: 600
  stamp: 
    secs: 1559652175
    nsecs: 583735720
  frame_id: map
pose: 
  pose: 
    position: 
      x: -0.628016567748
      y: -12.4066625421
      z: 0.0
    orientation: 
      x: 0.0
      y: 0.0
      z: -0.0727276345691
      w: 0.997351839207
  covariance: [0.0067870261182989096, 0.0, 0.0, 0.0, 0.0, 0.0, 0.0, 0.0, 0.0, 0.0, 0.0, 0.0, 0.0, 0.0, 0.0, 0.0, 0.0, 0.0, 0.0, 0.0, 0.0, 0.0, 0.0, 0.0, 0.0, 0.0, 0.0, 0.0, 0.0076759899611816527, 0.00098798087688593307, 0.0, 0.0, 0.0, 0.0, 0.00098798087688682125, 0.010142098349172703]
---
header: 
  seq: 601
  stamp: 
    secs: 1559652176
    nsecs: 288689762
  frame_id: map
pose: 
  pose: 
    position: 
      x: -0.202761285106
      y: -12.4950268914
      z: 0.0
    orientation: 
      x: 0.0
      y: 0.0
      z: -0.139594649665
      w: 0.990208732432
  covariance: [0.0047388090958459901, 0.0, 0.0, 0.0, 0.0, 0.0, 0.0, 0.0, 0.0, 0.0, 0.0, 0.0, 0.0, 0.0, 0.0, 0.0, 0.0, 0.0, 0.0, 0.0, 0.0, 0.0, 0.0, 0.0, 0.0, 0.0, 0.0, 0.0, 0.0082499587107214972, 0.00090028541659303992, 0.0, 0.0, 0.0, 0.0, 0.00090028541659303992, 0.0094799878671447332]
---
header: 
  seq: 602
  stamp: 
    secs: 1559652176
    nsecs: 881650242
  frame_id: map
pose: 
  pose: 
    position: 
      x: 0.23307155038
      y: -12.6253179062
      z: 0.0
    orientation: 
      x: 0.0
      y: 0.0
      z: -0.143968058818
      w: 0.98958233515
