header: 
  seq: 1
  stamp: 
    secs: 1559392425
    nsecs: 157097255
  frame_id: map
pose: 
  pose: 
    position: 
      x: 7.15465307236
      y: -15.0269908905
      z: 0.0
    orientation: 
      x: 0.0
      y: 0.0
      z: -0.682251020227
      w: 0.731118010583
  covariance: [1.8895995879121058e-13, 0.0, 0.0, 0.0, 0.0, 0.0, 0.0, 0.0, 0.0, 0.0, 0.0, 0.0, 0.0, 0.0, 0.0, 0.0, 0.0, 0.0, 0.0, 0.0, 0.0, 0.0, 0.0, 0.0, 0.0, 0.0, 0.0, 0.0, 3.2014351727341999e-11, -3.1195465335949801e-12, 0.0, 0.0, 0.0, 0.0, -3.1195465335949801e-12, -7.2560274227559788e-12]
---
header: 
  seq: 2
  stamp: 
    secs: 1559535701
    nsecs: 154769865
  frame_id: map
pose: 
  pose: 
    position: 
      x: 7.13879043193
      y: -14.8196210119
      z: 0.0
    orientation: 
      x: 0.0
      y: 0.0
      z: -0.680863742372
      w: 0.732410106651
  covariance: [0.019546218005252393, 0.0, 0.0, 0.0, 0.0, 0.0, 0.0, 0.0, 0.0, 0.0, 0.0, 0.0, 0.0, 0.0, 0.0, 0.0, 0.0, 0.0, 0.0, 0.0, 0.0, 0.0, 0.0, 0.0, 0.0, 0.0, 0.0, 0.0, 1.6982465468564598, 0.60738740540479641, 0.0, 0.0, 0.0, 0.0, 0.60738740540479641, 1.1033288099873357]
---
header: 
  seq: 3
  stamp: 
    secs: 1559535702
    nsecs: 655965226
  frame_id: map
pose: 
  pose: 
    position: 
      x: 7.10770881808
      y: -14.379540657
      z: 0.0
    orientation: 
      x: 0.0
      y: 0.0
      z: -0.683035755625
      w: 0.730384937234
  covariance: [0.020466338554226346, 0.0, 0.0, 0.0, 0.0, 0.0, 0.0, 0.0, 0.0, 0.0, 0.0, 0.0, 0.0, 0.0, 0.0, 0.0, 0.0, 0.0, 0.0, 0.0, 0.0, 0.0, 0.0, 0.0, 0.0, 0.0, 0.0, 0.0, 0.4823231538616608, -0.18545081226610152, 0.0, 0.0, 0.0, 0.0, -0.18545081226610152, 0.11024154663832024]
---
header: 
  seq: 4
  stamp: 
    secs: 1559535704
    nsecs: 154531145
  frame_id: map
pose: 
  pose: 
    position: 
      x: 7.07477106013
      y: -13.930686555
      z: 0.0
    orientation: 
      x: 0.0
      y: 0.0
      z: -0.675303790682
      w: 0.737539687265
  covariance: [0.023042145429393219, 0.0, 0.0, 0.0, 0.0, 0.0, 0.0, 0.0, 0.0, 0.0, 0.0, 0.0, 0.0, 0.0, 0.0, 0.0, 0.0, 0.0, 0.0, 0.0, 0.0, 0.0, 0.0, 0.0, 0.0, 0.0, 0.0, 0.0, 1.0235704219484763, -0.34390685483079986, 0.0, 0.0, 0.0, 0.0, -0.34390685483079986, 0.13203421401385865]
---
header: 
  seq: 5
  stamp: 
    secs: 1559535705
    nsecs: 651906348
  frame_id: map
pose: 
  pose: 
    position: 
      x: 7.0356050314
      y: -13.4837082363
      z: 0.0
    orientation: 
      x: 0.0
      y: 0.0
      z: -0.670511024765
      w: 0.741899565756
  covariance: [0.0146811403062847, 0.0, 0.0, 0.0, 0.0, 0.0, 0.0, 0.0, 0.0, 0.0, 0.0, 0.0, 0.0, 0.0, 0.0, 0.0, 0.0, 0.0, 0.0, 0.0, 0.0, 0.0, 0.0, 0.0, 0.0, 0.0, 0.0, 0.0, 0.64749396060547071, -0.21521809890257376, 0.0, 0.0, 0.0, 0.0, -0.21521809890257376, 0.076879684771741286]
---
header: 
  seq: 6
  stamp: 
    secs: 1559535708
    nsecs: 937153360
  frame_id: map
pose: 
  pose: 
    position: 
      x: 7.03760257704
      y: -13.4858307805
      z: 0.0
    orientation: 
      x: 0.0
      y: 0.0
      z: -0.688255924398
      w: 0.725467974849
  covariance: [0.010232491154059446, 0.0, 0.0, 0.0, 0.0, 0.0, 0.0, 0.0, 0.0, 0.0, 0.0, 0.0, 0.0, 0.0, 0.0, 0.0, 0.0, 0.0, 0.0, 0.0, 0.0, 0.0, 0.0, 0.0, 0.0, 0.0, 0.0, 0.0, 0.41462720047190083, -0.13817604594174915, 0.0, 0.0, 0.0, 0.0, -0.13817604594174915, 0.050265866921465147]
---
header: 
  seq: 7
  stamp: 
    secs: 1559535710
    nsecs: 999749124
  frame_id: map
pose: 
  pose: 
    position: 
      x: 7.04322296152
      y: -13.8952814858
      z: 0.0
    orientation: 
      x: 0.0
      y: 0.0
      z: -0.714045325259
      w: 0.700099473986
  covariance: [0.0054728175970131417, 0.0, 0.0, 0.0, 0.0, 0.0, 0.0, 0.0, 0.0, 0.0, 0.0, 0.0, 0.0, 0.0, 0.0, 0.0, 0.0, 0.0, 0.0, 0.0, 0.0, 0.0, 0.0, 0.0, 0.0, 0.0, 0.0, 0.0, 0.22066832984314227, -0.068907358912069561, 0.0, 0.0, 0.0, 0.0, -0.068907358912083772, 0.022128590377429858]
---
header: 
  seq: 8
  stamp: 
    secs: 1559535721
    nsecs: 490281572
  frame_id: map
pose: 
  pose: 
    position: 
      x: 7.10756806077
      y: -14.3348927245
      z: 0.0
    orientation: 
      x: 0.0
      y: 0.0
      z: -0.621070687614
      w: 0.783754554045
  covariance: [0.021621071074884712, 0.0, 0.0, 0.0, 0.0, 0.0, 0.0, 0.0, 0.0, 0.0, 0.0, 0.0, 0.0, 0.0, 0.0, 0.0, 0.0, 0.0, 0.0, 0.0, 0.0, 0.0, 0.0, 0.0, 0.0, 0.0, 0.0, 0.0, 1.1924913479924859, 0.12293949893125315, 0.0, 0.0, 0.0, 0.0, 0.12293949893125315, 0.44074557201314163]
---
header: 
  seq: 9
  stamp: 
    secs: 1559535729
    nsecs: 936995357
  frame_id: map
pose: 
  pose: 
    position: 
      x: 7.1640669222
      y: -14.7472779375
      z: 0.0
    orientation: 
      x: 0.0
      y: 0.0
      z: -0.695815443892
      w: 0.718220626299
  covariance: [0.015592565351267006, 0.0, 0.0, 0.0, 0.0, 0.0, 0.0, 0.0, 0.0, 0.0, 0.0, 0.0, 0.0, 0.0, 0.0, 0.0, 0.0, 0.0, 0.0, 0.0, 0.0, 0.0, 0.0, 0.0, 0.0, 0.0, 0.0, 0.0, 1.2602824924793667, 0.10048497579830661, 0.0, 0.0, 0.0, 0.0, 0.10048497579832082, 0.3239011208849536]
---
header: 
  seq: 10
  stamp: 
    secs: 1559535743
    nsecs: 245612264
  frame_id: map
pose: 
  pose: 
    position: 
      x: 7.15290976781
      y: -14.7390054961
      z: 0.0
    orientation: 
      x: 0.0
      y: 0.0
      z: -0.684486489318
      w: 0.729025545465
  covariance: [0.097931295298188795, 0.0, 0.0, 0.0, 0.0, 0.0, 0.0, 0.0, 0.0, 0.0, 0.0, 0.0, 0.0, 0.0, 0.0, 0.0, 0.0, 0.0, 0.0, 0.0, 0.0, 0.0, 0.0, 0.0, 0.0, 0.0, 0.0, 0.0, 6.502845715434141, 0.28810451623881217, 0.0, 0.0, 0.0, 0.0, 0.28810451623881217, 1.9419247176248979]
---
header: 
  seq: 11
  stamp: 
    secs: 1559535744
    nsecs: 747505316
  frame_id: map
pose: 
  pose: 
    position: 
      x: 7.1195292165
      y: -14.2992690794
      z: 0.0
    orientation: 
      x: 0.0
      y: 0.0
      z: -0.675640809408
      w: 0.737230965616
  covariance: [0.05919301675167217, 0.0, 0.0, 0.0, 0.0, 0.0, 0.0, 0.0, 0.0, 0.0, 0.0, 0.0, 0.0, 0.0, 0.0, 0.0, 0.0, 0.0, 0.0, 0.0, 0.0, 0.0, 0.0, 0.0, 0.0, 0.0, 0.0, 0.0, 4.0385076629871905, -0.22506906023068501, 0.0, 0.0, 0.0, 0.0, -0.22506906023069922, 0.84996198275298862]
---
header: 
  seq: 12
  stamp: 
    secs: 1559535746
    nsecs: 155971529
  frame_id: map
pose: 
  pose: 
    position: 
      x: 7.09005223557
      y: -13.8798382812
      z: 0.0
    orientation: 
      x: 0.0
      y: 0.0
      z: -0.681554644754
      w: 0.731767221331
  covariance: [0.036345289409296433, 0.0, 0.0, 0.0, 0.0, 0.0, 0.0, 0.0, 0.0, 0.0, 0.0, 0.0, 0.0, 0.0, 0.0, 0.0, 0.0, 0.0, 0.0, 0.0, 0.0, 0.0, 0.0, 0.0, 0.0, 0.0, 0.0, 0.0, 2.37417167246406, -0.23249726894859138, 0.0, 0.0, 0.0, 0.0, -0.23249726894860559, 0.45157387542044258]
---
header: 
  seq: 13
  stamp: 
    secs: 1559535747
    nsecs: 659665988
  frame_id: map
pose: 
  pose: 
    position: 
      x: 7.0536421145
      y: -13.440987496
      z: 0.0
    orientation: 
      x: 0.0
      y: 0.0
      z: -0.678097203276
      w: 0.734972232747
  covariance: [0.020998514304912799, 0.0, 0.0, 0.0, 0.0, 0.0, 0.0, 0.0, 0.0, 0.0, 0.0, 0.0, 0.0, 0.0, 0.0, 0.0, 0.0, 0.0, 0.0, 0.0, 0.0, 0.0, 0.0, 0.0, 0.0, 0.0, 0.0, 0.0, 1.1413890777003803, -0.13623673089123786, 0.0, 0.0, 0.0, 0.0, -0.13623673089123786, 0.25063570225191084]
---
header: 
  seq: 14
  stamp: 
    secs: 1559535751
    nsecs: 502325896
  frame_id: map
pose: 
  pose: 
    position: 
      x: 7.03669551879
      y: -13.2286274493
      z: 0.0
    orientation: 
      x: 0.0
      y: 0.0
      z: -0.85207976898
      w: 0.523411947986
  covariance: [0.015450048544453478, 0.0, 0.0, 0.0, 0.0, 0.0, 0.0, 0.0, 0.0, 0.0, 0.0, 0.0, 0.0, 0.0, 0.0, 0.0, 0.0, 0.0, 0.0, 0.0, 0.0, 0.0, 0.0, 0.0, 0.0, 0.0, 0.0, 0.0, 0.50781035507742822, -0.12521358511201813, 0.0, 0.0, 0.0, 0.0, -0.12521358511201813, 0.10902174719142321]
---
header: 
  seq: 15
  stamp: 
    secs: 1559535753
    nsecs: 657085775
  frame_id: map
pose: 
  pose: 
    position: 
      x: 7.0733392404
      y: -13.2124752704
      z: 0.0
    orientation: 
      x: 0.0
      y: 0.0
      z: -0.99998325103
      w: 0.00578771622244
  covariance: [0.0155736255548624, 0.0, 0.0, 0.0, 0.0, 0.0, 0.0, 0.0, 0.0, 0.0, 0.0, 0.0, 0.0, 0.0, 0.0, 0.0, 0.0, 0.0, 0.0, 0.0, 0.0, 0.0, 0.0, 0.0, 0.0, 0.0, 0.0, 0.0, 0.64787441744484198, -0.20990950103145242, 0.0, 0.0, 0.0, 0.0, -0.20990950103145242, 0.15326059557180352]
---
header: 
  seq: 16
  stamp: 
    secs: 1559535755
    nsecs: 817437550
  frame_id: map
pose: 
  pose: 
    position: 
      x: 6.85601421101
      y: -12.9793430823
      z: 0.0
    orientation: 
      x: 0.0
      y: 0.0
      z: 0.849822275842
      w: 0.527069349786
  covariance: [0.020120306579400039, 0.0, 0.0, 0.0, 0.0, 0.0, 0.0, 0.0, 0.0, 0.0, 0.0, 0.0, 0.0, 0.0, 0.0, 0.0, 0.0, 0.0, 0.0, 0.0, 0.0, 0.0, 0.0, 0.0, 0.0, 0.0, 0.0, 0.0, 0.58265635719320863, -0.18328215495749903, 0.0, 0.0, 0.0, 0.0, -0.18328215495751324, 0.1367847097689289]
---
header: 
  seq: 17
  stamp: 
    secs: 1559535757
    nsecs: 31602111
  frame_id: map
pose: 
  pose: 
    position: 
      x: 6.80355618054
      y: -12.5510842768
      z: 0.0
    orientation: 
      x: 0.0
      y: 0.0
      z: 0.636989388638
      w: 0.77087256973
  covariance: [0.12990712962613588, 0.0, 0.0, 0.0, 0.0, 0.0, 0.0, 0.0, 0.0, 0.0, 0.0, 0.0, 0.0, 0.0, 0.0, 0.0, 0.0, 0.0, 0.0, 0.0, 0.0, 0.0, 0.0, 0.0, 0.0, 0.0, 0.0, 0.0, 5.1325849753452184, 0.065963331338651621, 0.0, 0.0, 0.0, 0.0, 0.065963331338651621, 2.4306940261057832]
---
header: 
  seq: 18
  stamp: 
    secs: 1559535759
    nsecs: 188787089
  frame_id: map
pose: 
  pose: 
    position: 
      x: 6.99097542653
      y: -12.3117974537
      z: 0.0
    orientation: 
      x: 0.0
      y: 0.0
      z: 0.1476237061
      w: 0.989043599341
  covariance: [0.072909095738036139, 0.0, 0.0, 0.0, 0.0, 0.0, 0.0, 0.0, 0.0, 0.0, 0.0, 0.0, 0.0, 0.0, 0.0, 0.0, 0.0, 0.0, 0.0, 0.0, 0.0, 0.0, 0.0, 0.0, 0.0, 0.0, 0.0, 0.0, 2.8929880592415995, -0.044666787041373543, 0.0, 0.0, 0.0, 0.0, -0.044666787041373543, 1.2191772527581428]
---
header: 
  seq: 19
  stamp: 
    secs: 1559535760
    nsecs: 405448418
  frame_id: map
pose: 
  pose: 
    position: 
      x: 7.44794630475
      y: -12.2827133078
      z: 0.0
    orientation: 
      x: 0.0
      y: 0.0
      z: -0.0323414010968
      w: 0.99947688006
  covariance: [0.042582190146007858, 0.0, 0.0, 0.0, 0.0, 0.0, 0.0, 0.0, 0.0, 0.0, 0.0, 0.0, 0.0, 0.0, 0.0, 0.0, 0.0, 0.0, 0.0, 0.0, 0.0, 0.0, 0.0, 0.0, 0.0, 0.0, 0.0, 0.0, 1.3658938051082004, -0.19471348382567968, 0.0, 0.0, 0.0, 0.0, -0.19471348382567968, 0.54590493505962789]
---
header: 
  seq: 20
  stamp: 
    secs: 1559535761
    nsecs: 156065263
  frame_id: map
pose: 
  pose: 
    position: 
      x: 7.93910256372
      y: -12.337678087
      z: 0.0
    orientation: 
      x: 0.0
      y: 0.0
      z: -0.0661085384911
      w: 0.997812437855
  covariance: [0.025681127247092782, 0.0, 0.0, 0.0, 0.0, 0.0, 0.0, 0.0, 0.0, 0.0, 0.0, 0.0, 0.0, 0.0, 0.0, 0.0, 0.0, 0.0, 0.0, 0.0, 0.0, 0.0, 0.0, 0.0, 0.0, 0.0, 0.0, 0.0, 0.70837377757975206, -0.0903198177280648, 0.0, 0.0, 0.0, 0.0, -0.0903198177280648, 0.21358468327278143]
---
header: 
  seq: 21
  stamp: 
    secs: 1559535761
    nsecs: 721755175
  frame_id: map
pose: 
  pose: 
    position: 
      x: 8.39859168804
      y: -12.3988183545
      z: 0.0
    orientation: 
      x: 0.0
      y: 0.0
      z: -0.0430969524586
      w: 0.999070894726
  covariance: [0.022748849264116786, 0.0, 0.0, 0.0, 0.0, 0.0, 0.0, 0.0, 0.0, 0.0, 0.0, 0.0, 0.0, 0.0, 0.0, 0.0, 0.0, 0.0, 0.0, 0.0, 0.0, 0.0, 0.0, 0.0, 0.0, 0.0, 0.0, 0.0, 0.58244794011055079, -0.12238683540160422, 0.0, 0.0, 0.0, 0.0, -0.12238683540160422, 0.13226653083056303]
---
header: 
  seq: 22
  stamp: 
    secs: 1559535762
    nsecs: 282068867
  frame_id: map
pose: 
  pose: 
    position: 
      x: 8.87507212928
      y: -12.443050418
      z: 0.0
    orientation: 
      x: 0.0
      y: 0.0
      z: -0.0300722221266
      w: 0.999547728453
  covariance: [0.012518030815679697, 0.0, 0.0, 0.0, 0.0, 0.0, 0.0, 0.0, 0.0, 0.0, 0.0, 0.0, 0.0, 0.0, 0.0, 0.0, 0.0, 0.0, 0.0, 0.0, 0.0, 0.0, 0.0, 0.0, 0.0, 0.0, 0.0, 0.0, 0.2121734354958201, -0.01833811292300359, 0.0, 0.0, 0.0, 0.0, -0.01833811292300359, 0.025642866351443284]
---
header: 
  seq: 23
  stamp: 
    secs: 1559535762
    nsecs: 844476644
  frame_id: map
pose: 
  pose: 
    position: 
      x: 9.33105389166
      y: -12.461238831
      z: 0.0
    orientation: 
      x: 0.0
      y: 0.0
      z: 0.0142097154142
      w: 0.999899036897
  covariance: [0.0061034787636593379, 0.0, 0.0, 0.0, 0.0, 0.0, 0.0, 0.0, 0.0, 0.0, 0.0, 0.0, 0.0, 0.0, 0.0, 0.0, 0.0, 0.0, 0.0, 0.0, 0.0, 0.0, 0.0, 0.0, 0.0, 0.0, 0.0, 0.0, 0.10187520715959403, -0.012290517451397075, 0.0, 0.0, 0.0, 0.0, -0.012290517451397075, 0.022364654594453286]
---
header: 
  seq: 24
  stamp: 
    secs: 1559535763
    nsecs: 404078306
  frame_id: map
pose: 
  pose: 
    position: 
      x: 9.77630623709
      y: -12.4393213044
      z: 0.0
    orientation: 
      x: 0.0
      y: 0.0
      z: 0.0422191691009
      w: 0.999108373381
  covariance: [0.00374404769183065, 0.0, 0.0, 0.0, 0.0, 0.0, 0.0, 0.0, 0.0, 0.0, 0.0, 0.0, 0.0, 0.0, 0.0, 0.0, 0.0, 0.0, 0.0, 0.0, 0.0, 0.0, 0.0, 0.0, 0.0, 0.0, 0.0, 0.0, 0.053366771765940277, -0.01300650632039279, 0.0, 0.0, 0.0, 0.0, -0.013006506320350157, 0.012381037628036974]
---
header: 
  seq: 25
  stamp: 
    secs: 1559535763
    nsecs: 968929851
  frame_id: map
pose: 
  pose: 
    position: 
      x: 10.2299955227
      y: -12.403738856
      z: 0.0
    orientation: 
      x: 0.0
      y: 0.0
      z: 0.0328286155264
      w: 0.999460995739
  covariance: [0.0017237860744360276, 0.0, 0.0, 0.0, 0.0, 0.0, 0.0, 0.0, 0.0, 0.0, 0.0, 0.0, 0.0, 0.0, 0.0, 0.0, 0.0, 0.0, 0.0, 0.0, 0.0, 0.0, 0.0, 0.0, 0.0, 0.0, 0.0, 0.0, 0.01009095895402788, -0.00051575297400595279, 0.0, 0.0, 0.0, 0.0, -0.00051575297400595279, 0.0081417632662170464]
---
header: 
  seq: 26
  stamp: 
    secs: 1559535764
    nsecs: 530814607
  frame_id: map
pose: 
  pose: 
    position: 
      x: 10.6768305217
      y: -12.378635139
      z: 0.0
    orientation: 
      x: 0.0
      y: 0.0
      z: -0.0157317981849
      w: 0.999876247606
  covariance: [0.0015770184650480941, 0.0, 0.0, 0.0, 0.0, 0.0, 0.0, 0.0, 0.0, 0.0, 0.0, 0.0, 0.0, 0.0, 0.0, 0.0, 0.0, 0.0, 0.0, 0.0, 0.0, 0.0, 0.0, 0.0, 0.0, 0.0, 0.0, 0.0, 0.0084887017178008842, -6.0276068878720019e-05, 0.0, 0.0, 0.0, 0.0, -6.0276068878720019e-05, 0.0078849799100975618]
---
header: 
  seq: 27
  stamp: 
    secs: 1559535765
    nsecs: 187713934
  frame_id: map
pose: 
  pose: 
    position: 
      x: 11.1373622858
      y: -12.431536578
      z: 0.0
    orientation: 
      x: 0.0
      y: 0.0
      z: -0.113123395723
      w: 0.993580946546
  covariance: [0.0017066421494366961, 0.0, 0.0, 0.0, 0.0, 0.0, 0.0, 0.0, 0.0, 0.0, 0.0, 0.0, 0.0, 0.0, 0.0, 0.0, 0.0, 0.0, 0.0, 0.0, 0.0, 0.0, 0.0, 0.0, 0.0, 0.0, 0.0, 0.0, 0.0072144302674786737, 0.00011622779717085961, 0.0, 0.0, 0.0, 0.0, 0.00011622779717085961, 0.0074543693629564424]
---
header: 
  seq: 28
  stamp: 
    secs: 1559535766
    nsecs: 125828816
  frame_id: map
pose: 
  pose: 
    position: 
      x: 11.587400979
      y: -12.5863982924
      z: 0.0
    orientation: 
      x: 0.0
      y: 0.0
      z: -0.26378003763
      w: 0.964582858933
  covariance: [0.0020297361851557877, 0.0, 0.0, 0.0, 0.0, 0.0, 0.0, 0.0, 0.0, 0.0, 0.0, 0.0, 0.0, 0.0, 0.0, 0.0, 0.0, 0.0, 0.0, 0.0, 0.0, 0.0, 0.0, 0.0, 0.0, 0.0, 0.0, 0.0, 0.006132302913314484, 3.4832024945050821e-05, 0.0, 0.0, 0.0, 0.0, 3.4832024945050821e-05, 0.0072280955794747047]
---
header: 
  seq: 29
  stamp: 
    secs: 1559535775
    nsecs: 870549246
  frame_id: map
pose: 
  pose: 
    position: 
      x: 11.8550109239
      y: -12.9770523498
      z: 0.0
    orientation: 
      x: 0.0
      y: 0.0
      z: -0.63288310007
      w: 0.774247364636
  covariance: [0.0038025460386377978, 0.0, 0.0, 0.0, 0.0, 0.0, 0.0, 0.0, 0.0, 0.0, 0.0, 0.0, 0.0, 0.0, 0.0, 0.0, 0.0, 0.0, 0.0, 0.0, 0.0, 0.0, 0.0, 0.0, 0.0, 0.0, 0.0, 0.0, 0.0062277083530641736, -0.00016697563872099545, 0.0, 0.0, 0.0, 0.0, -0.00016697563872099545, 0.0082050403256478943]
---
header: 
  seq: 30
  stamp: 
    secs: 1559535784
    nsecs: 404594256
  frame_id: map
pose: 
  pose: 
    position: 
      x: 11.8894882563
      y: -13.4014264489
      z: 0.0
    orientation: 
      x: 0.0
      y: 0.0
      z: -0.688432409786
      w: 0.725300501279
  covariance: [0.0037192075543647724, 0.0, 0.0, 0.0, 0.0, 0.0, 0.0, 0.0, 0.0, 0.0, 0.0, 0.0, 0.0, 0.0, 0.0, 0.0, 0.0, 0.0, 0.0, 0.0, 0.0, 0.0, 0.0, 0.0, 0.0, 0.0, 0.0, 0.0, 0.0051067727561917662, 0.00033424324462419359, 0.0, 0.0, 0.0, 0.0, 0.00033424324462419359, 0.0087823022104663723]
---
header: 
  seq: 31
  stamp: 
    secs: 1559535801
    nsecs: 950943578
  frame_id: map
pose: 
  pose: 
    position: 
      x: 11.8905236703
      y: -13.420131216
      z: 0.0
    orientation: 
      x: 0.0
      y: 0.0
      z: -0.692494971701
      w: 0.721422701451
  covariance: [0.0036617671473941336, 0.0, 0.0, 0.0, 0.0, 0.0, 0.0, 0.0, 0.0, 0.0, 0.0, 0.0, 0.0, 0.0, 0.0, 0.0, 0.0, 0.0, 0.0, 0.0, 0.0, 0.0, 0.0, 0.0, 0.0, 0.0, 0.0, 0.0, 0.0044879333136338779, 0.00035545880767453138, 0.0, 0.0, 0.0, 0.0, 0.00035545880764610967, 0.0082621757763640339]
---
header: 
  seq: 32
  stamp: 
    secs: 1559535803
    nsecs: 452470276
  frame_id: map
pose: 
  pose: 
    position: 
      x: 11.8670316999
      y: -12.9863906361
      z: 0.0
    orientation: 
      x: 0.0
      y: 0.0
      z: -0.697301515128
      w: 0.716777927255
  covariance: [0.0033445526989286014, 0.0, 0.0, 0.0, 0.0, 0.0, 0.0, 0.0, 0.0, 0.0, 0.0, 0.0, 0.0, 0.0, 0.0, 0.0, 0.0, 0.0, 0.0, 0.0, 0.0, 0.0, 0.0, 0.0, 0.0, 0.0, 0.0, 0.0, 0.0039387060094337959, 1.0222543307219377e-05, 0.0, 0.0, 0.0, 0.0, 1.0222543335641086e-05, 0.00685795366936725]
---
header: 
  seq: 33
  stamp: 
    secs: 1559535804
    nsecs: 953261610
  frame_id: map
pose: 
  pose: 
    position: 
      x: 11.8555472875
      y: -12.5875712913
      z: 0.0
    orientation: 
      x: 0.0
      y: 0.0
      z: -0.700253621813
      w: 0.713894155417
  covariance: [0.0030758440007946234, 0.0, 0.0, 0.0, 0.0, 0.0, 0.0, 0.0, 0.0, 0.0, 0.0, 0.0, 0.0, 0.0, 0.0, 0.0, 0.0, 0.0, 0.0, 0.0, 0.0, 0.0, 0.0, 0.0, 0.0, 0.0, 0.0, 0.0, 0.0035752360326704751, -0.00012450771196261665, 0.0, 0.0, 0.0, 0.0, -0.00012450771196261665, 0.0069337895747545748]
---
header: 
  seq: 34
  stamp: 
    secs: 1559535808
    nsecs: 986214656
  frame_id: map
pose: 
  pose: 
    position: 
      x: 11.8547262332
      y: -12.5369051137
      z: 0.0
    orientation: 
      x: 0.0
      y: 0.0
      z: -0.96495695401
      w: 0.262408225685
  covariance: [0.0058874677629335483, 0.0, 0.0, 0.0, 0.0, 0.0, 0.0, 0.0, 0.0, 0.0, 0.0, 0.0, 0.0, 0.0, 0.0, 0.0, 0.0, 0.0, 0.0, 0.0, 0.0, 0.0, 0.0, 0.0, 0.0, 0.0, 0.0, 0.0, 0.004994549625373418, 0.0010367380624248849, 0.0, 0.0, 0.0, 0.0, 0.0010367380624533066, 0.0083003421037894497]
---
header: 
  seq: 35
  stamp: 
    secs: 1559535810
    nsecs: 391147050
  frame_id: map
pose: 
  pose: 
    position: 
      x: 11.4228285391
      y: -12.5990620654
      z: 0.0
    orientation: 
      x: 0.0
      y: 0.0
      z: 0.999257963511
      w: 0.0385165206056
  covariance: [0.0048387319833285295, 0.0, 0.0, 0.0, 0.0, 0.0, 0.0, 0.0, 0.0, 0.0, 0.0, 0.0, 0.0, 0.0, 0.0, 0.0, 0.0, 0.0, 0.0, 0.0, 0.0, 0.0, 0.0, 0.0, 0.0, 0.0, 0.0, 0.0, 0.0058839182380596086, 0.0011376889241772037, 0.0, 0.0, 0.0, 0.0, 0.0011376889241772037, 0.008481382864610679]
---
header: 
  seq: 36
  stamp: 
    secs: 1559535811
    nsecs: 138375754
  frame_id: map
pose: 
  pose: 
    position: 
      x: 10.975297731
      y: -12.5094450905
      z: 0.0
    orientation: 
      x: 0.0
      y: 0.0
      z: 0.994366935724
      w: 0.105992439061
  covariance: [0.0039236329091603033, 0.0, 0.0, 0.0, 0.0, 0.0, 0.0, 0.0, 0.0, 0.0, 0.0, 0.0, 0.0, 0.0, 0.0, 0.0, 0.0, 0.0, 0.0, 0.0, 0.0, 0.0, 0.0, 0.0, 0.0, 0.0, 0.0, 0.0, 0.0069288497157855003, 0.0011023196508941238, 0.0, 0.0, 0.0, 0.0, 0.0011023196509225455, 0.0084045371442711767]
---
header: 
  seq: 37
  stamp: 
    secs: 1559535811
    nsecs: 704270339
  frame_id: map
pose: 
  pose: 
    position: 
      x: 10.5443139943
      y: -12.3769948498
      z: 0.0
    orientation: 
      x: 0.0
      y: 0.0
      z: 0.99230896003
      w: 0.123785814388
  covariance: [0.0031574726265595635, 0.0, 0.0, 0.0, 0.0, 0.0, 0.0, 0.0, 0.0, 0.0, 0.0, 0.0, 0.0, 0.0, 0.0, 0.0, 0.0, 0.0, 0.0, 0.0, 0.0, 0.0, 0.0, 0.0, 0.0, 0.0, 0.0, 0.0, 0.0081550762313254664, 0.0011955890572630992, 0.0, 0.0, 0.0, 0.0, 0.0011955890572630992, 0.0089094242253782915]
---
header: 
  seq: 38
  stamp: 
    secs: 1559535812
    nsecs: 266034422
  frame_id: map
pose: 
  pose: 
    position: 
      x: 10.1140182617
      y: -12.2513083019
      z: 0.0
    orientation: 
      x: 0.0
      y: 0.0
      z: 0.994578064126
      w: 0.103992664928
  covariance: [0.0023435452117688623, 0.0, 0.0, 0.0, 0.0, 0.0, 0.0, 0.0, 0.0, 0.0, 0.0, 0.0, 0.0, 0.0, 0.0, 0.0, 0.0, 0.0, 0.0, 0.0, 0.0, 0.0, 0.0, 0.0, 0.0, 0.0, 0.0, 0.0, 0.0077183858657029307, 0.0010446677777079857, 0.0, 0.0, 0.0, 0.0, 0.0010446677777079857, 0.009177016253867765]
---
header: 
  seq: 39
  stamp: 
    secs: 1559535812
    nsecs: 822481286
  frame_id: map
pose: 
  pose: 
    position: 
      x: 9.69127749669
      y: -12.1550918636
      z: 0.0
    orientation: 
      x: 0.0
      y: 0.0
      z: 0.998214397219
      w: 0.059732881937
  covariance: [0.0019666519281017684, 0.0, 0.0, 0.0, 0.0, 0.0, 0.0, 0.0, 0.0, 0.0, 0.0, 0.0, 0.0, 0.0, 0.0, 0.0, 0.0, 0.0, 0.0, 0.0, 0.0, 0.0, 0.0, 0.0, 0.0, 0.0, 0.0, 0.0, 0.0077183473326085557, 0.0010525058935141837, 0.0, 0.0, 0.0, 0.0, 0.0010525058935141837, 0.0089466936285802177]
---
header: 
  seq: 40
  stamp: 
    secs: 1559535813
    nsecs: 388500876
  frame_id: map
pose: 
  pose: 
    position: 
      x: 9.23545436276
      y: -12.1327752892
      z: 0.0
    orientation: 
      x: 0.0
      y: 0.0
      z: -0.999495194018
      w: 0.0317703814097
  covariance: [0.0017906608487594585, 0.0, 0.0, 0.0, 0.0, 0.0, 0.0, 0.0, 0.0, 0.0, 0.0, 0.0, 0.0, 0.0, 0.0, 0.0, 0.0, 0.0, 0.0, 0.0, 0.0, 0.0, 0.0, 0.0, 0.0, 0.0, 0.0, 0.0, 0.0070408192495434539, 0.00097501227649311837, 0.0, 0.0, 0.0, 0.0, 0.00097501227647890751, 0.0095025043144056354]
---
header: 
  seq: 41
  stamp: 
    secs: 1559535813
    nsecs: 952703726
  frame_id: map
pose: 
  pose: 
    position: 
      x: 8.79670919843
      y: -12.1711977963
      z: 0.0
    orientation: 
      x: 0.0
      y: 0.0
      z: -0.99468430369
      w: 0.102971530011
  covariance: [0.0016229370433717676, 0.0, 0.0, 0.0, 0.0, 0.0, 0.0, 0.0, 0.0, 0.0, 0.0, 0.0, 0.0, 0.0, 0.0, 0.0, 0.0, 0.0, 0.0, 0.0, 0.0, 0.0, 0.0, 0.0, 0.0, 0.0, 0.0, 0.0, 0.0059960730540960802, 0.00089356998245754174, 0.0, 0.0, 0.0, 0.0, 0.00089356998248596344, 0.0097667946463471586]
---
header: 
  seq: 42
  stamp: 
    secs: 1559535814
    nsecs: 517079915
  frame_id: map
pose: 
  pose: 
    position: 
      x: 8.36812677678
      y: -12.264615315
      z: 0.0
    orientation: 
      x: 0.0
      y: 0.0
      z: -0.990005022266
      w: 0.141032109425
  covariance: [0.0016202142772815413, 0.0, 0.0, 0.0, 0.0, 0.0, 0.0, 0.0, 0.0, 0.0, 0.0, 0.0, 0.0, 0.0, 0.0, 0.0, 0.0, 0.0, 0.0, 0.0, 0.0, 0.0, 0.0, 0.0, 0.0, 0.0, 0.0, 0.0, 0.0054812076350047095, 0.00052370230300274087, 0.0, 0.0, 0.0, 0.0, 0.00052370230301695172, 0.0091848155730870993]
---
header: 
  seq: 43
  stamp: 
    secs: 1559535815
    nsecs: 267108733
  frame_id: map
pose: 
  pose: 
    position: 
      x: 7.86319525985
      y: -12.4098523174
      z: 0.0
    orientation: 
      x: 0.0
      y: 0.0
      z: -0.989261161368
      w: 0.146158662449
  covariance: [0.0020332528431079833, 0.0, 0.0, 0.0, 0.0, 0.0, 0.0, 0.0, 0.0, 0.0, 0.0, 0.0, 0.0, 0.0, 0.0, 0.0, 0.0, 0.0, 0.0, 0.0, 0.0, 0.0, 0.0, 0.0, 0.0, 0.0, 0.0, 0.0, 0.0054765222015553507, 0.00021736295543509792, 0.0, 0.0, 0.0, 0.0, 0.00021736295543509792, 0.009313797846119588]
---
header: 
  seq: 44
  stamp: 
    secs: 1559535815
    nsecs: 830882898
  frame_id: map
pose: 
  pose: 
    position: 
      x: 7.4310220874
      y: -12.5234498572
      z: 0.0
    orientation: 
      x: 0.0
      y: 0.0
      z: -0.994402916279
      w: 0.105654342535
  covariance: [0.0019184281865013695, 0.0, 0.0, 0.0, 0.0, 0.0, 0.0, 0.0, 0.0, 0.0, 0.0, 0.0, 0.0, 0.0, 0.0, 0.0, 0.0, 0.0, 0.0, 0.0, 0.0, 0.0, 0.0, 0.0, 0.0, 0.0, 0.0, 0.0, 0.0055275461880225753, -7.510733089391242e-05, 0.0, 0.0, 0.0, 0.0, -7.5107330879701565e-05, 0.009635228198880897]
---
header: 
  seq: 45
  stamp: 
    secs: 1559535816
    nsecs: 395573101
  frame_id: map
pose: 
  pose: 
    position: 
      x: 6.98702454653
      y: -12.5964587388
      z: 0.0
    orientation: 
      x: 0.0
      y: 0.0
      z: -0.997537442855
      w: 0.070135940162
  covariance: [0.0019487137096843247, 0.0, 0.0, 0.0, 0.0, 0.0, 0.0, 0.0, 0.0, 0.0, 0.0, 0.0, 0.0, 0.0, 0.0, 0.0, 0.0, 0.0, 0.0, 0.0, 0.0, 0.0, 0.0, 0.0, 0.0, 0.0, 0.0, 0.0, 0.0060292930765888184, -0.00033028517592358634, 0.0, 0.0, 0.0, 0.0, -0.00033028517592358634, 0.0098737226270863756]
---
header: 
  seq: 46
  stamp: 
    secs: 1559535816
    nsecs: 949805207
  frame_id: map
pose: 
  pose: 
    position: 
      x: 6.55288916668
      y: -12.6312327069
      z: 0.0
    orientation: 
      x: 0.0
      y: 0.0
      z: -0.999529522379
      w: 0.0306713855815
  covariance: [0.002036645817046791, 0.0, 0.0, 0.0, 0.0, 0.0, 0.0, 0.0, 0.0, 0.0, 0.0, 0.0, 0.0, 0.0, 0.0, 0.0, 0.0, 0.0, 0.0, 0.0, 0.0, 0.0, 0.0, 0.0, 0.0, 0.0, 0.0, 0.0, 0.0068823344710065518, -0.00058662072607390179, 0.0, 0.0, 0.0, 0.0, -0.00058662072607390179, 0.0094568797386873765]
---
header: 
  seq: 47
  stamp: 
    secs: 1559535817
    nsecs: 518076557
  frame_id: map
pose: 
  pose: 
    position: 
      x: 6.10299945357
      y: -12.644401236
      z: 0.0
    orientation: 
      x: 0.0
      y: 0.0
      z: -0.999995178475
      w: 0.00310532217533
  covariance: [0.002222776960607777, 0.0, 0.0, 0.0, 0.0, 0.0, 0.0, 0.0, 0.0, 0.0, 0.0, 0.0, 0.0, 0.0, 0.0, 0.0, 0.0, 0.0, 0.0, 0.0, 0.0, 0.0, 0.0, 0.0, 0.0, 0.0, 0.0, 0.0, 0.0086044940265946578, -0.00014564855877775064, 0.0, 0.0, 0.0, 0.0, -0.0001456485587919615, 0.0087104145931509724]
---
header: 
  seq: 48
  stamp: 
    secs: 1559535818
    nsecs: 79360620
  frame_id: map
pose: 
  pose: 
    position: 
      x: 5.66104248822
      y: -12.6213993084
      z: 0.0
    orientation: 
      x: 0.0
      y: 0.0
      z: 0.999930357878
      w: 0.0118016691326
  covariance: [0.0022335235039187178, 0.0, 0.0, 0.0, 0.0, 0.0, 0.0, 0.0, 0.0, 0.0, 0.0, 0.0, 0.0, 0.0, 0.0, 0.0, 0.0, 0.0, 0.0, 0.0, 0.0, 0.0, 0.0, 0.0, 0.0, 0.0, 0.0, 0.0, 0.009937018331344907, -0.000350300721656763, 0.0, 0.0, 0.0, 0.0, -0.000350300721656763, 0.0083329944609811871]
---
header: 
  seq: 49
  stamp: 
    secs: 1559535818
    nsecs: 640884359
  frame_id: map
pose: 
  pose: 
    position: 
      x: 5.22658637345
      y: -12.5885017367
      z: 0.0
    orientation: 
      x: 0.0
      y: 0.0
      z: 0.999478106656
      w: 0.0323034721844
  covariance: [0.00196639966859444, 0.0, 0.0, 0.0, 0.0, 0.0, 0.0, 0.0, 0.0, 0.0, 0.0, 0.0, 0.0, 0.0, 0.0, 0.0, 0.0, 0.0, 0.0, 0.0, 0.0, 0.0, 0.0, 0.0, 0.0, 0.0, 0.0, 0.0, 0.01028657260740018, -6.508683006257398e-05, 0.0, 0.0, 0.0, 0.0, -6.508683006257398e-05, 0.008335336531031903]
---
header: 
  seq: 50
  stamp: 
    secs: 1559535819
    nsecs: 198802616
  frame_id: map
pose: 
  pose: 
    position: 
      x: 4.7858870808
      y: -12.5447696904
      z: 0.0
    orientation: 
      x: 0.0
      y: 0.0
      z: 0.999722663957
      w: 0.023549844403
  covariance: [0.0020843140836911034, 0.0, 0.0, 0.0, 0.0, 0.0, 0.0, 0.0, 0.0, 0.0, 0.0, 0.0, 0.0, 0.0, 0.0, 0.0, 0.0, 0.0, 0.0, 0.0, 0.0, 0.0, 0.0, 0.0, 0.0, 0.0, 0.0, 0.0, 0.011833043161527253, -7.8973523532233032e-05, 0.0, 0.0, 0.0, 0.0, -7.8973523532233032e-05, 0.0075660466466201887]
---
header: 
  seq: 51
  stamp: 
    secs: 1559535819
    nsecs: 767543652
  frame_id: map
pose: 
  pose: 
    position: 
      x: 4.33210645638
      y: -12.5208684505
      z: 0.0
    orientation: 
      x: 0.0
      y: 0.0
      z: 0.999990689363
      w: 0.00431522727041
  covariance: [0.0022109610214895012, 0.0, 0.0, 0.0, 0.0, 0.0, 0.0, 0.0, 0.0, 0.0, 0.0, 0.0, 0.0, 0.0, 0.0, 0.0, 0.0, 0.0, 0.0, 0.0, 0.0, 0.0, 0.0, 0.0, 0.0, 0.0, 0.0, 0.0, 0.012261549376338755, 9.0495137200997288e-05, 0.0, 0.0, 0.0, 0.0, 9.0495137200997288e-05, 0.0073180604057852469]
---
header: 
  seq: 52
  stamp: 
    secs: 1559535820
    nsecs: 337189724
  frame_id: map
pose: 
  pose: 
    position: 
      x: 3.87710086688
      y: -12.5275549605
      z: 0.0
    orientation: 
      x: 0.0
      y: 0.0
      z: -0.999662006105
      w: 0.0259975681428
  covariance: [0.0021313377153254673, 0.0, 0.0, 0.0, 0.0, 0.0, 0.0, 0.0, 0.0, 0.0, 0.0, 0.0, 0.0, 0.0, 0.0, 0.0, 0.0, 0.0, 0.0, 0.0, 0.0, 0.0, 0.0, 0.0, 0.0, 0.0, 0.0, 0.0, 0.012822823139872161, 0.00029280382587428395, 0.0, 0.0, 0.0, 0.0, 0.00029280382587428395, 0.007035344620528323]
---
header: 
  seq: 53
  stamp: 
    secs: 1559535820
    nsecs: 891815847
  frame_id: map
pose: 
  pose: 
    position: 
      x: 3.43651614842
      y: -12.5494798335
      z: 0.0
    orientation: 
      x: 0.0
      y: 0.0
      z: -0.998818743964
      w: 0.0485913233594
  covariance: [0.0020404535667824302, 0.0, 0.0, 0.0, 0.0, 0.0, 0.0, 0.0, 0.0, 0.0, 0.0, 0.0, 0.0, 0.0, 0.0, 0.0, 0.0, 0.0, 0.0, 0.0, 0.0, 0.0, 0.0, 0.0, 0.0, 0.0, 0.0, 0.0, 0.012512544908827077, 9.2291097422459939e-05, 0.0, 0.0, 0.0, 0.0, 9.2291097422459939e-05, 0.0067843414712776403]
---
header: 
  seq: 54
  stamp: 
    secs: 1559535821
    nsecs: 444910573
  frame_id: map
pose: 
  pose: 
    position: 
      x: 2.99776492073
      y: -12.5884600431
      z: 0.0
    orientation: 
      x: 0.0
      y: 0.0
      z: -0.99881189574
      w: 0.0487318882099
  covariance: [0.0018019601202791567, 0.0, 0.0, 0.0, 0.0, 0.0, 0.0, 0.0, 0.0, 0.0, 0.0, 0.0, 0.0, 0.0, 0.0, 0.0, 0.0, 0.0, 0.0, 0.0, 0.0, 0.0, 0.0, 0.0, 0.0, 0.0, 0.0, 0.0, 0.010792962131998691, -4.7800512986217717e-05, 0.0, 0.0, 0.0, 0.0, -4.7800512986217717e-05, 0.0063345917440538078]
---
header: 
  seq: 55
  stamp: 
    secs: 1559535822
    nsecs: 15017664
  frame_id: map
pose: 
  pose: 
    position: 
      x: 2.54221592099
      y: -12.6319209068
      z: 0.0
    orientation: 
      x: 0.0
      y: 0.0
      z: -0.998102502298
      w: 0.0615743039462
  covariance: [0.001714212077121484, 0.0, 0.0, 0.0, 0.0, 0.0, 0.0, 0.0, 0.0, 0.0, 0.0, 0.0, 0.0, 0.0, 0.0, 0.0, 0.0, 0.0, 0.0, 0.0, 0.0, 0.0, 0.0, 0.0, 0.0, 0.0, 0.0, 0.0, 0.0093612027438506364, -4.07420508463771e-05, 0.0, 0.0, 0.0, 0.0, -4.07420508463771e-05, 0.0059194016021375147]
---
header: 
  seq: 56
  stamp: 
    secs: 1559535822
    nsecs: 578558486
  frame_id: map
pose: 
  pose: 
    position: 
      x: 2.10408587532
      y: -12.6769404859
      z: 0.0
    orientation: 
      x: 0.0
      y: 0.0
      z: -0.99830776941
      w: 0.0581515050224
  covariance: [0.0016393384386702025, 0.0, 0.0, 0.0, 0.0, 0.0, 0.0, 0.0, 0.0, 0.0, 0.0, 0.0, 0.0, 0.0, 0.0, 0.0, 0.0, 0.0, 0.0, 0.0, 0.0, 0.0, 0.0, 0.0, 0.0, 0.0, 0.0, 0.0, 0.0090804594782160977, -3.9362497263042626e-05, 0.0, 0.0, 0.0, 0.0, -3.9362497263042626e-05, 0.0054077078936438112]
---
header: 
  seq: 57
  stamp: 
    secs: 1559535823
    nsecs: 139842548
  frame_id: map
pose: 
  pose: 
    position: 
      x: 1.66280382522
      y: -12.7137550804
      z: 0.0
    orientation: 
      x: 0.0
      y: 0.0
      z: -0.999377105305
      w: 0.0352902449886
  covariance: [0.0016268585007494351, 0.0, 0.0, 0.0, 0.0, 0.0, 0.0, 0.0, 0.0, 0.0, 0.0, 0.0, 0.0, 0.0, 0.0, 0.0, 0.0, 0.0, 0.0, 0.0, 0.0, 0.0, 0.0, 0.0, 0.0, 0.0, 0.0, 0.0, 0.0089068594793502067, -0.00015670434065626795, 0.0, 0.0, 0.0, 0.0, -0.00015670434065626795, 0.0050991831450379454]
---
header: 
  seq: 58
  stamp: 
    secs: 1559535823
    nsecs: 707535208
  frame_id: map
pose: 
  pose: 
    position: 
      x: 1.19949041626
      y: -12.7204896931
      z: 0.0
    orientation: 
      x: 0.0
      y: 0.0
      z: -0.999999728127
      w: 0.00073739147734
  covariance: [0.0018019957195535498, 0.0, 0.0, 0.0, 0.0, 0.0, 0.0, 0.0, 0.0, 0.0, 0.0, 0.0, 0.0, 0.0, 0.0, 0.0, 0.0, 0.0, 0.0, 0.0, 0.0, 0.0, 0.0, 0.0, 0.0, 0.0, 0.0, 0.0, 0.0088815471189243548, -0.00026448061392305198, 0.0, 0.0, 0.0, 0.0, -0.00026448061392305198, 0.0050337081560425465]
---
header: 
  seq: 59
  stamp: 
    secs: 1559535824
    nsecs: 259938905
  frame_id: map
pose: 
  pose: 
    position: 
      x: 0.765316854102
      y: -12.7006558797
      z: 0.0
    orientation: 
      x: 0.0
      y: 0.0
      z: 0.999296451612
      w: 0.0375046903233
  covariance: [0.001906580820885581, 0.0, 0.0, 0.0, 0.0, 0.0, 0.0, 0.0, 0.0, 0.0, 0.0, 0.0, 0.0, 0.0, 0.0, 0.0, 0.0, 0.0, 0.0, 0.0, 0.0, 0.0, 0.0, 0.0, 0.0, 0.0, 0.0, 0.0, 0.010641780752266296, -0.00051589324611702944, 0.0, 0.0, 0.0, 0.0, -0.00051589324611702944, 0.0051504107269428404]
---
header: 
  seq: 60
  stamp: 
    secs: 1559535824
    nsecs: 829170294
  frame_id: map
pose: 
  pose: 
    position: 
      x: 0.322393626439
      y: -12.6507115553
      z: 0.0
    orientation: 
      x: 0.0
      y: 0.0
      z: 0.997243815113
      w: 0.0741941589213
  covariance: [0.0020631038391251723, 0.0, 0.0, 0.0, 0.0, 0.0, 0.0, 0.0, 0.0, 0.0, 0.0, 0.0, 0.0, 0.0, 0.0, 0.0, 0.0, 0.0, 0.0, 0.0, 0.0, 0.0, 0.0, 0.0, 0.0, 0.0, 0.0, 0.0, 0.012078429457865364, -0.00029368150343762629, 0.0, 0.0, 0.0, 0.0, -0.00029368150343762629, 0.0051437916132514331]
---
header: 
  seq: 61
  stamp: 
    secs: 1559535825
    nsecs: 391122384
  frame_id: map
pose: 
  pose: 
    position: 
      x: -0.10206616557
      y: -12.5557878776
      z: 0.0
    orientation: 
      x: 0.0
      y: 0.0
      z: 0.994698397372
      w: 0.10283529679
  covariance: [0.0018667838024494445, 0.0, 0.0, 0.0, 0.0, 0.0, 0.0, 0.0, 0.0, 0.0, 0.0, 0.0, 0.0, 0.0, 0.0, 0.0, 0.0, 0.0, 0.0, 0.0, 0.0, 0.0, 0.0, 0.0, 0.0, 0.0, 0.0, 0.0, 0.011910132068418747, -0.00021269104201782464, 0.0, 0.0, 0.0, 0.0, -0.0002126910420176026, 0.0049498399571636055]
---
header: 
  seq: 62
  stamp: 
    secs: 1559535826
    nsecs: 142454588
  frame_id: map
pose: 
  pose: 
    position: 
      x: -0.536512275894
      y: -12.426921429
      z: 0.0
    orientation: 
      x: 0.0
      y: 0.0
      z: 0.988806728504
      w: 0.149202056507
  covariance: [0.0017551015210026538, 0.0, 0.0, 0.0, 0.0, 0.0, 0.0, 0.0, 0.0, 0.0, 0.0, 0.0, 0.0, 0.0, 0.0, 0.0, 0.0, 0.0, 0.0, 0.0, 0.0, 0.0, 0.0, 0.0, 0.0, 0.0, 0.0, 0.0, 0.010042805170725417, -0.00021084486156443074, 0.0, 0.0, 0.0, 0.0, -0.00021084486156443074, 0.0050935149837347824]
---
header: 
  seq: 63
  stamp: 
    secs: 1559535827
    nsecs: 922081043
  frame_id: map
pose: 
  pose: 
    position: 
      x: -0.953945016753
      y: -12.256049672
      z: 0.0
    orientation: 
      x: 0.0
      y: 0.0
      z: 0.978966535839
      w: 0.204020885467
  covariance: [0.0016802524840479097, 0.0, 0.0, 0.0, 0.0, 0.0, 0.0, 0.0, 0.0, 0.0, 0.0, 0.0, 0.0, 0.0, 0.0, 0.0, 0.0, 0.0, 0.0, 0.0, 0.0, 0.0, 0.0, 0.0, 0.0, 0.0, 0.0, 0.0, 0.0091610477783624251, 4.3220824691375468e-05, 0.0, 0.0, 0.0, 0.0, 4.3220824691375468e-05, 0.0049185656871104143]
---
header: 
  seq: 64
  stamp: 
    secs: 1559535833
    nsecs: 454700035
  frame_id: map
pose: 
  pose: 
    position: 
      x: -1.0927926017
      y: -12.1786840112
      z: 0.0
    orientation: 
      x: 0.0
      y: 0.0
      z: 0.742748565348
      w: 0.669570435932
  covariance: [0.0071623181148218308, 0.0, 0.0, 0.0, 0.0, 0.0, 0.0, 0.0, 0.0, 0.0, 0.0, 0.0, 0.0, 0.0, 0.0, 0.0, 0.0, 0.0, 0.0, 0.0, 0.0, 0.0, 0.0, 0.0, 0.0, 0.0, 0.0, 0.0, 0.0095609103242604056, -0.0022940114813301219, 0.0, 0.0, 0.0, 0.0, -0.0022940114813301219, 0.0079167582641766245]
---
header: 
  seq: 65
  stamp: 
    secs: 1559535847
    nsecs: 704422520
  frame_id: map
pose: 
  pose: 
    position: 
      x: -1.14148031365
      y: -11.7411692395
      z: 0.0
    orientation: 
      x: 0.0
      y: 0.0
      z: 0.697948923155
      w: 0.71614754113
  covariance: [0.0065406715776037882, 0.0, 0.0, 0.0, 0.0, 0.0, 0.0, 0.0, 0.0, 0.0, 0.0, 0.0, 0.0, 0.0, 0.0, 0.0, 0.0, 0.0, 0.0, 0.0, 0.0, 0.0, 0.0, 0.0, 0.0, 0.0, 0.0, 0.0, 0.0066809923200288404, -0.0010731283078171149, 0.0, 0.0, 0.0, 0.0, -0.0010731283078171149, 0.0076816238692595821]
---
header: 
  seq: 66
  stamp: 
    secs: 1559535868
    nsecs: 338043281
  frame_id: map
pose: 
  pose: 
    position: 
      x: -1.13817770378
      y: -11.7560679285
      z: 0.0
    orientation: 
      x: 0.0
      y: 0.0
      z: 0.709768362627
      w: 0.704435143511
  covariance: [0.0057789912594940328, 0.0, 0.0, 0.0, 0.0, 0.0, 0.0, 0.0, 0.0, 0.0, 0.0, 0.0, 0.0, 0.0, 0.0, 0.0, 0.0, 0.0, 0.0, 0.0, 0.0, 0.0, 0.0, 0.0, 0.0, 0.0, 0.0, 0.0, 0.0049136605558407617, -0.00098756296235432187, 0.0, 0.0, 0.0, 0.0, -0.00098756296235432187, 0.0065599469236322806]
---
header: 
  seq: 67
  stamp: 
    secs: 1559535869
    nsecs: 840397672
  frame_id: map
pose: 
  pose: 
    position: 
      x: -1.14224833719
      y: -12.2065037052
      z: 0.0
    orientation: 
      x: 0.0
      y: 0.0
      z: 0.71097258541
      w: 0.703219725829
  covariance: [0.0056504443456807767, 0.0, 0.0, 0.0, 0.0, 0.0, 0.0, 0.0, 0.0, 0.0, 0.0, 0.0, 0.0, 0.0, 0.0, 0.0, 0.0, 0.0, 0.0, 0.0, 0.0, 0.0, 0.0, 0.0, 0.0, 0.0, 0.0, 0.0, 0.0041849260160981257, -0.001084332193256712, 0.0, 0.0, 0.0, 0.0, -0.001084332193256712, 0.0067429048681369496]
---
header: 
  seq: 68
  stamp: 
    secs: 1559535873
    nsecs: 596592331
  frame_id: map
pose: 
  pose: 
    position: 
      x: -1.1432174576
      y: -12.4580572091
      z: 0.0
    orientation: 
      x: 0.0
      y: 0.0
      z: 0.49347389688
      w: 0.869760606775
  covariance: [0.01001845056849128, 0.0, 0.0, 0.0, 0.0, 0.0, 0.0, 0.0, 0.0, 0.0, 0.0, 0.0, 0.0, 0.0, 0.0, 0.0, 0.0, 0.0, 0.0, 0.0, 0.0, 0.0, 0.0, 0.0, 0.0, 0.0, 0.0, 0.0, 0.0090043201690749482, -0.001331925504352403, 0.0, 0.0, 0.0, 0.0, -0.001331925504352403, 0.0078707252625357313]
---
header: 
  seq: 69
  stamp: 
    secs: 1559535875
    nsecs: 657398000
  frame_id: map
pose: 
  pose: 
    position: 
      x: -0.8291199667
      y: -12.3358713375
      z: 0.0
    orientation: 
      x: 0.0
      y: 0.0
      z: 0.0532711424043
      w: 0.998580084614
  covariance: [0.0075261738574158655, 0.0, 0.0, 0.0, 0.0, 0.0, 0.0, 0.0, 0.0, 0.0, 0.0, 0.0, 0.0, 0.0, 0.0, 0.0, 0.0, 0.0, 0.0, 0.0, 0.0, 0.0, 0.0, 0.0, 0.0, 0.0, 0.0, 0.0, 0.0086879641916386488, -6.017587653802646e-05, 0.0, 0.0, 0.0, 0.0, -6.017587653802646e-05, 0.0077437932259829178]
---
header: 
  seq: 70
  stamp: 
    secs: 1559535876
    nsecs: 495761777
  frame_id: map
pose: 
  pose: 
    position: 
      x: -0.385092111572
      y: -12.3449851886
      z: 0.0
    orientation: 
      x: 0.0
      y: 0.0
      z: -0.0288669806481
      w: 0.999583261879
  covariance: [0.0062963234832817978, 0.0, 0.0, 0.0, 0.0, 0.0, 0.0, 0.0, 0.0, 0.0, 0.0, 0.0, 0.0, 0.0, 0.0, 0.0, 0.0, 0.0, 0.0, 0.0, 0.0, 0.0, 0.0, 0.0, 0.0, 0.0, 0.0, 0.0, 0.0095095289451707626, 0.0001010833690813846, 0.0, 0.0, 0.0, 0.0, 0.00010108336908049642, 0.0077814839288899628]
---
header: 
  seq: 71
  stamp: 
    secs: 1559535877
    nsecs: 158342000
  frame_id: map
pose: 
  pose: 
    position: 
      x: 0.0804518567763
      y: -12.3903373102
      z: 0.0
    orientation: 
      x: 0.0
      y: 0.0
      z: -0.0444959394381
      w: 0.999009565206
  covariance: [0.0058277238877418661, 0.0, 0.0, 0.0, 0.0, 0.0, 0.0, 0.0, 0.0, 0.0, 0.0, 0.0, 0.0, 0.0, 0.0, 0.0, 0.0, 0.0, 0.0, 0.0, 0.0, 0.0, 0.0, 0.0, 0.0, 0.0, 0.0, 0.0, 0.011764086495690941, 8.133191808884808e-05, 0.0, 0.0, 0.0, 0.0, 8.133191808884808e-05, 0.0074780858070245719]
---
header: 
  seq: 72
  stamp: 
    secs: 1559535877
    nsecs: 717155958
  frame_id: map
pose: 
  pose: 
    position: 
      x: 0.518293313681
      y: -12.4541960763
      z: 0.0
    orientation: 
      x: 0.0
      y: 0.0
      z: -0.0665830819581
      w: 0.997780884361
  covariance: [0.0046030847108837186, 0.0, 0.0, 0.0, 0.0, 0.0, 0.0, 0.0, 0.0, 0.0, 0.0, 0.0, 0.0, 0.0, 0.0, 0.0, 0.0, 0.0, 0.0, 0.0, 0.0, 0.0, 0.0, 0.0, 0.0, 0.0, 0.0, 0.0, 0.013450793459686947, -0.00030125678262610007, 0.0, 0.0, 0.0, 0.0, -0.00030125678262610007, 0.0073277042181528074]
---
header: 
  seq: 73
  stamp: 
    secs: 1559535878
    nsecs: 282806865
  frame_id: map
pose: 
  pose: 
    position: 
      x: 0.972752358107
      y: -12.5347090344
      z: 0.0
    orientation: 
      x: 0.0
      y: 0.0
      z: -0.0756050292175
      w: 0.997137843809
  covariance: [0.0035395350369548987, 0.0, 0.0, 0.0, 0.0, 0.0, 0.0, 0.0, 0.0, 0.0, 0.0, 0.0, 0.0, 0.0, 0.0, 0.0, 0.0, 0.0, 0.0, 0.0, 0.0, 0.0, 0.0, 0.0, 0.0, 0.0, 0.0, 0.0, 0.014503832397485459, -0.00064971783760147566, 0.0, 0.0, 0.0, 0.0, -0.0006497178375996993, 0.0072084731452386266]
---
header: 
  seq: 74
  stamp: 
    secs: 1559535878
    nsecs: 843256891
  frame_id: map
pose: 
  pose: 
    position: 
      x: 1.41788715282
      y: -12.6083950901
      z: 0.0
    orientation: 
      x: 0.0
      y: 0.0
      z: -0.0549329895608
      w: 0.998490043344
  covariance: [0.0030706382385752296, 0.0, 0.0, 0.0, 0.0, 0.0, 0.0, 0.0, 0.0, 0.0, 0.0, 0.0, 0.0, 0.0, 0.0, 0.0, 0.0, 0.0, 0.0, 0.0, 0.0, 0.0, 0.0, 0.0, 0.0, 0.0, 0.0, 0.0, 0.016083251210198764, -0.00061605006663277833, 0.0, 0.0, 0.0, 0.0, -0.00061605006663277833, 0.007173685215329283]
---
header: 
  seq: 75
  stamp: 
    secs: 1559535879
    nsecs: 406862380
  frame_id: map
pose: 
  pose: 
    position: 
      x: 1.86134927359
      y: -12.6619057401
      z: 0.0
    orientation: 
      x: 0.0
      y: 0.0
      z: -0.0301726001347
      w: 0.999544703453
  covariance: [0.002786641642465398, 0.0, 0.0, 0.0, 0.0, 0.0, 0.0, 0.0, 0.0, 0.0, 0.0, 0.0, 0.0, 0.0, 0.0, 0.0, 0.0, 0.0, 0.0, 0.0, 0.0, 0.0, 0.0, 0.0, 0.0, 0.0, 0.0, 0.0, 0.016724268056171082, -0.00086183047026228349, 0.0, 0.0, 0.0, 0.0, -0.00086183047026228349, 0.0065949911387847759]
---
header: 
  seq: 76
  stamp: 
    secs: 1559535879
    nsecs: 964957643
  frame_id: map
pose: 
  pose: 
    position: 
      x: 2.30195533879
      y: -12.6721934657
      z: 0.0
    orientation: 
      x: 0.0
      y: 0.0
      z: -0.0122865732581
      w: 0.99992451721
  covariance: [0.0023529485087833207, 0.0, 0.0, 0.0, 0.0, 0.0, 0.0, 0.0, 0.0, 0.0, 0.0, 0.0, 0.0, 0.0, 0.0, 0.0, 0.0, 0.0, 0.0, 0.0, 0.0, 0.0, 0.0, 0.0, 0.0, 0.0, 0.0, 0.0, 0.016635718813035143, -0.001422142272762564, 0.0, 0.0, 0.0, 0.0, -0.001422142272762564, 0.0063479125361977752]
---
header: 
  seq: 77
  stamp: 
    secs: 1559535880
    nsecs: 531671593
  frame_id: map
pose: 
  pose: 
    position: 
      x: 2.75264630662
      y: -12.6836015097
      z: 0.0
    orientation: 
      x: 0.0
      y: 0.0
      z: -0.00742483094671
      w: 0.999972435563
  covariance: [0.0021934284616846119, 0.0, 0.0, 0.0, 0.0, 0.0, 0.0, 0.0, 0.0, 0.0, 0.0, 0.0, 0.0, 0.0, 0.0, 0.0, 0.0, 0.0, 0.0, 0.0, 0.0, 0.0, 0.0, 0.0, 0.0, 0.0, 0.0, 0.0, 0.017112220024835218, -0.0018726567701942932, 0.0, 0.0, 0.0, 0.0, -0.0018726567701942932, 0.0061146824434690199]
---
header: 
  seq: 78
  stamp: 
    secs: 1559535881
    nsecs: 94881399
  frame_id: map
pose: 
  pose: 
    position: 
      x: 3.19842843284
      y: -12.689139638
      z: 0.0
    orientation: 
      x: 0.0
      y: 0.0
      z: -0.00715138724941
      w: 0.999974428503
  covariance: [0.0020060558987719823, 0.0, 0.0, 0.0, 0.0, 0.0, 0.0, 0.0, 0.0, 0.0, 0.0, 0.0, 0.0, 0.0, 0.0, 0.0, 0.0, 0.0, 0.0, 0.0, 0.0, 0.0, 0.0, 0.0, 0.0, 0.0, 0.0, 0.0, 0.015760338406302456, -0.0018730979355070774, 0.0, 0.0, 0.0, 0.0, -0.0018730979355070774, 0.0060369616373919088]
---
header: 
  seq: 79
  stamp: 
    secs: 1559535881
    nsecs: 657369842
  frame_id: map
pose: 
  pose: 
    position: 
      x: 3.63900671386
      y: -12.6950388913
      z: 0.0
    orientation: 
      x: 0.0
      y: 0.0
      z: 0.000928420156216
      w: 0.999999569018
  covariance: [0.0018788133933389354, 0.0, 0.0, 0.0, 0.0, 0.0, 0.0, 0.0, 0.0, 0.0, 0.0, 0.0, 0.0, 0.0, 0.0, 0.0, 0.0, 0.0, 0.0, 0.0, 0.0, 0.0, 0.0, 0.0, 0.0, 0.0, 0.0, 0.0, 0.014837340718373072, -0.0018559623755368402, 0.0, 0.0, 0.0, 0.0, -0.0018559623755368402, 0.0054050142593581457]
---
header: 
  seq: 80
  stamp: 
    secs: 1559535882
    nsecs: 234955239
  frame_id: map
pose: 
  pose: 
    position: 
      x: 4.09295538331
      y: -12.7044649626
      z: 0.0
    orientation: 
      x: 0.0
      y: 0.0
      z: 0.0059017490783
      w: 0.999982584527
  covariance: [0.0017851041096591433, 0.0, 0.0, 0.0, 0.0, 0.0, 0.0, 0.0, 0.0, 0.0, 0.0, 0.0, 0.0, 0.0, 0.0, 0.0, 0.0, 0.0, 0.0, 0.0, 0.0, 0.0, 0.0, 0.0, 0.0, 0.0, 0.0, 0.0, 0.013622584181099696, -0.0015983830380298515, 0.0, 0.0, 0.0, 0.0, -0.0015983830380298515, 0.005024455328200483]
---
header: 
  seq: 81
  stamp: 
    secs: 1559535882
    nsecs: 782597405
  frame_id: map
pose: 
  pose: 
    position: 
      x: 4.52754497626
      y: -12.7026544593
      z: 0.0
    orientation: 
      x: 0.0
      y: 0.0
      z: -0.00310208012235
      w: 0.999995188538
  covariance: [0.0016587835278812414, 0.0, 0.0, 0.0, 0.0, 0.0, 0.0, 0.0, 0.0, 0.0, 0.0, 0.0, 0.0, 0.0, 0.0, 0.0, 0.0, 0.0, 0.0, 0.0, 0.0, 0.0, 0.0, 0.0, 0.0, 0.0, 0.0, 0.0, 0.012848212960452127, -0.0015942028357327405, 0.0, 0.0, 0.0, 0.0, -0.0015942028357327405, 0.0047983213555989682]
---
header: 
  seq: 82
  stamp: 
    secs: 1559535883
    nsecs: 344418487
  frame_id: map
pose: 
  pose: 
    position: 
      x: 4.97879766082
      y: -12.7080818365
      z: 0.0
    orientation: 
      x: 0.0
      y: 0.0
      z: 0.0129371637047
      w: 0.999916311396
  covariance: [0.0016896590063399794, 0.0, 0.0, 0.0, 0.0, 0.0, 0.0, 0.0, 0.0, 0.0, 0.0, 0.0, 0.0, 0.0, 0.0, 0.0, 0.0, 0.0, 0.0, 0.0, 0.0, 0.0, 0.0, 0.0, 0.0, 0.0, 0.0, 0.0, 0.01329118028658317, -0.001666734898079321, 0.0, 0.0, 0.0, 0.0, -0.0016667348980722156, 0.0045017834322827978]
---
header: 
  seq: 83
  stamp: 
    secs: 1559535883
    nsecs: 908078645
  frame_id: map
pose: 
  pose: 
    position: 
      x: 5.41652018381
      y: -12.7102182303
      z: 0.0
    orientation: 
      x: 0.0
      y: 0.0
      z: 0.0107708923605
      w: 0.999941992256
  covariance: [0.0017071792177750741, 0.0, 0.0, 0.0, 0.0, 0.0, 0.0, 0.0, 0.0, 0.0, 0.0, 0.0, 0.0, 0.0, 0.0, 0.0, 0.0, 0.0, 0.0, 0.0, 0.0, 0.0, 0.0, 0.0, 0.0, 0.0, 0.0, 0.0, 0.012270482520211453, -0.0017555327458646803, 0.0, 0.0, 0.0, 0.0, -0.0017555327458646803, 0.0044451085483226491]
---
header: 
  seq: 84
  stamp: 
    secs: 1559535884
    nsecs: 460526676
  frame_id: map
pose: 
  pose: 
    position: 
      x: 5.86218296965
      y: -12.7102124121
      z: 0.0
    orientation: 
      x: 0.0
      y: 0.0
      z: -0.0270273024947
      w: 0.999634695736
  covariance: [0.0017372882530927319, 0.0, 0.0, 0.0, 0.0, 0.0, 0.0, 0.0, 0.0, 0.0, 0.0, 0.0, 0.0, 0.0, 0.0, 0.0, 0.0, 0.0, 0.0, 0.0, 0.0, 0.0, 0.0, 0.0, 0.0, 0.0, 0.0, 0.0, 0.011802291864026735, -0.001608153765661285, 0.0, 0.0, 0.0, 0.0, -0.0016081537656470741, 0.0046725832171796208]
---
header: 
  seq: 85
  stamp: 
    secs: 1559535885
    nsecs: 31342128
  frame_id: map
pose: 
  pose: 
    position: 
      x: 6.27128208512
      y: -12.7498611731
      z: 0.0
    orientation: 
      x: 0.0
      y: 0.0
      z: -0.095561165327
      w: 0.995423559939
  covariance: [0.0015300774661190402, 0.0, 0.0, 0.0, 0.0, 0.0, 0.0, 0.0, 0.0, 0.0, 0.0, 0.0, 0.0, 0.0, 0.0, 0.0, 0.0, 0.0, 0.0, 0.0, 0.0, 0.0, 0.0, 0.0, 0.0, 0.0, 0.0, 0.0, 0.010112517128206072, -0.0011766980607874613, 0.0, 0.0, 0.0, 0.0, -0.0011766980607732505, 0.00451315995124841]
---
header: 
  seq: 86
  stamp: 
    secs: 1559535885
    nsecs: 776631081
  frame_id: map
pose: 
  pose: 
    position: 
      x: 6.70747310087
      y: -12.8921177289
      z: 0.0
    orientation: 
      x: 0.0
      y: 0.0
      z: -0.246206357196
      w: 0.969217431579
  covariance: [0.0018137758509908888, 0.0, 0.0, 0.0, 0.0, 0.0, 0.0, 0.0, 0.0, 0.0, 0.0, 0.0, 0.0, 0.0, 0.0, 0.0, 0.0, 0.0, 0.0, 0.0, 0.0, 0.0, 0.0, 0.0, 0.0, 0.0, 0.0, 0.0, 0.0094511586018747006, -0.00075804644461068167, 0.0, 0.0, 0.0, 0.0, -0.00075804644462489253, 0.0046348632544784638]
---
header: 
  seq: 87
  stamp: 
    secs: 1559535886
    nsecs: 616729596
  frame_id: map
pose: 
  pose: 
    position: 
      x: 7.06803955824
      y: -13.1801173221
      z: 0.0
    orientation: 
      x: 0.0
      y: 0.0
      z: -0.431404627488
      w: 0.902158548916
  covariance: [0.0019685487758614889, 0.0, 0.0, 0.0, 0.0, 0.0, 0.0, 0.0, 0.0, 0.0, 0.0, 0.0, 0.0, 0.0, 0.0, 0.0, 0.0, 0.0, 0.0, 0.0, 0.0, 0.0, 0.0, 0.0, 0.0, 0.0, 0.0, 0.0, 0.0085942458934619922, -0.00042395451604432412, 0.0, 0.0, 0.0, 0.0, -0.00042395451604432412, 0.0049100414178027182]
---
header: 
  seq: 88
  stamp: 
    secs: 1559535888
    nsecs: 314694356
  frame_id: map
pose: 
  pose: 
    position: 
      x: 7.24073016757
      y: -13.6434851122
      z: 0.0
    orientation: 
      x: 0.0
      y: 0.0
      z: -0.759216068479
      w: 0.65083866001
  covariance: [0.0033928658937158089, 0.0, 0.0, 0.0, 0.0, 0.0, 0.0, 0.0, 0.0, 0.0, 0.0, 0.0, 0.0, 0.0, 0.0, 0.0, 0.0, 0.0, 0.0, 0.0, 0.0, 0.0, 0.0, 0.0, 0.0, 0.0, 0.0, 0.0, 0.0093401509598705218, 6.4895717762698284e-05, 0.0, 0.0, 0.0, 0.0, 6.4895717748487429e-05, 0.0054520586683869405]
---
header: 
  seq: 89
  stamp: 
    secs: 1559535891
    nsecs: 314983621
  frame_id: map
pose: 
  pose: 
    position: 
      x: 7.09987265669
      y: -14.0466481667
      z: 0.0
    orientation: 
      x: 0.0
      y: 0.0
      z: -0.847260246396
      w: 0.531178006771
  covariance: [0.0035007291521611558, 0.0, 0.0, 0.0, 0.0, 0.0, 0.0, 0.0, 0.0, 0.0, 0.0, 0.0, 0.0, 0.0, 0.0, 0.0, 0.0, 0.0, 0.0, 0.0, 0.0, 0.0, 0.0, 0.0, 0.0, 0.0, 0.0, 0.0, 0.0074082007797419509, 3.1950439667855926e-05, 0.0, 0.0, 0.0, 0.0, 3.1950439682066781e-05, 0.006584171719168158]
---
header: 
  seq: 90
  stamp: 
    secs: 1559535902
    nsecs: 656923258
  frame_id: map
pose: 
  pose: 
    position: 
      x: 7.16075282937
      y: -14.334412947
      z: 0.0
    orientation: 
      x: 0.0
      y: 0.0
      z: -0.589102889086
      w: 0.808058033851
  covariance: [0.0055535800992943096, 0.0, 0.0, 0.0, 0.0, 0.0, 0.0, 0.0, 0.0, 0.0, 0.0, 0.0, 0.0, 0.0, 0.0, 0.0, 0.0, 0.0, 0.0, 0.0, 0.0, 0.0, 0.0, 0.0, 0.0, 0.0, 0.0, 0.0, 0.0076230686302987414, 0.00061422817480426967, 0.0, 0.0, 0.0, 0.0, 0.00061422817480426967, 0.0078083872604816007]
---
header: 
  seq: 91
  stamp: 
    secs: 1559535909
    nsecs: 779367538
  frame_id: map
pose: 
  pose: 
    position: 
      x: 7.24351942818
      y: -14.7820161487
      z: 0.0
    orientation: 
      x: 0.0
      y: 0.0
      z: -0.720620848073
      w: 0.693329354148
  covariance: [0.0058299367199399271, 0.0, 0.0, 0.0, 0.0, 0.0, 0.0, 0.0, 0.0, 0.0, 0.0, 0.0, 0.0, 0.0, 0.0, 0.0, 0.0, 0.0, 0.0, 0.0, 0.0, 0.0, 0.0, 0.0, 0.0, 0.0, 0.0, 0.0, 0.0061451288703252178, 0.00095772365729771599, 0.0, 0.0, 0.0, 0.0, 0.00095772365729771599, 0.010724830522255915]
---
header: 
  seq: 92
  stamp: 
    secs: 1559537440
    nsecs: 833054111
  frame_id: map
pose: 
  pose: 
    position: 
      x: 7.24763280748
      y: -14.8093403666
      z: 0.0
    orientation: 
      x: 0.0
      y: 0.0
      z: -0.712211511975
      w: 0.701964929473
  covariance: [0.0057678785230671891, 0.0, 0.0, 0.0, 0.0, 0.0, 0.0, 0.0, 0.0, 0.0, 0.0, 0.0, 0.0, 0.0, 0.0, 0.0, 0.0, 0.0, 0.0, 0.0, 0.0, 0.0, 0.0, 0.0, 0.0, 0.0, 0.0, 0.0, 0.0051485403043646585, 0.00073833439993302582, 0.0, 0.0, 0.0, 0.0, 0.00073833439990460411, 0.010209063693618004]
---
header: 
  seq: 93
  stamp: 
    secs: 1559537442
    nsecs: 331293542
  frame_id: map
pose: 
  pose: 
    position: 
      x: 7.26417951492
      y: -14.3723714352
      z: 0.0
    orientation: 
      x: 0.0
      y: 0.0
      z: -0.715882442877
      w: 0.698220830383
  covariance: [0.0053258810891100294, 0.0, 0.0, 0.0, 0.0, 0.0, 0.0, 0.0, 0.0, 0.0, 0.0, 0.0, 0.0, 0.0, 0.0, 0.0, 0.0, 0.0, 0.0, 0.0, 0.0, 0.0, 0.0, 0.0, 0.0, 0.0, 0.0, 0.0, 0.0044993141169666758, 0.0004047318531474216, 0.0, 0.0, 0.0, 0.0, 0.00040473185317584331, 0.0070031697826415697]
---
header: 
  seq: 94
  stamp: 
    secs: 1559537443
    nsecs: 829600309
  frame_id: map
pose: 
  pose: 
    position: 
      x: 7.26785780743
      y: -13.9368686782
      z: 0.0
    orientation: 
      x: 0.0
      y: 0.0
      z: -0.719627345628
      w: 0.694360485213
  covariance: [0.0050524355123961117, 0.0, 0.0, 0.0, 0.0, 0.0, 0.0, 0.0, 0.0, 0.0, 0.0, 0.0, 0.0, 0.0, 0.0, 0.0, 0.0, 0.0, 0.0, 0.0, 0.0, 0.0, 0.0, 0.0, 0.0, 0.0, 0.0, 0.0, 0.0043150546492458407, 9.7752435396586076e-05, 0.0, 0.0, 0.0, 0.0, 9.7752435382375221e-05, 0.0065851205288888267]
---
header: 
  seq: 95
  stamp: 
    secs: 1559537445
    nsecs: 318008003
  frame_id: map
pose: 
  pose: 
    position: 
      x: 7.27869131129
      y: -13.49183119
      z: 0.0
    orientation: 
      x: 0.0
      y: 0.0
      z: -0.724687940247
      w: 0.689077201234
  covariance: [0.0046800873611102271, 0.0, 0.0, 0.0, 0.0, 0.0, 0.0, 0.0, 0.0, 0.0, 0.0, 0.0, 0.0, 0.0, 0.0, 0.0, 0.0, 0.0, 0.0, 0.0, 0.0, 0.0, 0.0, 0.0, 0.0, 0.0, 0.0, 0.0, 0.0039592685467367767, -4.1541145656490132e-05, 0.0, 0.0, 0.0, 0.0, -4.1541145656490132e-05, 0.0081449382570575445]
---
header: 
  seq: 96
  stamp: 
    secs: 1559537449
    nsecs: 926405623
  frame_id: map
pose: 
  pose: 
    position: 
      x: 7.28849388413
      y: -13.3262829559
      z: 0.0
    orientation: 
      x: 0.0
      y: 0.0
      z: -0.976064996174
      w: 0.21747901794
  covariance: [0.0089676326100376173, 0.0, 0.0, 0.0, 0.0, 0.0, 0.0, 0.0, 0.0, 0.0, 0.0, 0.0, 0.0, 0.0, 0.0, 0.0, 0.0, 0.0, 0.0, 0.0, 0.0, 0.0, 0.0, 0.0, 0.0, 0.0, 0.0, 0.0, 0.0072473931123252962, 0.00024169772697664989, 0.0, 0.0, 0.0, 0.0, 0.00024169772697664989, 0.010011336909242469]
---
header: 
  seq: 97
  stamp: 
    secs: 1559537452
    nsecs: 177932939
  frame_id: map
pose: 
  pose: 
    position: 
      x: 7.06918306367
      y: -13.2442306971
      z: 0.0
    orientation: 
      x: 0.0
      y: 0.0
      z: 0.961945450048
      w: 0.273241561869
  covariance: [0.0078697694781456624, 0.0, 0.0, 0.0, 0.0, 0.0, 0.0, 0.0, 0.0, 0.0, 0.0, 0.0, 0.0, 0.0, 0.0, 0.0, 0.0, 0.0, 0.0, 0.0, 0.0, 0.0, 0.0, 0.0, 0.0, 0.0, 0.0, 0.0, 0.0072370243082314897, 0.00053997337318148269, 0.0, 0.0, 0.0, 0.0, 0.00053997337318148269, 0.011633260525230745]
---
header: 
  seq: 98
  stamp: 
    secs: 1559537453
    nsecs: 208093844
  frame_id: map
pose: 
  pose: 
    position: 
      x: 6.67175145623
      y: -12.9376551463
      z: 0.0
    orientation: 
      x: 0.0
      y: 0.0
      z: 0.936078343094
      w: 0.351791608187
  covariance: [0.005358079569860898, 0.0, 0.0, 0.0, 0.0, 0.0, 0.0, 0.0, 0.0, 0.0, 0.0, 0.0, 0.0, 0.0, 0.0, 0.0, 0.0, 0.0, 0.0, 0.0, 0.0, 0.0, 0.0, 0.0, 0.0, 0.0, 0.0, 0.0, 0.0082838085767741616, 0.0011511717863926449, 0.0, 0.0, 0.0, 0.0, 0.0011511717863926449, 0.012733592092819792]
---
header: 
  seq: 99
  stamp: 
    secs: 1559537454
    nsecs: 333575991
  frame_id: map
pose: 
  pose: 
    position: 
      x: 6.29983907338
      y: -12.6234941265
      z: 0.0
    orientation: 
      x: 0.0
      y: 0.0
      z: 0.958966927173
      w: 0.283517958139
  covariance: [0.004139695724647288, 0.0, 0.0, 0.0, 0.0, 0.0, 0.0, 0.0, 0.0, 0.0, 0.0, 0.0, 0.0, 0.0, 0.0, 0.0, 0.0, 0.0, 0.0, 0.0, 0.0, 0.0, 0.0, 0.0, 0.0, 0.0, 0.0, 0.0, 0.0088652528438538172, 0.0021115387205757979, 0.0, 0.0, 0.0, 0.0, 0.0021115387205900087, 0.012851465794417831]
---
header: 
  seq: 100
  stamp: 
    secs: 1559537456
    nsecs: 116264417
  frame_id: map
pose: 
  pose: 
    position: 
      x: 5.87578438422
      y: -12.5333111371
      z: 0.0
    orientation: 
      x: 0.0
      y: 0.0
      z: -0.999933111355
      w: 0.0115660198898
  covariance: [0.003774325286146088, 0.0, 0.0, 0.0, 0.0, 0.0, 0.0, 0.0, 0.0, 0.0, 0.0, 0.0, 0.0, 0.0, 0.0, 0.0, 0.0, 0.0, 0.0, 0.0, 0.0, 0.0, 0.0, 0.0, 0.0, 0.0, 0.0, 0.0, 0.0097775415815816516, 0.0026949397072206414, 0.0, 0.0, 0.0, 0.0, 0.0026949397072206414, 0.012803111457833697]
---
header: 
  seq: 101
  stamp: 
    secs: 1559537456
    nsecs: 952910054
  frame_id: map
pose: 
  pose: 
    position: 
      x: 5.42394420385
      y: -12.5398891614
      z: 0.0
    orientation: 
      x: 0.0
      y: 0.0
      z: -0.99737481283
      w: 0.0724118963463
  covariance: [0.0032717964532390461, 0.0, 0.0, 0.0, 0.0, 0.0, 0.0, 0.0, 0.0, 0.0, 0.0, 0.0, 0.0, 0.0, 0.0, 0.0, 0.0, 0.0, 0.0, 0.0, 0.0, 0.0, 0.0, 0.0, 0.0, 0.0, 0.0, 0.0, 0.011105894528731274, 0.0025149444172370022, 0.0, 0.0, 0.0, 0.0, 0.0025149444172370022, 0.011171775293203377]
---
header: 
  seq: 102
  stamp: 
    secs: 1559537457
    nsecs: 613430470
  frame_id: map
pose: 
  pose: 
    position: 
      x: 4.93547771003
      y: -12.6058230265
      z: 0.0
    orientation: 
      x: 0.0
      y: 0.0
      z: -0.997720275052
      w: 0.0674852039402
  covariance: [0.0030025533458227847, 0.0, 0.0, 0.0, 0.0, 0.0, 0.0, 0.0, 0.0, 0.0, 0.0, 0.0, 0.0, 0.0, 0.0, 0.0, 0.0, 0.0, 0.0, 0.0, 0.0, 0.0, 0.0, 0.0, 0.0, 0.0, 0.0, 0.0, 0.011028793268841385, 0.0020279984021219395, 0.0, 0.0, 0.0, 0.0, 0.0020279984021432558, 0.0098614529644783181]
---
header: 
  seq: 103
  stamp: 
    secs: 1559537458
    nsecs: 177466263
  frame_id: map
pose: 
  pose: 
    position: 
      x: 4.49281066617
      y: -12.6567841036
      z: 0.0
    orientation: 
      x: 0.0
      y: 0.0
      z: -0.998264879739
      w: 0.0588831884326
  covariance: [0.0023850722325725071, 0.0, 0.0, 0.0, 0.0, 0.0, 0.0, 0.0, 0.0, 0.0, 0.0, 0.0, 0.0, 0.0, 0.0, 0.0, 0.0, 0.0, 0.0, 0.0, 0.0, 0.0, 0.0, 0.0, 0.0, 0.0, 0.0, 0.0, 0.010119013042648412, 0.001476002070087889, 0.0, 0.0, 0.0, 0.0, 0.0014760020700949944, 0.0089650920724645092]
---
header: 
  seq: 104
  stamp: 
    secs: 1559537458
    nsecs: 726921124
  frame_id: map
pose: 
  pose: 
    position: 
      x: 4.04635688685
      y: -12.6889883914
      z: 0.0
    orientation: 
      x: 0.0
      y: 0.0
      z: -0.999583488814
      w: 0.0288591214551
  covariance: [0.0022989893291425248, 0.0, 0.0, 0.0, 0.0, 0.0, 0.0, 0.0, 0.0, 0.0, 0.0, 0.0, 0.0, 0.0, 0.0, 0.0, 0.0, 0.0, 0.0, 0.0, 0.0, 0.0, 0.0, 0.0, 0.0, 0.0, 0.0, 0.0, 0.01063089246766882, 0.0015645868103705454, 0.0, 0.0, 0.0, 0.0, 0.00156458681036344, 0.008827336142292988]
---
header: 
  seq: 105
  stamp: 
    secs: 1559537459
    nsecs: 292596651
  frame_id: map
pose: 
  pose: 
    position: 
      x: 3.57703780602
      y: -12.7154528836
      z: 0.0
    orientation: 
      x: 0.0
      y: 0.0
      z: 0.999998869646
      w: 0.00150356475383
  covariance: [0.0022993865140248644, 0.0, 0.0, 0.0, 0.0, 0.0, 0.0, 0.0, 0.0, 0.0, 0.0, 0.0, 0.0, 0.0, 0.0, 0.0, 0.0, 0.0, 0.0, 0.0, 0.0, 0.0, 0.0, 0.0, 0.0, 0.0, 0.0, 0.0, 0.011389081065288702, 0.0015665482352828042, 0.0, 0.0, 0.0, 0.0, 0.0015665482353041204, 0.0089293864072629032]
---
header: 
  seq: 106
  stamp: 
    secs: 1559537459
    nsecs: 861654650
  frame_id: map
pose: 
  pose: 
    position: 
      x: 3.1248474672
      y: -12.7037478876
      z: 0.0
    orientation: 
      x: 0.0
      y: 0.0
      z: 0.999685679062
      w: 0.0250707614226
  covariance: [0.0020998031522746151, 0.0, 0.0, 0.0, 0.0, 0.0, 0.0, 0.0, 0.0, 0.0, 0.0, 0.0, 0.0, 0.0, 0.0, 0.0, 0.0, 0.0, 0.0, 0.0, 0.0, 0.0, 0.0, 0.0, 0.0, 0.0, 0.0, 0.0, 0.011778284423473437, 0.0013612092451352467, 0.0, 0.0, 0.0, 0.0, 0.0013612092451352467, 0.0087883000585768575]
---
header: 
  seq: 107
  stamp: 
    secs: 1559537460
    nsecs: 425383430
  frame_id: map
pose: 
  pose: 
    position: 
      x: 2.68311621844
      y: -12.6726169616
      z: 0.0
    orientation: 
      x: 0.0
      y: 0.0
      z: 0.999490089151
      w: 0.0319305760887
  covariance: [0.0019437926008819331, 0.0, 0.0, 0.0, 0.0, 0.0, 0.0, 0.0, 0.0, 0.0, 0.0, 0.0, 0.0, 0.0, 0.0, 0.0, 0.0, 0.0, 0.0, 0.0, 0.0, 0.0, 0.0, 0.0, 0.0, 0.0, 0.0, 0.0, 0.010886855007198661, 0.0012174695038519451, 0.0, 0.0, 0.0, 0.0, 0.0012174695038519451, 0.0088151824001635442]
---
header: 
  seq: 108
  stamp: 
    secs: 1559537460
    nsecs: 976011340
  frame_id: map
pose: 
  pose: 
    position: 
      x: 2.24217720961
      y: -12.6370801121
      z: 0.0
