header: 
  seq: 4534
  stamp: 
    secs: 1559576056
    nsecs: 528841999
  frame_id: map
pose: 
  pose: 
    position: 
      x: 13.6304845345
      y: -13.5957270373
      z: 0.0
    orientation: 
      x: 0.0
      y: 0.0
      z: -0.686682445183
      w: 0.726957508715
  covariance: [0.0099144370833958995, 0.0, 0.0, 0.0, 0.0, 0.0, 0.0, 0.0, 0.0, 0.0, 0.0, 0.0, 0.0, 0.0, 0.0, 0.0, 0.0, 0.0, 0.0, 0.0, 0.0, 0.0, 0.0, 0.0, 0.0, 0.0, 0.0, 0.0, 0.0050860680106840622, -0.00057170176198740642, 0.0, 0.0, 0.0, 0.0, -0.00057170176198740642, 0.019477946797507573]
---
header: 
  seq: 4535
  stamp: 
    secs: 1559576072
    nsecs: 175853974
  frame_id: map
pose: 
  pose: 
    position: 
      x: 13.5757330697
      y: -13.1185999049
      z: 0.0
    orientation: 
      x: 0.0
      y: 0.0
      z: -0.672523516509
      w: 0.740075752705
  covariance: [0.009521767539982488, 0.0, 0.0, 0.0, 0.0, 0.0, 0.0, 0.0, 0.0, 0.0, 0.0, 0.0, 0.0, 0.0, 0.0, 0.0, 0.0, 0.0, 0.0, 0.0, 0.0, 0.0, 0.0, 0.0, 0.0, 0.0, 0.0, 0.0, 0.0042615581664500494, -0.0011760893816972963, 0.0, 0.0, 0.0, 0.0, -0.0011760893816972963, 0.014343794363379975]
---
header: 
  seq: 4536
  stamp: 
    secs: 1559576076
    nsecs: 354964611
  frame_id: map
pose: 
  pose: 
    position: 
      x: 13.5239167169
      y: -12.8335234916
      z: 0.0
    orientation: 
      x: 0.0
      y: 0.0
      z: -0.849841983815
      w: 0.527037572234
  covariance: [0.022728815688724684, 0.0, 0.0, 0.0, 0.0, 0.0, 0.0, 0.0, 0.0, 0.0, 0.0, 0.0, 0.0, 0.0, 0.0, 0.0, 0.0, 0.0, 0.0, 0.0, 0.0, 0.0, 0.0, 0.0, 0.0, 0.0, 0.0, 0.0, 0.015832064501652043, -0.0054319155976834442, 0.0, 0.0, 0.0, 0.0, -0.0054319155976834442, 0.015345860684770844]
---
header: 
  seq: 4537
  stamp: 
    secs: 1559576078
    nsecs: 552361825
  frame_id: map
pose: 
  pose: 
    position: 
      x: 13.3406948816
      y: -12.901707994
      z: 0.0
    orientation: 
      x: 0.0
      y: 0.0
      z: 0.999998857408
      w: 0.00151168212107
  covariance: [0.016767655074103834, 0.0, 0.0, 0.0, 0.0, 0.0, 0.0, 0.0, 0.0, 0.0, 0.0, 0.0, 0.0, 0.0, 0.0, 0.0, 0.0, 0.0, 0.0, 0.0, 0.0, 0.0, 0.0, 0.0, 0.0, 0.0, 0.0, 0.0, 0.013997634916682348, -0.004188677868183493, 0.0, 0.0, 0.0, 0.0, -0.004188677868183493, 0.016127130816085838]
---
header: 
  seq: 4538
  stamp: 
    secs: 1559576079
    nsecs: 746223331
  frame_id: map
pose: 
  pose: 
    position: 
      x: 12.8623866621
      y: -12.7951642342
      z: 0.0
    orientation: 
      x: 0.0
      y: 0.0
      z: 0.984917113608
      w: 0.173026816769
  covariance: [0.011609084212374306, 0.0, 0.0, 0.0, 0.0, 0.0, 0.0, 0.0, 0.0, 0.0, 0.0, 0.0, 0.0, 0.0, 0.0, 0.0, 0.0, 0.0, 0.0, 0.0, 0.0, 0.0, 0.0, 0.0, 0.0, 0.0, 0.0, 0.0, 0.013419866736111593, -0.0033334002479701156, 0.0, 0.0, 0.0, 0.0, -0.0033334002479701156, 0.016272337216606522]
---
header: 
  seq: 4539
  stamp: 
    secs: 1559576080
    nsecs: 534235581
  frame_id: map
pose: 
  pose: 
    position: 
      x: 12.454155355
      y: -12.6177690878
      z: 0.0
    orientation: 
      x: 0.0
      y: 0.0
      z: 0.981418799675
      w: 0.191877929017
  covariance: [0.0081634707035442358, 0.0, 0.0, 0.0, 0.0, 0.0, 0.0, 0.0, 0.0, 0.0, 0.0, 0.0, 0.0, 0.0, 0.0, 0.0, 0.0, 0.0, 0.0, 0.0, 0.0, 0.0, 0.0, 0.0, 0.0, 0.0, 0.0, 0.0, 0.015395214016167244, -0.002643058246516622, 0.0, 0.0, 0.0, 0.0, -0.002643058246516622, 0.015962477132832956]
---
header: 
  seq: 4540
  stamp: 
    secs: 1559576081
    nsecs: 947768038
  frame_id: map
pose: 
  pose: 
    position: 
      x: 12.0005516324
      y: -12.4649828905
      z: 0.0
    orientation: 
      x: 0.0
      y: 0.0
      z: 0.992383736403
      w: 0.123184900548
  covariance: [0.0057882760528006399, 0.0, 0.0, 0.0, 0.0, 0.0, 0.0, 0.0, 0.0, 0.0, 0.0, 0.0, 0.0, 0.0, 0.0, 0.0, 0.0, 0.0, 0.0, 0.0, 0.0, 0.0, 0.0, 0.0, 0.0, 0.0, 0.0, 0.0, 0.016182526310714953, -0.0012335676736533747, 0.0, 0.0, 0.0, 0.0, -0.0012335676736533747, 0.015800663952208416]
---
header: 
  seq: 4541
  stamp: 
    secs: 1559576082
    nsecs: 853451904
  frame_id: map
pose: 
  pose: 
    position: 
      x: 11.5341834506
      y: -12.3739520387
      z: 0.0
    orientation: 
      x: 0.0
      y: 0.0
      z: 0.99789381535
      w: 0.0648685847479
  covariance: [0.0043639468939423703, 0.0, 0.0, 0.0, 0.0, 0.0, 0.0, 0.0, 0.0, 0.0, 0.0, 0.0, 0.0, 0.0, 0.0, 0.0, 0.0, 0.0, 0.0, 0.0, 0.0, 0.0, 0.0, 0.0, 0.0, 0.0, 0.0, 0.0, 0.017846197639637448, -0.00087763897385563277, 0.0, 0.0, 0.0, 0.0, -0.00087763897385563277, 0.014747271820757359]
---
header: 
  seq: 4542
  stamp: 
    secs: 1559576083
    nsecs: 544199670
  frame_id: map
pose: 
  pose: 
    position: 
      x: 11.0308358428
      y: -12.3372120768
      z: 0.0
    orientation: 
      x: 0.0
      y: 0.0
      z: 0.999720472487
      w: 0.0236426921262
  covariance: [0.0038720698074553497, 0.0, 0.0, 0.0, 0.0, 0.0, 0.0, 0.0, 0.0, 0.0, 0.0, 0.0, 0.0, 0.0, 0.0, 0.0, 0.0, 0.0, 0.0, 0.0, 0.0, 0.0, 0.0, 0.0, 0.0, 0.0, 0.0, 0.0, 0.020238896491727609, -0.00071606016651069274, 0.0, 0.0, 0.0, 0.0, -0.00071606016651069274, 0.014143670805816716]
---
header: 
  seq: 4543
  stamp: 
    secs: 1559576084
    nsecs: 240046303
  frame_id: map
pose: 
  pose: 
    position: 
      x: 10.4704793614
      y: -12.3311330578
      z: 0.0
    orientation: 
      x: 0.0
      y: 0.0
      z: -0.999849154018
      w: 0.0173686271507
  covariance: [0.004260142566325383, 0.0, 0.0, 0.0, 0.0, 0.0, 0.0, 0.0, 0.0, 0.0, 0.0, 0.0, 0.0, 0.0, 0.0, 0.0, 0.0, 0.0, 0.0, 0.0, 0.0, 0.0, 0.0, 0.0, 0.0, 0.0, 0.0, 0.0, 0.02597780951732389, -0.00021338150212749346, 0.0, 0.0, 0.0, 0.0, -0.00021338150212749346, 0.014001911458106678]
---
header: 
  seq: 4544
  stamp: 
    secs: 1559576084
    nsecs: 866392209
  frame_id: map
pose: 
  pose: 
    position: 
      x: 9.97595949278
      y: -12.3672087114
      z: 0.0
    orientation: 
      x: 0.0
      y: 0.0
      z: -0.998907271505
      w: 0.0467360988363
  covariance: [0.0040452182847158392, 0.0, 0.0, 0.0, 0.0, 0.0, 0.0, 0.0, 0.0, 0.0, 0.0, 0.0, 0.0, 0.0, 0.0, 0.0, 0.0, 0.0, 0.0, 0.0, 0.0, 0.0, 0.0, 0.0, 0.0, 0.0, 0.0, 0.0, 0.028964613614161316, 5.8747670898542225e-05, 0.0, 0.0, 0.0, 0.0, 5.8747670898542225e-05, 0.01318214040448973]
---
header: 
  seq: 4545
  stamp: 
    secs: 1559576085
    nsecs: 514635641
  frame_id: map
pose: 
  pose: 
    position: 
      x: 9.46387441216
      y: -12.4470122736
      z: 0.0
    orientation: 
      x: 0.0
      y: 0.0
      z: -0.998664700024
      w: 0.0516605935581
  covariance: [0.0038189775608174032, 0.0, 0.0, 0.0, 0.0, 0.0, 0.0, 0.0, 0.0, 0.0, 0.0, 0.0, 0.0, 0.0, 0.0, 0.0, 0.0, 0.0, 0.0, 0.0, 0.0, 0.0, 0.0, 0.0, 0.0, 0.0, 0.0, 0.0, 0.026423099221384149, -0.00041789930615119858, 0.0, 0.0, 0.0, 0.0, -0.00041789930615119858, 0.013114776207060938]
---
header: 
  seq: 4546
  stamp: 
    secs: 1559576086
    nsecs: 114650847
  frame_id: map
pose: 
  pose: 
    position: 
      x: 8.99598061799
      y: -12.5188991475
      z: 0.0
    orientation: 
      x: 0.0
      y: 0.0
      z: -0.998362062973
      w: 0.0572118101179
  covariance: [0.0037131826299220383, 0.0, 0.0, 0.0, 0.0, 0.0, 0.0, 0.0, 0.0, 0.0, 0.0, 0.0, 0.0, 0.0, 0.0, 0.0, 0.0, 0.0, 0.0, 0.0, 0.0, 0.0, 0.0, 0.0, 0.0, 0.0, 0.0, 0.0, 0.026163144887357329, 0.00019559979352469793, 0.0, 0.0, 0.0, 0.0, 0.00019559979353890879, 0.012484815694135381]
---
header: 
  seq: 4547
  stamp: 
    secs: 1559576086
    nsecs: 723306059
  frame_id: map
pose: 
  pose: 
    position: 
      x: 8.52000503148
      y: -12.5972106654
      z: 0.0
    orientation: 
      x: 0.0
      y: 0.0
      z: -0.998690444762
      w: 0.0511604880823
  covariance: [0.0029821906279025529, 0.0, 0.0, 0.0, 0.0, 0.0, 0.0, 0.0, 0.0, 0.0, 0.0, 0.0, 0.0, 0.0, 0.0, 0.0, 0.0, 0.0, 0.0, 0.0, 0.0, 0.0, 0.0, 0.0, 0.0, 0.0, 0.0, 0.0, 0.018106216802719451, -0.00069461116614300922, 0.0, 0.0, 0.0, 0.0, -0.00069461116612879836, 0.011873548489379219]
---
header: 
  seq: 4548
  stamp: 
    secs: 1559576087
    nsecs: 441853582
  frame_id: map
pose: 
  pose: 
    position: 
      x: 7.96143757958
      y: -12.6549262908
      z: 0.0
    orientation: 
      x: 0.0
      y: 0.0
      z: -0.999886617168
      w: 0.0150583135707
  covariance: [0.0031390947435001922, 0.0, 0.0, 0.0, 0.0, 0.0, 0.0, 0.0, 0.0, 0.0, 0.0, 0.0, 0.0, 0.0, 0.0, 0.0, 0.0, 0.0, 0.0, 0.0, 0.0, 0.0, 0.0, 0.0, 0.0, 0.0, 0.0, 0.0, 0.014519563186180863, -0.0010830292754455909, 0.0, 0.0, 0.0, 0.0, -0.0010830292754455909, 0.010730850103587054]
---
header: 
  seq: 4549
  stamp: 
    secs: 1559576088
    nsecs: 125529070
  frame_id: map
pose: 
  pose: 
    position: 
      x: 7.41777451043
      y: -12.6522555513
      z: 0.0
    orientation: 
      x: 0.0
      y: 0.0
      z: 0.999951743537
      w: 0.00982398068777
  covariance: [0.0028774939377683301, 0.0, 0.0, 0.0, 0.0, 0.0, 0.0, 0.0, 0.0, 0.0, 0.0, 0.0, 0.0, 0.0, 0.0, 0.0, 0.0, 0.0, 0.0, 0.0, 0.0, 0.0, 0.0, 0.0, 0.0, 0.0, 0.0, 0.0, 0.012054023420948388, -0.00096376906128956311, 0.0, 0.0, 0.0, 0.0, -0.00096376906128956311, 0.010660739945545245]
---
header: 
  seq: 4550
  stamp: 
    secs: 1559576088
    nsecs: 748589513
  frame_id: map
pose: 
  pose: 
    position: 
      x: 6.92596523749
      y: -12.6452301711
      z: 0.0
    orientation: 
      x: 0.0
      y: 0.0
      z: 0.999731315132
      w: 0.0231796795668
  covariance: [0.0027110430355711131, 0.0, 0.0, 0.0, 0.0, 0.0, 0.0, 0.0, 0.0, 0.0, 0.0, 0.0, 0.0, 0.0, 0.0, 0.0, 0.0, 0.0, 0.0, 0.0, 0.0, 0.0, 0.0, 0.0, 0.0, 0.0, 0.0, 0.0, 0.0099638672987703292, -0.00042559773921780941, 0.0, 0.0, 0.0, 0.0, -0.00042559773921780941, 0.010203081329382397]
---
header: 
  seq: 4551
  stamp: 
    secs: 1559576089
    nsecs: 406393652
  frame_id: map
pose: 
  pose: 
    position: 
      x: 6.38744345039
      y: -12.6257533519
      z: 0.0
    orientation: 
      x: 0.0
      y: 0.0
      z: 0.999996821296
      w: 0.00252138792245
  covariance: [0.0030531634448129012, 0.0, 0.0, 0.0, 0.0, 0.0, 0.0, 0.0, 0.0, 0.0, 0.0, 0.0, 0.0, 0.0, 0.0, 0.0, 0.0, 0.0, 0.0, 0.0, 0.0, 0.0, 0.0, 0.0, 0.0, 0.0, 0.0, 0.0, 0.010076161676099524, -7.0587727279910835e-05, 0.0, 0.0, 0.0, 0.0, -7.0587727279910835e-05, 0.010139264861171024]
---
header: 
  seq: 4552
  stamp: 
    secs: 1559576090
    nsecs: 3933093
  frame_id: map
pose: 
  pose: 
    position: 
      x: 5.92446855638
      y: -12.6357103363
      z: 0.0
    orientation: 
      x: 0.0
      y: 0.0
      z: -0.999530404102
      w: 0.0306426382035
  covariance: [0.0028425980025951442, 0.0, 0.0, 0.0, 0.0, 0.0, 0.0, 0.0, 0.0, 0.0, 0.0, 0.0, 0.0, 0.0, 0.0, 0.0, 0.0, 0.0, 0.0, 0.0, 0.0, 0.0, 0.0, 0.0, 0.0, 0.0, 0.0, 0.0, 0.010774616336233054, 0.00015766889037422243, 0.0, 0.0, 0.0, 0.0, 0.00015766889038843328, 0.0093209632113749746]
---
header: 
  seq: 4553
  stamp: 
    secs: 1559576090
    nsecs: 598791763
  frame_id: map
pose: 
  pose: 
    position: 
      x: 5.45267718188
      y: -12.6618389464
      z: 0.0
    orientation: 
      x: 0.0
      y: 0.0
      z: -0.999402491057
      w: 0.0345638665367
  covariance: [0.0027401412537017907, 0.0, 0.0, 0.0, 0.0, 0.0, 0.0, 0.0, 0.0, 0.0, 0.0, 0.0, 0.0, 0.0, 0.0, 0.0, 0.0, 0.0, 0.0, 0.0, 0.0, 0.0, 0.0, 0.0, 0.0, 0.0, 0.0, 0.0, 0.012038477182840183, -0.00037140451826589969, 0.0, 0.0, 0.0, 0.0, -0.00037140451826589969, 0.0089010059500992632]
---
header: 
  seq: 4554
  stamp: 
    secs: 1559576091
    nsecs: 242350343
  frame_id: map
pose: 
  pose: 
    position: 
      x: 4.93892184882
      y: -12.6855652887
      z: 0.0
    orientation: 
      x: 0.0
      y: 0.0
      z: -0.999589434018
      w: 0.0286524588828
  covariance: [0.0025752685597280052, 0.0, 0.0, 0.0, 0.0, 0.0, 0.0, 0.0, 0.0, 0.0, 0.0, 0.0, 0.0, 0.0, 0.0, 0.0, 0.0, 0.0, 0.0, 0.0, 0.0, 0.0, 0.0, 0.0, 0.0, 0.0, 0.0, 0.0, 0.012105538060403221, -0.0004188152331750368, 0.0, 0.0, 0.0, 0.0, -0.00041881523316793137, 0.0091192999123071734]
---
header: 
  seq: 4555
  stamp: 
    secs: 1559576091
    nsecs: 841293839
  frame_id: map
pose: 
  pose: 
    position: 
      x: 4.46634733338
      y: -12.7032154381
      z: 0.0
    orientation: 
      x: 0.0
      y: 0.0
      z: -0.999738735597
      w: 0.0228573958692
  covariance: [0.012842318396494013, 0.0, 0.0, 0.0, 0.0, 0.0, 0.0, 0.0, 0.0, 0.0, 0.0, 0.0, 0.0, 0.0, 0.0, 0.0, 0.0, 0.0, 0.0, 0.0, 0.0, 0.0, 0.0, 0.0, 0.0, 0.0, 0.0, 0.0, 0.54594355328878941, 0.23939451017764318, 0.0, 0.0, 0.0, 0.0, 0.23939451017763608, 0.41822215802262253]
---
header: 
  seq: 4556
  stamp: 
    secs: 1559576092
    nsecs: 490313966
  frame_id: map
pose: 
  pose: 
    position: 
      x: 3.95208271581
      y: -12.7167592238
      z: 0.0
    orientation: 
      x: 0.0
      y: 0.0
      z: -0.99966656557
      w: 0.0258216514143
  covariance: [0.0052252819909838107, 0.0, 0.0, 0.0, 0.0, 0.0, 0.0, 0.0, 0.0, 0.0, 0.0, 0.0, 0.0, 0.0, 0.0, 0.0, 0.0, 0.0, 0.0, 0.0, 0.0, 0.0, 0.0, 0.0, 0.0, 0.0, 0.0, 0.0, 0.26663593841919964, 0.14954548565863382, 0.0, 0.0, 0.0, 0.0, 0.14954548565862671, 0.19676980287246507]
---
header: 
  seq: 4557
  stamp: 
    secs: 1559576093
    nsecs: 141142498
  frame_id: map
pose: 
  pose: 
    position: 
      x: 3.4468523317
      y: -12.7419185335
      z: 0.0
    orientation: 
      x: 0.0
      y: 0.0
      z: -0.999616653832
      w: 0.0276865559884
  covariance: [0.016732888221963192, 0.0, 0.0, 0.0, 0.0, 0.0, 0.0, 0.0, 0.0, 0.0, 0.0, 0.0, 0.0, 0.0, 0.0, 0.0, 0.0, 0.0, 0.0, 0.0, 0.0, 0.0, 0.0, 0.0, 0.0, 0.0, 0.0, 0.0, 0.72649378586695912, 0.31628512444110324, 0.0, 0.0, 0.0, 0.0, 0.31628512444108903, 0.51547400922203812]
---
header: 
  seq: 4558
  stamp: 
    secs: 1559576093
    nsecs: 788790237
  frame_id: map
pose: 
  pose: 
    position: 
      x: 2.93447980883
      y: -12.7763651684
      z: 0.0
    orientation: 
      x: 0.0
      y: 0.0
      z: -0.999799486725
      w: 0.0200246434482
  covariance: [0.037876481598235055, 0.0, 0.0, 0.0, 0.0, 0.0, 0.0, 0.0, 0.0, 0.0, 0.0, 0.0, 0.0, 0.0, 0.0, 0.0, 0.0, 0.0, 0.0, 0.0, 0.0, 0.0, 0.0, 0.0, 0.0, 0.0, 0.0, 0.0, 1.8151434866942722, 0.82201701516614123, 0.0, 0.0, 0.0, 0.0, 0.82201701516613412, 1.2724399897331558]
---
header: 
  seq: 4559
  stamp: 
    secs: 1559576094
    nsecs: 488656025
  frame_id: map
pose: 
  pose: 
    position: 
      x: 2.38629689805
      y: -12.8033316514
      z: 0.0
    orientation: 
      x: 0.0
      y: 0.0
      z: -0.999838338564
      w: 0.0179804543081
  covariance: [0.012740067791993976, 0.0, 0.0, 0.0, 0.0, 0.0, 0.0, 0.0, 0.0, 0.0, 0.0, 0.0, 0.0, 0.0, 0.0, 0.0, 0.0, 0.0, 0.0, 0.0, 0.0, 0.0, 0.0, 0.0, 0.0, 0.0, 0.0, 0.0, 0.47431963212253953, 0.16184981331810952, 0.0, 0.0, 0.0, 0.0, 0.16184981331810952, 0.22738743504980596]
---
header: 
  seq: 4560
  stamp: 
    secs: 1559576095
    nsecs: 143141367
  frame_id: map
pose: 
  pose: 
    position: 
      x: 1.86140627213
      y: -12.8031906152
      z: 0.0
    orientation: 
      x: 0.0
      y: 0.0
      z: 0.999986945573
      w: 0.00510966575885
  covariance: [0.0036469260012786308, 0.0, 0.0, 0.0, 0.0, 0.0, 0.0, 0.0, 0.0, 0.0, 0.0, 0.0, 0.0, 0.0, 0.0, 0.0, 0.0, 0.0, 0.0, 0.0, 0.0, 0.0, 0.0, 0.0, 0.0, 0.0, 0.0, 0.0, 0.14447739989964528, 0.045331038112466811, 0.0, 0.0, 0.0, 0.0, 0.045331038112466811, 0.034953274947948774]
---
header: 
  seq: 4561
  stamp: 
    secs: 1559576095
    nsecs: 796652003
  frame_id: map
pose: 
  pose: 
    position: 
      x: 1.3390362394
      y: -12.7766041596
      z: 0.0
    orientation: 
      x: 0.0
      y: 0.0
      z: 0.999507263384
      w: 0.0313883806853
  covariance: [0.0023055093552282828, 0.0, 0.0, 0.0, 0.0, 0.0, 0.0, 0.0, 0.0, 0.0, 0.0, 0.0, 0.0, 0.0, 0.0, 0.0, 0.0, 0.0, 0.0, 0.0, 0.0, 0.0, 0.0, 0.0, 0.0, 0.0, 0.0, 0.0, 0.010550189827982328, -0.00018333987410250482, 0.0, 0.0, 0.0, 0.0, -0.00018333987410250482, 0.0071682807711053106]
---
header: 
  seq: 4562
  stamp: 
    secs: 1559576096
    nsecs: 374165990
  frame_id: map
pose: 
  pose: 
    position: 
      x: 0.884920552137
      y: -12.7233593734
      z: 0.0
    orientation: 
      x: 0.0
      y: 0.0
      z: 0.998156778646
      w: 0.0606880980358
  covariance: [0.0024678530145999405, 0.0, 0.0, 0.0, 0.0, 0.0, 0.0, 0.0, 0.0, 0.0, 0.0, 0.0, 0.0, 0.0, 0.0, 0.0, 0.0, 0.0, 0.0, 0.0, 0.0, 0.0, 0.0, 0.0, 0.0, 0.0, 0.0, 0.0, 0.011315676069864776, -0.00030082448039906292, 0.0, 0.0, 0.0, 0.0, -0.00030082448039906292, 0.0067830383590920459]
---
header: 
  seq: 4563
  stamp: 
    secs: 1559576096
    nsecs: 983476559
  frame_id: map
pose: 
  pose: 
    position: 
      x: 0.402059562621
      y: -12.6476695052
      z: 0.0
    orientation: 
      x: 0.0
      y: 0.0
      z: 0.998174057508
      w: 0.0604032359957
  covariance: [0.0024863397530346166, 0.0, 0.0, 0.0, 0.0, 0.0, 0.0, 0.0, 0.0, 0.0, 0.0, 0.0, 0.0, 0.0, 0.0, 0.0, 0.0, 0.0, 0.0, 0.0, 0.0, 0.0, 0.0, 0.0, 0.0, 0.0, 0.0, 0.0, 0.012170959865777611, -0.00037902832178403128, 0.0, 0.0, 0.0, 0.0, -0.00037902832178403128, 0.0068123926942117398]
---
header: 
  seq: 4564
  stamp: 
    secs: 1559576097
    nsecs: 574619415
  frame_id: map
pose: 
  pose: 
    position: 
      x: -0.065061868636
      y: -12.5793637122
      z: 0.0
    orientation: 
      x: 0.0
      y: 0.0
      z: 0.999134144585
      w: 0.0416048209267
  covariance: [0.0023527630010195168, 0.0, 0.0, 0.0, 0.0, 0.0, 0.0, 0.0, 0.0, 0.0, 0.0, 0.0, 0.0, 0.0, 0.0, 0.0, 0.0, 0.0, 0.0, 0.0, 0.0, 0.0, 0.0, 0.0, 0.0, 0.0, 0.0, 0.0, 0.012199854086732513, -0.00024818956263411373, 0.0, 0.0, 0.0, 0.0, -0.00024818956263400271, 0.0066502962633660295]
---
header: 
  seq: 4565
  stamp: 
    secs: 1559576098
    nsecs: 322276743
  frame_id: map
pose: 
  pose: 
    position: 
      x: -0.59583733252
      y: -12.5378092
      z: 0.0
    orientation: 
      x: 0.0
      y: 0.0
      z: -0.999720745509
      w: 0.0236311446914
  covariance: [0.0024783603456862936, 0.0, 0.0, 0.0, 0.0, 0.0, 0.0, 0.0, 0.0, 0.0, 0.0, 0.0, 0.0, 0.0, 0.0, 0.0, 0.0, 0.0, 0.0, 0.0, 0.0, 0.0, 0.0, 0.0, 0.0, 0.0, 0.0, 0.0, 0.011983169365585385, -6.7564224723666425e-05, 0.0, 0.0, 0.0, 0.0, -6.7564224724554604e-05, 0.0067238860634595892]
---
header: 
  seq: 4566
  stamp: 
    secs: 1559576099
    nsecs: 768062457
  frame_id: map
pose: 
  pose: 
    position: 
      x: -1.15021376699
      y: -12.6710267335
      z: 0.0
    orientation: 
      x: 0.0
      y: 0.0
      z: -0.959863841756
      w: 0.280466406702
  covariance: [0.0035972994529618078, 0.0, 0.0, 0.0, 0.0, 0.0, 0.0, 0.0, 0.0, 0.0, 0.0, 0.0, 0.0, 0.0, 0.0, 0.0, 0.0, 0.0, 0.0, 0.0, 0.0, 0.0, 0.0, 0.0, 0.0, 0.0, 0.0, 0.0, 0.013068775672918363, -0.00085247052043805076, 0.0, 0.0, 0.0, 0.0, -0.00085247052043805076, 0.0077251998902736043]
---
header: 
  seq: 4567
  stamp: 
    secs: 1559576102
    nsecs: 119743038
  frame_id: map
pose: 
  pose: 
    position: 
      x: -1.24017781115
      y: -12.7929024883
      z: 0.0
    orientation: 
      x: 0.0
      y: 0.0
      z: -0.660100833837
      w: 0.751177002555
  covariance: [0.0044604506377739685, 0.0, 0.0, 0.0, 0.0, 0.0, 0.0, 0.0, 0.0, 0.0, 0.0, 0.0, 0.0, 0.0, 0.0, 0.0, 0.0, 0.0, 0.0, 0.0, 0.0, 0.0, 0.0, 0.0, 0.0, 0.0, 0.0, 0.0, 0.011927960834245433, -0.00015319088804982754, 0.0, 0.0, 0.0, 0.0, -0.00015319088804982754, 0.0081313075469197586]
---
header: 
  seq: 4568
  stamp: 
    secs: 1559576104
    nsecs: 739610469
  frame_id: map
pose: 
  pose: 
    position: 
      x: -1.21220917052
      y: -12.8425207394
      z: 0.0
    orientation: 
      x: 0.0
      y: 0.0
      z: -0.183289834854
      w: 0.983058918091
  covariance: [0.006590128540151851, 0.0, 0.0, 0.0, 0.0, 0.0, 0.0, 0.0, 0.0, 0.0, 0.0, 0.0, 0.0, 0.0, 0.0, 0.0, 0.0, 0.0, 0.0, 0.0, 0.0, 0.0, 0.0, 0.0, 0.0, 0.0, 0.0, 0.0, 0.011576436184920673, -0.0015523448560920924, 0.0, 0.0, 0.0, 0.0, -0.0015523448560956451, 0.009068633809872606]
---
header: 
  seq: 4569
  stamp: 
    secs: 1559576110
    nsecs: 129955233
  frame_id: map
pose: 
  pose: 
    position: 
      x: -1.20412736233
      y: -12.8469085847
      z: 0.0
    orientation: 
      x: 0.0
      y: 0.0
      z: -0.659379820763
      w: 0.751809983952
  covariance: [0.011257194856308534, 0.0, 0.0, 0.0, 0.0, 0.0, 0.0, 0.0, 0.0, 0.0, 0.0, 0.0, 0.0, 0.0, 0.0, 0.0, 0.0, 0.0, 0.0, 0.0, 0.0, 0.0, 0.0, 0.0, 0.0, 0.0, 0.0, 0.0, 0.011210891579547353, -0.0034539154337861469, 0.0, 0.0, 0.0, 0.0, -0.0034539154337843705, 0.01325288117109852]
---
header: 
  seq: 4570
  stamp: 
    secs: 1559576119
    nsecs: 690262867
  frame_id: map
pose: 
  pose: 
    position: 
      x: -1.30457859585
      y: -13.2526927177
      z: 0.0
    orientation: 
      x: 0.0
      y: 0.0
      z: -0.786196289463
      w: 0.617976855905
  covariance: [0.010407605395392974, 0.0, 0.0, 0.0, 0.0, 0.0, 0.0, 0.0, 0.0, 0.0, 0.0, 0.0, 0.0, 0.0, 0.0, 0.0, 0.0, 0.0, 0.0, 0.0, 0.0, 0.0, 0.0, 0.0, 0.0, 0.0, 0.0, 0.0, 0.010528561679842395, -0.0031357443784426203, 0.0, 0.0, 0.0, 0.0, -0.0031357443784426203, 0.014052464507629314]
---
header: 
  seq: 4571
  stamp: 
    secs: 1559576129
    nsecs: 748396659
  frame_id: map
pose: 
  pose: 
    position: 
      x: -1.31216528151
      y: -13.6971289284
      z: 0.0
    orientation: 
      x: 0.0
      y: 0.0
      z: -0.700539535149
      w: 0.713613592705
  covariance: [0.00990947342349815, 0.0, 0.0, 0.0, 0.0, 0.0, 0.0, 0.0, 0.0, 0.0, 0.0, 0.0, 0.0, 0.0, 0.0, 0.0, 0.0, 0.0, 0.0, 0.0, 0.0, 0.0, 0.0, 0.0, 0.0, 0.0, 0.0, 0.0, 0.0084420868259718618, -0.0030625627328555848, 0.0, 0.0, 0.0, 0.0, -0.0030625627328555848, 0.017908831750319057]
---
header: 
  seq: 4572
  stamp: 
    secs: 1559576146
    nsecs: 677354831
  frame_id: map
pose: 
  pose: 
    position: 
      x: -1.31926493473
      y: -13.2154309913
      z: 0.0
    orientation: 
      x: 0.0
      y: 0.0
      z: -0.701836841668
      w: 0.712337734278
  covariance: [0.0082040335428810209, 0.0, 0.0, 0.0, 0.0, 0.0, 0.0, 0.0, 0.0, 0.0, 0.0, 0.0, 0.0, 0.0, 0.0, 0.0, 0.0, 0.0, 0.0, 0.0, 0.0, 0.0, 0.0, 0.0, 0.0, 0.0, 0.0, 0.0, 0.0073974062785591588, -0.0019675341914804833, 0.0, 0.0, 0.0, 0.0, -0.0019675341914769306, 0.012186167450832501]
---
header: 
  seq: 4573
  stamp: 
    secs: 1559576148
    nsecs: 369630852
  frame_id: map
pose: 
  pose: 
    position: 
      x: -1.30371387728
      y: -12.7591071329
      z: 0.0
    orientation: 
      x: 0.0
      y: 0.0
      z: -0.721986567083
      w: 0.691907072482
  covariance: [0.0072524232718833561, 0.0, 0.0, 0.0, 0.0, 0.0, 0.0, 0.0, 0.0, 0.0, 0.0, 0.0, 0.0, 0.0, 0.0, 0.0, 0.0, 0.0, 0.0, 0.0, 0.0, 0.0, 0.0, 0.0, 0.0, 0.0, 0.0, 0.0, 0.0065969702837996485, -0.00083072241584886478, 0.0, 0.0, 0.0, 0.0, -0.00083072241584175935, 0.011554851382836471]
---
header: 
  seq: 4574
  stamp: 
    secs: 1559576152
    nsecs: 554520271
  frame_id: map
pose: 
  pose: 
    position: 
      x: -1.31896300146
      y: -12.7425995174
      z: 0.0
    orientation: 
      x: 0.0
      y: 0.0
      z: -0.975439086447
      w: 0.220269354727
  covariance: [0.014546015946057927, 0.0, 0.0, 0.0, 0.0, 0.0, 0.0, 0.0, 0.0, 0.0, 0.0, 0.0, 0.0, 0.0, 0.0, 0.0, 0.0, 0.0, 0.0, 0.0, 0.0, 0.0, 0.0, 0.0, 0.0, 0.0, 0.0, 0.0, 0.014399115941984725, -0.00025728237271343938, 0.0, 0.0, 0.0, 0.0, -0.00025728237271343938, 0.011873735663333912]
---
header: 
  seq: 4575
  stamp: 
    secs: 1559576154
    nsecs: 654247596
  frame_id: map
pose: 
  pose: 
    position: 
      x: -1.33433619113
      y: -12.7392213283
      z: 0.0
    orientation: 
      x: 0.0
      y: 0.0
      z: 0.953607510489
      w: 0.301052679675
  covariance: [0.012041576457034478, 0.0, 0.0, 0.0, 0.0, 0.0, 0.0, 0.0, 0.0, 0.0, 0.0, 0.0, 0.0, 0.0, 0.0, 0.0, 0.0, 0.0, 0.0, 0.0, 0.0, 0.0, 0.0, 0.0, 0.0, 0.0, 0.0, 0.0, 0.013111722856972008, -0.00012748819599733323, 0.0, 0.0, 0.0, 0.0, -0.00012748819599733323, 0.013838733338945594]
---
header: 
  seq: 4576
  stamp: 
    secs: 1559576156
    nsecs: 834463410
  frame_id: map
pose: 
  pose: 
    position: 
      x: -1.3472926543
      y: -12.7234197577
      z: 0.0
    orientation: 
      x: 0.0
      y: 0.0
      z: 0.663159955714
      w: 0.748477703834
  covariance: [0.015280252370748867, 0.0, 0.0, 0.0, 0.0, 0.0, 0.0, 0.0, 0.0, 0.0, 0.0, 0.0, 0.0, 0.0, 0.0, 0.0, 0.0, 0.0, 0.0, 0.0, 0.0, 0.0, 0.0, 0.0, 0.0, 0.0, 0.0, 0.0, 0.013122318111290611, -0.0022358150217634968, 0.0, 0.0, 0.0, 0.0, -0.0022358150217670495, 0.01663076906929185]
---
header: 
  seq: 4577
  stamp: 
    secs: 1559576159
    nsecs: 41841287
  frame_id: map
pose: 
  pose: 
    position: 
      x: -1.2269009393
      y: -12.6309764947
      z: 0.0
    orientation: 
      x: 0.0
      y: 0.0
      z: 0.18298936675
      w: 0.983114892399
  covariance: [0.011108581736831234, 0.0, 0.0, 0.0, 0.0, 0.0, 0.0, 0.0, 0.0, 0.0, 0.0, 0.0, 0.0, 0.0, 0.0, 0.0, 0.0, 0.0, 0.0, 0.0, 0.0, 0.0, 0.0, 0.0, 0.0, 0.0, 0.0, 0.0, 0.01240218409889751, -0.00034268258489337611, 0.0, 0.0, 0.0, 0.0, -0.00034268258489337611, 0.015479859251545929]
---
header: 
  seq: 4578
  stamp: 
    secs: 1559576160
    nsecs: 324328568
  frame_id: map
pose: 
  pose: 
    position: 
      x: -0.691600118393
      y: -12.5442291257
      z: 0.0
    orientation: 
      x: 0.0
      y: 0.0
      z: -0.0204322563353
      w: 0.99979123966
  covariance: [0.0084436192509305726, 0.0, 0.0, 0.0, 0.0, 0.0, 0.0, 0.0, 0.0, 0.0, 0.0, 0.0, 0.0, 0.0, 0.0, 0.0, 0.0, 0.0, 0.0, 0.0, 0.0, 0.0, 0.0, 0.0, 0.0, 0.0, 0.0, 0.0, 0.012734052051632704, 0.00027300583623401258, 0.0, 0.0, 0.0, 0.0, 0.00027300583623401258, 0.014158226077699253]
---
header: 
  seq: 4579
  stamp: 
    secs: 1559576161
    nsecs: 130611178
  frame_id: map
pose: 
  pose: 
    position: 
      x: -0.114478249896
      y: -12.5908340706
      z: 0.0
    orientation: 
      x: 0.0
      y: 0.0
      z: -0.0615163350399
      w: 0.998106076789
  covariance: [0.0065831306426445647, 0.0, 0.0, 0.0, 0.0, 0.0, 0.0, 0.0, 0.0, 0.0, 0.0, 0.0, 0.0, 0.0, 0.0, 0.0, 0.0, 0.0, 0.0, 0.0, 0.0, 0.0, 0.0, 0.0, 0.0, 0.0, 0.0, 0.0, 0.013554463578497239, 0.0002688179553010855, 0.0, 0.0, 0.0, 0.0, 0.0002688179553010855, 0.013171776078839572]
---
header: 
  seq: 4580
  stamp: 
    secs: 1559576161
    nsecs: 717847201
  frame_id: map
pose: 
  pose: 
    position: 
      x: 0.350833326251
      y: -12.675540432
      z: 0.0
    orientation: 
      x: 0.0
      y: 0.0
      z: -0.101197650229
      w: 0.994866340564
  covariance: [0.0047625599074847943, 0.0, 0.0, 0.0, 0.0, 0.0, 0.0, 0.0, 0.0, 0.0, 0.0, 0.0, 0.0, 0.0, 0.0, 0.0, 0.0, 0.0, 0.0, 0.0, 0.0, 0.0, 0.0, 0.0, 0.0, 0.0, 0.0, 0.0, 0.013632609135489948, 0.0004980971832211818, 0.0, 0.0, 0.0, 0.0, 0.0004980971832211818, 0.012021991774398342]
---
header: 
  seq: 4581
  stamp: 
    secs: 1559576162
    nsecs: 318506417
  frame_id: map
pose: 
  pose: 
    position: 
      x: 0.817468809652
      y: -12.7833615722
      z: 0.0
    orientation: 
      x: 0.0
      y: 0.0
      z: -0.100353020989
      w: 0.994951893902
  covariance: [0.0038114905647828263, 0.0, 0.0, 0.0, 0.0, 0.0, 0.0, 0.0, 0.0, 0.0, 0.0, 0.0, 0.0, 0.0, 0.0, 0.0, 0.0, 0.0, 0.0, 0.0, 0.0, 0.0, 0.0, 0.0, 0.0, 0.0, 0.0, 0.0, 0.014243952262948337, 0.00030973189896315836, 0.0, 0.0, 0.0, 0.0, 0.00030973189896315836, 0.011039696755258101]
---
header: 
  seq: 4582
  stamp: 
    secs: 1559576162
    nsecs: 922426760
  frame_id: map
pose: 
  pose: 
    position: 
      x: 1.28844941907
      y: -12.8977392004
      z: 0.0
    orientation: 
      x: 0.0
      y: 0.0
      z: -0.10222177679
      w: 0.994761633935
  covariance: [0.0036349927077619199, 0.0, 0.0, 0.0, 0.0, 0.0, 0.0, 0.0, 0.0, 0.0, 0.0, 0.0, 0.0, 0.0, 0.0, 0.0, 0.0, 0.0, 0.0, 0.0, 0.0, 0.0, 0.0, 0.0, 0.0, 0.0, 0.0, 0.0, 0.016231838458783662, 0.00047975500840020084, 0.0, 0.0, 0.0, 0.0, 0.00047975500840020084, 0.0096382025969597319]
---
header: 
  seq: 4583
  stamp: 
    secs: 1559576163
    nsecs: 529709568
  frame_id: map
pose: 
  pose: 
    position: 
      x: 1.76801835373
      y: -13.0148305071
      z: 0.0
    orientation: 
      x: 0.0
      y: 0.0
      z: -0.0978227242043
      w: 0.995203855815
  covariance: [0.0035938020668411811, 0.0, 0.0, 0.0, 0.0, 0.0, 0.0, 0.0, 0.0, 0.0, 0.0, 0.0, 0.0, 0.0, 0.0, 0.0, 0.0, 0.0, 0.0, 0.0, 0.0, 0.0, 0.0, 0.0, 0.0, 0.0, 0.0, 0.0, 0.01871468691490584, 0.0003652810936901081, 0.0, 0.0, 0.0, 0.0, 0.00036528109368655538, 0.0089068096715685004]
---
header: 
  seq: 4584
  stamp: 
    secs: 1559576164
    nsecs: 109497632
  frame_id: map
pose: 
  pose: 
    position: 
      x: 2.21414989384
      y: -13.1179450655
      z: 0.0
    orientation: 
      x: 0.0
      y: 0.0
      z: -0.0947207263396
      w: 0.995503884473
  covariance: [0.0030247324996850646, 0.0, 0.0, 0.0, 0.0, 0.0, 0.0, 0.0, 0.0, 0.0, 0.0, 0.0, 0.0, 0.0, 0.0, 0.0, 0.0, 0.0, 0.0, 0.0, 0.0, 0.0, 0.0, 0.0, 0.0, 0.0, 0.0, 0.0, 0.019035939233072667, 0.00023416480167631125, 0.0, 0.0, 0.0, 0.0, 0.00023416480167631125, 0.0073626248728020901]
---
header: 
  seq: 4585
  stamp: 
    secs: 1559576164
    nsecs: 711651572
  frame_id: map
pose: 
  pose: 
    position: 
      x: 2.69228154624
      y: -13.1938543242
      z: 0.0
    orientation: 
      x: 0.0
      y: 0.0
      z: -0.060767347919
      w: 0.998151957082
  covariance: [0.0029205249229022623, 0.0, 0.0, 0.0, 0.0, 0.0, 0.0, 0.0, 0.0, 0.0, 0.0, 0.0, 0.0, 0.0, 0.0, 0.0, 0.0, 0.0, 0.0, 0.0, 0.0, 0.0, 0.0, 0.0, 0.0, 0.0, 0.0, 0.0, 0.020130465781922478, -0.0002778189531954781, 0.0, 0.0, 0.0, 0.0, -0.0002778189531954781, 0.0067430646822531229]
---
header: 
  seq: 4586
  stamp: 
    secs: 1559576165
    nsecs: 322173840
  frame_id: map
pose: 
  pose: 
    position: 
      x: 3.16008859021
      y: -13.2350568501
      z: 0.0
    orientation: 
      x: 0.0
      y: 0.0
      z: 0.00971707722101
      w: 0.999952788091
  covariance: [0.0027168800994979386, 0.0, 0.0, 0.0, 0.0, 0.0, 0.0, 0.0, 0.0, 0.0, 0.0, 0.0, 0.0, 0.0, 0.0, 0.0, 0.0, 0.0, 0.0, 0.0, 0.0, 0.0, 0.0, 0.0, 0.0, 0.0, 0.0, 0.0, 0.018318129134012352, -0.00052000565831155732, 0.0, 0.0, 0.0, 0.0, -0.00052000565831155732, 0.0061207532566297691]
---
header: 
  seq: 4587
  stamp: 
    secs: 1559576166
    nsecs: 15694029
  frame_id: map
pose: 
  pose: 
    position: 
      x: 3.69539686057
      y: -13.1750416347
      z: 0.0
    orientation: 
      x: 0.0
      y: 0.0
      z: 0.11961576756
      w: 0.99282025974
  covariance: [0.0028426667135347467, 0.0, 0.0, 0.0, 0.0, 0.0, 0.0, 0.0, 0.0, 0.0, 0.0, 0.0, 0.0, 0.0, 0.0, 0.0, 0.0, 0.0, 0.0, 0.0, 0.0, 0.0, 0.0, 0.0, 0.0, 0.0, 0.0, 0.0, 0.018963806340636647, -0.0012270154596959973, 0.0, 0.0, 0.0, 0.0, -0.0012270154597031028, 0.0059168909135326134]
---
header: 
  seq: 4588
  stamp: 
    secs: 1559576166
    nsecs: 822273650
  frame_id: map
pose: 
  pose: 
    position: 
      x: 4.29129245816
      y: -12.9673920191
      z: 0.0
    orientation: 
      x: 0.0
      y: 0.0
      z: 0.220689840208
      w: 0.975344039008
  covariance: [0.0035315012624031502, 0.0, 0.0, 0.0, 0.0, 0.0, 0.0, 0.0, 0.0, 0.0, 0.0, 0.0, 0.0, 0.0, 0.0, 0.0, 0.0, 0.0, 0.0, 0.0, 0.0, 0.0, 0.0, 0.0, 0.0, 0.0, 0.0, 0.0, 0.020788348668619509, -0.0024767532508324012, 0.0, 0.0, 0.0, 0.0, -0.0024767532508324012, 0.0063551347488153111]
---
header: 
  seq: 4589
  stamp: 
    secs: 1559576167
    nsecs: 611213912
  frame_id: map
pose: 
  pose: 
    position: 
      x: 4.80541157869
      y: -12.6851470193
      z: 0.0
    orientation: 
      x: 0.0
      y: 0.0
      z: 0.252171366702
      w: 0.967682593527
  covariance: [0.00344017505289047, 0.0, 0.0, 0.0, 0.0, 0.0, 0.0, 0.0, 0.0, 0.0, 0.0, 0.0, 0.0, 0.0, 0.0, 0.0, 0.0, 0.0, 0.0, 0.0, 0.0, 0.0, 0.0, 0.0, 0.0, 0.0, 0.0, 0.0, 0.021383403270865509, -0.0035950511828738464, 0.0, 0.0, 0.0, 0.0, -0.0035950511828738464, 0.0067426260393236665]
---
header: 
  seq: 4590
  stamp: 
    secs: 1559576168
    nsecs: 412474991
  frame_id: map
pose: 
  pose: 
    position: 
      x: 5.30633990647
      y: -12.4060940093
      z: 0.0
    orientation: 
      x: 0.0
      y: 0.0
      z: 0.200760491931
      w: 0.979640354865
  covariance: [0.0031770857151848146, 0.0, 0.0, 0.0, 0.0, 0.0, 0.0, 0.0, 0.0, 0.0, 0.0, 0.0, 0.0, 0.0, 0.0, 0.0, 0.0, 0.0, 0.0, 0.0, 0.0, 0.0, 0.0, 0.0, 0.0, 0.0, 0.0, 0.0, 0.022486862185949252, -0.0037939028850828799, 0.0, 0.0, 0.0, 0.0, -0.0037939028850828799, 0.0067477543459914385]
---
header: 
  seq: 4591
  stamp: 
    secs: 1559576169
    nsecs: 307388074
  frame_id: map
pose: 
  pose: 
    position: 
      x: 5.87290681268
      y: -12.2351061435
      z: 0.0
    orientation: 
      x: 0.0
      y: 0.0
      z: 0.0498618165168
      w: 0.998756126016
  covariance: [0.0033942757045176361, 0.0, 0.0, 0.0, 0.0, 0.0, 0.0, 0.0, 0.0, 0.0, 0.0, 0.0, 0.0, 0.0, 0.0, 0.0, 0.0, 0.0, 0.0, 0.0, 0.0, 0.0, 0.0, 0.0, 0.0, 0.0, 0.0, 0.0, 0.021017711080114892, -0.0034123451573392716, 0.0, 0.0, 0.0, 0.0, -0.0034123451573392716, 0.0070254950083295234]
---
header: 
  seq: 4592
  stamp: 
    secs: 1559576170
    nsecs: 113954026
  frame_id: map
pose: 
  pose: 
    position: 
      x: 6.3952182605
      y: -12.2713448127
      z: 0.0
    orientation: 
      x: 0.0
      y: 0.0
      z: -0.142151556068
      w: 0.989844904572
  covariance: [0.0032009432183111152, 0.0, 0.0, 0.0, 0.0, 0.0, 0.0, 0.0, 0.0, 0.0, 0.0, 0.0, 0.0, 0.0, 0.0, 0.0, 0.0, 0.0, 0.0, 0.0, 0.0, 0.0, 0.0, 0.0, 0.0, 0.0, 0.0, 0.0, 0.016972932126953152, -0.0022854155093770577, 0.0, 0.0, 0.0, 0.0, -0.0022854155093770577, 0.006687385049919066]
---
header: 
  seq: 4593
  stamp: 
    secs: 1559576170
    nsecs: 900762204
  frame_id: map
pose: 
  pose: 
    position: 
      x: 6.84397201913
      y: -12.5107064912
      z: 0.0
    orientation: 
      x: 0.0
      y: 0.0
      z: -0.333486608346
      w: 0.942754836664
  covariance: [0.0031885771222185839, 0.0, 0.0, 0.0, 0.0, 0.0, 0.0, 0.0, 0.0, 0.0, 0.0, 0.0, 0.0, 0.0, 0.0, 0.0, 0.0, 0.0, 0.0, 0.0, 0.0, 0.0, 0.0, 0.0, 0.0, 0.0, 0.0, 0.0, 0.012194460418514338, -0.001157815855978339, 0.0, 0.0, 0.0, 0.0, -0.001157815855978339, 0.0064139269016085512]
---
header: 
  seq: 4594
  stamp: 
    secs: 1559576171
    nsecs: 716102167
  frame_id: map
pose: 
  pose: 
    position: 
      x: 7.21571368724
      y: -12.9353530586
      z: 0.0
    orientation: 
      x: 0.0
      y: 0.0
      z: -0.506972094158
      w: 0.861962467712
  covariance: [0.0037018710903409216, 0.0, 0.0, 0.0, 0.0, 0.0, 0.0, 0.0, 0.0, 0.0, 0.0, 0.0, 0.0, 0.0, 0.0, 0.0, 0.0, 0.0, 0.0, 0.0, 0.0, 0.0, 0.0, 0.0, 0.0, 0.0, 0.0, 0.0, 0.010059825068120634, -0.00016447624003272684, 0.0, 0.0, 0.0, 0.0, -0.00016447624003272684, 0.0066106302625713103]
---
header: 
  seq: 4595
  stamp: 
    secs: 1559576172
    nsecs: 781116251
  frame_id: map
pose: 
  pose: 
    position: 
      x: 7.35587161824
      y: -13.4546566277
      z: 0.0
    orientation: 
      x: 0.0
      y: 0.0
      z: -0.71687655563
      w: 0.697200117604
  covariance: [0.0041501776846875815, 0.0, 0.0, 0.0, 0.0, 0.0, 0.0, 0.0, 0.0, 0.0, 0.0, 0.0, 0.0, 0.0, 0.0, 0.0, 0.0, 0.0, 0.0, 0.0, 0.0, 0.0, 0.0, 0.0, 0.0, 0.0, 0.0, 0.0, 0.0087280664748925832, 0.00044164319507402624, 0.0, 0.0, 0.0, 0.0, 0.00044164319507402624, 0.0079915040636265589]
---
header: 
  seq: 4596
  stamp: 
    secs: 1559576174
    nsecs: 488011830
  frame_id: map
pose: 
  pose: 
    position: 
      x: 7.23767416583
      y: -13.8548713983
      z: 0.0
    orientation: 
      x: 0.0
      y: 0.0
      z: -0.85840426059
      w: 0.512973805765
  covariance: [0.0041203173805492727, 0.0, 0.0, 0.0, 0.0, 0.0, 0.0, 0.0, 0.0, 0.0, 0.0, 0.0, 0.0, 0.0, 0.0, 0.0, 0.0, 0.0, 0.0, 0.0, 0.0, 0.0, 0.0, 0.0, 0.0, 0.0, 0.0, 0.0, 0.0072292524797259814, 0.00050028576173395407, 0.0, 0.0, 0.0, 0.0, 0.00050028576174816492, 0.0093837142953276369]
---
header: 
  seq: 4597
  stamp: 
    secs: 1559576180
    nsecs: 289891929
  frame_id: map
pose: 
  pose: 
    position: 
      x: 7.0822219994
      y: -14.095393338
      z: 0.0
    orientation: 
      x: 0.0
      y: 0.0
      z: -0.734730510634
      w: 0.678359106037
  covariance: [0.0077764623013747668, 0.0, 0.0, 0.0, 0.0, 0.0, 0.0, 0.0, 0.0, 0.0, 0.0, 0.0, 0.0, 0.0, 0.0, 0.0, 0.0, 0.0, 0.0, 0.0, 0.0, 0.0, 0.0, 0.0, 0.0, 0.0, 0.0, 0.0, 0.0079310690454596818, 0.0012380397757068154, 0.0, 0.0, 0.0, 0.0, 0.0012380397757068154, 0.011207837746308895]
---
header: 
  seq: 4598
  stamp: 
    secs: 1559576196
    nsecs: 190025487
  frame_id: map
pose: 
  pose: 
    position: 
      x: 7.24647039027
      y: -14.6547291861
      z: 0.0
    orientation: 
      x: 0.0
      y: 0.0
      z: -0.720097814609
      w: 0.693872565674
  covariance: [0.010485678153922758, 0.0, 0.0, 0.0, 0.0, 0.0, 0.0, 0.0, 0.0, 0.0, 0.0, 0.0, 0.0, 0.0, 0.0, 0.0, 0.0, 0.0, 0.0, 0.0, 0.0, 0.0, 0.0, 0.0, 0.0, 0.0, 0.0, 0.0, 0.008326192460573931, 0.00081838812173818277, 0.0, 0.0, 0.0, 0.0, 0.00081838812173818277, 0.016305346694442543]
---
header: 
  seq: 4599
  stamp: 
    secs: 1559576203
    nsecs: 155089797
  frame_id: map
pose: 
  pose: 
    position: 
      x: 7.23960431723
      y: -15.1304965417
      z: 0.0
    orientation: 
      x: 0.0
      y: 0.0
      z: -0.683830468228
      w: 0.729640932735
  covariance: [0.0096194458053462922, 0.0, 0.0, 0.0, 0.0, 0.0, 0.0, 0.0, 0.0, 0.0, 0.0, 0.0, 0.0, 0.0, 0.0, 0.0, 0.0, 0.0, 0.0, 0.0, 0.0, 0.0, 0.0, 0.0, 0.0, 0.0, 0.0, 0.0, 0.0062709469541147745, 0.00093338366793359838, 0.0, 0.0, 0.0, 0.0, 0.00093338366791938753, 0.023754022632085869]
---
header: 
  seq: 4600
  stamp: 
    secs: 1559576225
    nsecs: 354584517
  frame_id: map
pose: 
  pose: 
    position: 
      x: 7.21164198912
      y: -14.6551049557
      z: 0.0
    orientation: 
      x: 0.0
      y: 0.0
      z: -0.675765379888
      w: 0.737116782704
  covariance: [0.0096294746244495171, 0.0, 0.0, 0.0, 0.0, 0.0, 0.0, 0.0, 0.0, 0.0, 0.0, 0.0, 0.0, 0.0, 0.0, 0.0, 0.0, 0.0, 0.0, 0.0, 0.0, 0.0, 0.0, 0.0, 0.0, 0.0, 0.0, 0.0, 0.005388683023199576, 9.555038707879254e-05, 0.0, 0.0, 0.0, 0.0, 9.555038707879254e-05, 0.014375913448369493]
---
header: 
  seq: 4601
  stamp: 
    secs: 1559576226
    nsecs: 951450328
  frame_id: map
pose: 
  pose: 
    position: 
      x: 7.17832726786
      y: -14.1880352052
      z: 0.0
    orientation: 
      x: 0.0
      y: 0.0
      z: -0.68543483026
      w: 0.728133980437
  covariance: [0.0092431665707717291, 0.0, 0.0, 0.0, 0.0, 0.0, 0.0, 0.0, 0.0, 0.0, 0.0, 0.0, 0.0, 0.0, 0.0, 0.0, 0.0, 0.0, 0.0, 0.0, 0.0, 0.0, 0.0, 0.0, 0.0, 0.0, 0.0, 0.0, 0.0050548664468414769, 0.00024823280931127309, 0.0, 0.0, 0.0, 0.0, 0.00024823280929706223, 0.010903149258887482]
---
header: 
  seq: 4602
  stamp: 
    secs: 1559576228
    nsecs: 565568853
  frame_id: map
pose: 
  pose: 
    position: 
      x: 7.15251707588
      y: -13.7121367434
      z: 0.0
    orientation: 
      x: 0.0
      y: 0.0
      z: -0.679231960638
      w: 0.733923663365
  covariance: [0.008256115652860772, 0.0, 0.0, 0.0, 0.0, 0.0, 0.0, 0.0, 0.0, 0.0, 0.0, 0.0, 0.0, 0.0, 0.0, 0.0, 0.0, 0.0, 0.0, 0.0, 0.0, 0.0, 0.0, 0.0, 0.0, 0.0, 0.0, 0.0, 0.0047382008532081436, 0.00035191157298708779, 0.0, 0.0, 0.0, 0.0, 0.00035191157298708779, 0.011140615919430155]
---
header: 
  seq: 4603
  stamp: 
    secs: 1559576232
    nsecs: 750290703
  frame_id: map
pose: 
  pose: 
    position: 
      x: 7.12122146634
      y: -13.3347073381
      z: 0.0
    orientation: 
      x: 0.0
      y: 0.0
      z: -0.84720260043
      w: 0.531269944401
  covariance: [0.0099625662448325544, 0.0, 0.0, 0.0, 0.0, 0.0, 0.0, 0.0, 0.0, 0.0, 0.0, 0.0, 0.0, 0.0, 0.0, 0.0, 0.0, 0.0, 0.0, 0.0, 0.0, 0.0, 0.0, 0.0, 0.0, 0.0, 0.0, 0.0, 0.0073352315368400032, 0.00047484047108627375, 0.0, 0.0, 0.0, 0.0, 0.00047484047108627375, 0.014025056189821094]
---
header: 
  seq: 4604
  stamp: 
    secs: 1559576234
    nsecs: 918835621
  frame_id: map
pose: 
  pose: 
    position: 
      x: 7.14457733448
      y: -13.3155079061
      z: 0.0
    orientation: 
      x: 0.0
      y: 0.0
      z: -0.999927575729
      w: 0.012035086081
  covariance: [0.010920620376439337, 0.0, 0.0, 0.0, 0.0, 0.0, 0.0, 0.0, 0.0, 0.0, 0.0, 0.0, 0.0, 0.0, 0.0, 0.0, 0.0, 0.0, 0.0, 0.0, 0.0, 0.0, 0.0, 0.0, 0.0, 0.0, 0.0, 0.0, 0.0068027462786841445, 0.00029409350693326153, 0.0, 0.0, 0.0, 0.0, 0.00029409350693326153, 0.01566276846258086]
---
header: 
  seq: 4605
  stamp: 
    secs: 1559576236
    nsecs: 539245389
  frame_id: map
pose: 
  pose: 
    position: 
      x: 6.72433574852
      y: -13.1080447118
      z: 0.0
    orientation: 
      x: 0.0
      y: 0.0
      z: 0.955340901057
      w: 0.295505943709
  covariance: [0.0098927277023322518, 0.0, 0.0, 0.0, 0.0, 0.0, 0.0, 0.0, 0.0, 0.0, 0.0, 0.0, 0.0, 0.0, 0.0, 0.0, 0.0, 0.0, 0.0, 0.0, 0.0, 0.0, 0.0, 0.0, 0.0, 0.0, 0.0, 0.0, 0.0083048569116492225, 0.0022069266785293244, 0.0, 0.0, 0.0, 0.0, 0.0022069266785293244, 0.01680510210168526]
---
header: 
  seq: 4606
  stamp: 
    secs: 1559576237
    nsecs: 324454732
  frame_id: map
pose: 
  pose: 
    position: 
      x: 6.38983341091
      y: -12.8307246507
      z: 0.0
    orientation: 
      x: 0.0
      y: 0.0
      z: 0.947467518945
      w: 0.319851997876
  covariance: [0.0084130010235094269, 0.0, 0.0, 0.0, 0.0, 0.0, 0.0, 0.0, 0.0, 0.0, 0.0, 0.0, 0.0, 0.0, 0.0, 0.0, 0.0, 0.0, 0.0, 0.0, 0.0, 0.0, 0.0, 0.0, 0.0, 0.0, 0.0, 0.0, 0.011102775784083366, 0.0043886849281996008, 0.0, 0.0, 0.0, 0.0, 0.0043886849281996008, 0.018040338391483245]
---
header: 
  seq: 4607
  stamp: 
    secs: 1559576238
    nsecs: 406336085
  frame_id: map
pose: 
  pose: 
    position: 
      x: 6.05042995074
      y: -12.5521174874
      z: 0.0
    orientation: 
      x: 0.0
      y: 0.0
      z: 0.973373026222
      w: 0.229226856682
  covariance: [0.0072732383908754245, 0.0, 0.0, 0.0, 0.0, 0.0, 0.0, 0.0, 0.0, 0.0, 0.0, 0.0, 0.0, 0.0, 0.0, 0.0, 0.0, 0.0, 0.0, 0.0, 0.0, 0.0, 0.0, 0.0, 0.0, 0.0, 0.0, 0.0, 0.014305501249364172, 0.0065585253661075982, 0.0, 0.0, 0.0, 0.0, 0.0065585253660933873, 0.018367218941309663]
---
header: 
  seq: 4608
  stamp: 
    secs: 1559576240
    nsecs: 118199650
  frame_id: map
pose: 
  pose: 
    position: 
      x: 5.61790318701
      y: -12.4601115305
      z: 0.0
    orientation: 
      x: 0.0
      y: 0.0
      z: -0.999491245342
      w: 0.0318943644541
  covariance: [0.0055301613305524435, 0.0, 0.0, 0.0, 0.0, 0.0, 0.0, 0.0, 0.0, 0.0, 0.0, 0.0, 0.0, 0.0, 0.0, 0.0, 0.0, 0.0, 0.0, 0.0, 0.0, 0.0, 0.0, 0.0, 0.0, 0.0, 0.0, 0.0, 0.016060943307073378, 0.0059987708301930459, 0.0, 0.0, 0.0, 0.0, 0.0059987708301930459, 0.015560568753996924]
---
header: 
  seq: 4609
  stamp: 
    secs: 1559576241
    nsecs: 94052254
  frame_id: map
pose: 
  pose: 
    position: 
      x: 5.05405842701
      y: -12.5011782849
      z: 0.0
    orientation: 
      x: 0.0
      y: 0.0
      z: -0.997511547228
      w: 0.0705032846487
  covariance: [0.0046962164215267957, 0.0, 0.0, 0.0, 0.0, 0.0, 0.0, 0.0, 0.0, 0.0, 0.0, 0.0, 0.0, 0.0, 0.0, 0.0, 0.0, 0.0, 0.0, 0.0, 0.0, 0.0, 0.0, 0.0, 0.0, 0.0, 0.0, 0.0, 0.017718894201594126, 0.0049056403833775417, 0.0, 0.0, 0.0, 0.0, 0.0049056403833917525, 0.013032557018023472]
---
header: 
  seq: 4610
  stamp: 
    secs: 1559576241
    nsecs: 898690066
  frame_id: map
pose: 
  pose: 
    position: 
      x: 4.45703989823
      y: -12.5670463518
      z: 0.0
    orientation: 
      x: 0.0
      y: 0.0
      z: -0.997755010567
      w: 0.066969686343
  covariance: [0.07945737388767303, 0.0, 0.0, 0.0, 0.0, 0.0, 0.0, 0.0, 0.0, 0.0, 0.0, 0.0, 0.0, 0.0, 0.0, 0.0, 0.0, 0.0, 0.0, 0.0, 0.0, 0.0, 0.0, 0.0, 0.0, 0.0, 0.0, 0.0, 3.9419100566108112, 1.4479565547551236, 0.0, 0.0, 0.0, 0.0, 1.4479565547551236, 2.3449395768080978]
---
header: 
  seq: 4611
  stamp: 
    secs: 1559576242
    nsecs: 697057949
  frame_id: map
pose: 
  pose: 
    position: 
      x: 3.82139224035
      y: -12.6654338183
      z: 0.0
    orientation: 
      x: 0.0
      y: 0.0
      z: -0.997898912738
      w: 0.0647901223609
  covariance: [0.031967774948192113, 0.0, 0.0, 0.0, 0.0, 0.0, 0.0, 0.0, 0.0, 0.0, 0.0, 0.0, 0.0, 0.0, 0.0, 0.0, 0.0, 0.0, 0.0, 0.0, 0.0, 0.0, 0.0, 0.0, 0.0, 0.0, 0.0, 0.0, 1.561394240102415, 0.75914734109715665, 0.0, 0.0, 0.0, 0.0, 0.75914734109715665, 1.061691631235141]
---
header: 
  seq: 4612
  stamp: 
    secs: 1559576243
    nsecs: 488146862
  frame_id: map
pose: 
  pose: 
    position: 
      x: 3.19858828784
      y: -12.7513513459
      z: 0.0
    orientation: 
      x: 0.0
      y: 0.0
      z: -0.99887230181
      w: 0.0474776229109
  covariance: [0.018759296868271675, 0.0, 0.0, 0.0, 0.0, 0.0, 0.0, 0.0, 0.0, 0.0, 0.0, 0.0, 0.0, 0.0, 0.0, 0.0, 0.0, 0.0, 0.0, 0.0, 0.0, 0.0, 0.0, 0.0, 0.0, 0.0, 0.0, 0.0, 1.2043765217921911, 0.7883196264417448, 0.0, 0.0, 0.0, 0.0, 0.7883196264417377, 0.94373991681892755]
---
header: 
  seq: 4613
  stamp: 
    secs: 1559576244
    nsecs: 297435532
  frame_id: map
pose: 
  pose: 
    position: 
      x: 2.53502002034
      y: -12.7973114723
      z: 0.0
    orientation: 
      x: 0.0
      y: 0.0
      z: -0.999959058124
      w: 0.00904887146597
  covariance: [0.016288088038304355, 0.0, 0.0, 0.0, 0.0, 0.0, 0.0, 0.0, 0.0, 0.0, 0.0, 0.0, 0.0, 0.0, 0.0, 0.0, 0.0, 0.0, 0.0, 0.0, 0.0, 0.0, 0.0, 0.0, 0.0, 0.0, 0.0, 0.0, 0.8849171625840756, 0.57883017864038233, 0.0, 0.0, 0.0, 0.0, 0.57883017864038233, 0.64339012413496055]
---
header: 
  seq: 4614
  stamp: 
    secs: 1559576244
    nsecs: 998844046
  frame_id: map
pose: 
  pose: 
    position: 
      x: 1.9786810329
      y: -12.8020532466
      z: 0.0
    orientation: 
      x: 0.0
      y: 0.0
      z: -0.999998836163
      w: 0.00152567138561
  covariance: [0.015002013193310898, 0.0, 0.0, 0.0, 0.0, 0.0, 0.0, 0.0, 0.0, 0.0, 0.0, 0.0, 0.0, 0.0, 0.0, 0.0, 0.0, 0.0, 0.0, 0.0, 0.0, 0.0, 0.0, 0.0, 0.0, 0.0, 0.0, 0.0, 0.58020069973732269, 0.41367894559210561, 0.0, 0.0, 0.0, 0.0, 0.41367894559210561, 0.56511036323204511]
---
header: 
  seq: 4615
  stamp: 
    secs: 1559576245
    nsecs: 690893169
  frame_id: map
pose: 
  pose: 
    position: 
      x: 1.42103820974
      y: -12.7987840704
      z: 0.0
    orientation: 
      x: 0.0
      y: 0.0
      z: 0.999998071601
      w: 0.00196387210878
  covariance: [0.011537063697510574, 0.0, 0.0, 0.0, 0.0, 0.0, 0.0, 0.0, 0.0, 0.0, 0.0, 0.0, 0.0, 0.0, 0.0, 0.0, 0.0, 0.0, 0.0, 0.0, 0.0, 0.0, 0.0, 0.0, 0.0, 0.0, 0.0, 0.0, 0.21936285109011266, 0.24083446210181766, 0.0, 0.0, 0.0, 0.0, 0.24083446210181411, 0.38528504373383021]
---
header: 
  seq: 4616
  stamp: 
    secs: 1559576246
    nsecs: 389175885
  frame_id: map
pose: 
  pose: 
    position: 
      x: 0.861623876501
      y: -12.7419831306
      z: 0.0
    orientation: 
      x: 0.0
      y: 0.0
      z: 0.999489564122
      w: 0.0319470062806
  covariance: [0.012221554854199516, 0.0, 0.0, 0.0, 0.0, 0.0, 0.0, 0.0, 0.0, 0.0, 0.0, 0.0, 0.0, 0.0, 0.0, 0.0, 0.0, 0.0, 0.0, 0.0, 0.0, 0.0, 0.0, 0.0, 0.0, 0.0, 0.0, 0.0, 0.17303031876104896, 0.24152189572787486, 0.0, 0.0, 0.0, 0.0, 0.24152189572787486, 0.45081632935426486]
---
header: 
  seq: 4617
  stamp: 
    secs: 1559576247
    nsecs: 87086917
  frame_id: map
pose: 
  pose: 
    position: 
      x: 0.303543553732
      y: -12.6934942512
      z: 0.0
    orientation: 
      x: 0.0
      y: 0.0
      z: 0.999876624048
      w: 0.0157078541584
  covariance: [0.0087667761820238704, 0.0, 0.0, 0.0, 0.0, 0.0, 0.0, 0.0, 0.0, 0.0, 0.0, 0.0, 0.0, 0.0, 0.0, 0.0, 0.0, 0.0, 0.0, 0.0, 0.0, 0.0, 0.0, 0.0, 0.0, 0.0, 0.0, 0.0, 0.11275800032355647, 0.14893226418133512, 0.0, 0.0, 0.0, 0.0, 0.14893226418133601, 0.29745670343457126]
---
header: 
  seq: 4618
  stamp: 
    secs: 1559576247
    nsecs: 972068731
  frame_id: map
pose: 
  pose: 
    position: 
      x: -0.281652058555
      y: -12.68720383
      z: 0.0
    orientation: 
      x: 0.0
      y: 0.0
      z: -0.999492756212
      w: 0.0318469822766
  covariance: [0.0046506890355532222, 0.0, 0.0, 0.0, 0.0, 0.0, 0.0, 0.0, 0.0, 0.0, 0.0, 0.0, 0.0, 0.0, 0.0, 0.0, 0.0, 0.0, 0.0, 0.0, 0.0, 0.0, 0.0, 0.0, 0.0, 0.0, 0.0, 0.0, 0.037471894708363811, 0.0249936190536818, 0.0, 0.0, 0.0, 0.0, 0.0249936190536818, 0.061615344489176348]
---
header: 
  seq: 4619
  stamp: 
    secs: 1559576249
    nsecs: 757105649
  frame_id: map
pose: 
  pose: 
    position: 
      x: -0.838695943404
      y: -12.7658830556
      z: 0.0
    orientation: 
      x: 0.0
      y: 0.0
      z: -0.990766646776
      w: 0.135578212248
  covariance: [0.003688515194693401, 0.0, 0.0, 0.0, 0.0, 0.0, 0.0, 0.0, 0.0, 0.0, 0.0, 0.0, 0.0, 0.0, 0.0, 0.0, 0.0, 0.0, 0.0, 0.0, 0.0, 0.0, 0.0, 0.0, 0.0, 0.0, 0.0, 0.0, 0.018119899594237109, -0.0016197769120357981, 0.0, 0.0, 0.0, 0.0, -0.0016197769120357981, 0.0086498333352902339]
---
header: 
  seq: 4620
  stamp: 
    secs: 1559576256
    nsecs: 39145921
  frame_id: map
pose: 
  pose: 
    position: 
      x: -1.02070397021
      y: -12.8216269743
      z: 0.0
    orientation: 
      x: 0.0
      y: 0.0
      z: -0.786436279154
      w: 0.617671416556
  covariance: [0.0077439498631902207, 0.0, 0.0, 0.0, 0.0, 0.0, 0.0, 0.0, 0.0, 0.0, 0.0, 0.0, 0.0, 0.0, 0.0, 0.0, 0.0, 0.0, 0.0, 0.0, 0.0, 0.0, 0.0, 0.0, 0.0, 0.0, 0.0, 0.0, 0.015823378348179273, 0.00030252798154568829, 0.0, 0.0, 0.0, 0.0, 0.00030252798154568829, 0.012549919291479939]
---
header: 
  seq: 4621
  stamp: 
    secs: 1559576264
    nsecs: 918627455
  frame_id: map
pose: 
  pose: 
    position: 
      x: -1.25561321135
      y: -13.1698169381
      z: 0.0
    orientation: 
      x: 0.0
      y: 0.0
      z: -0.873208761329
      w: 0.487346344131
  covariance: [0.0075191821305990907, 0.0, 0.0, 0.0, 0.0, 0.0, 0.0, 0.0, 0.0, 0.0, 0.0, 0.0, 0.0, 0.0, 0.0, 0.0, 0.0, 0.0, 0.0, 0.0, 0.0, 0.0, 0.0, 0.0, 0.0, 0.0, 0.0, 0.0, 0.01410132885053853, -0.0012239127238691941, 0.0, 0.0, 0.0, 0.0, -0.0012239127238691941, 0.014307938852712324]
---
header: 
  seq: 4622
  stamp: 
    secs: 1559576274
    nsecs: 559773860
  frame_id: map
pose: 
  pose: 
    position: 
      x: -1.30309610775
      y: -13.5728924529
      z: 0.0
    orientation: 
      x: 0.0
      y: 0.0
      z: -0.702996928353
      w: 0.711192884334
  covariance: [0.010241592252039555, 0.0, 0.0, 0.0, 0.0, 0.0, 0.0, 0.0, 0.0, 0.0, 0.0, 0.0, 0.0, 0.0, 0.0, 0.0, 0.0, 0.0, 0.0, 0.0, 0.0, 0.0, 0.0, 0.0, 0.0, 0.0, 0.0, 0.0, 0.014242241599247528, -0.0010018305609931838, 0.0, 0.0, 0.0, 0.0, -0.0010018305609931838, 0.018175148259856548]
---
header: 
  seq: 4623
  stamp: 
    secs: 1559576293
    nsecs: 127718929
  frame_id: map
pose: 
  pose: 
    position: 
      x: -1.34911902054
      y: -13.5760254021
      z: 0.0
    orientation: 
      x: 0.0
      y: 0.0
      z: -0.709721620978
      w: 0.704482235913
  covariance: [0.0091642635259661254, 0.0, 0.0, 0.0, 0.0, 0.0, 0.0, 0.0, 0.0, 0.0, 0.0, 0.0, 0.0, 0.0, 0.0, 0.0, 0.0, 0.0, 0.0, 0.0, 0.0, 0.0, 0.0, 0.0, 0.0, 0.0, 0.0, 0.0, 0.011294718559139598, -0.00052381071402394662, 0.0, 0.0, 0.0, 0.0, -0.00052381071402394662, 0.017204124840030522]
---
header: 
  seq: 4624
  stamp: 
    secs: 1559576294
    nsecs: 837219924
  frame_id: map
pose: 
  pose: 
    position: 
      x: -1.31314720018
      y: -13.0836992738
      z: 0.0
    orientation: 
      x: 0.0
      y: 0.0
      z: -0.710726412691
      w: 0.703468525453
  covariance: [0.0075783428749890622, 0.0, 0.0, 0.0, 0.0, 0.0, 0.0, 0.0, 0.0, 0.0, 0.0, 0.0, 0.0, 0.0, 0.0, 0.0, 0.0, 0.0, 0.0, 0.0, 0.0, 0.0, 0.0, 0.0, 0.0, 0.0, 0.0, 0.0, 0.0091867290434813412, 0.00094691299827713105, 0.0, 0.0, 0.0, 0.0, 0.00094691299827713105, 0.012430616732456127]
---
header: 
  seq: 4625
  stamp: 
    secs: 1559576299
    nsecs: 22201709
  frame_id: map
pose: 
  pose: 
    position: 
      x: -1.31833919867
      y: -12.7567139151
      z: 0.0
    orientation: 
      x: 0.0
      y: 0.0
      z: -0.877141705123
      w: 0.480231641121
  covariance: [0.010646746142044429, 0.0, 0.0, 0.0, 0.0, 0.0, 0.0, 0.0, 0.0, 0.0, 0.0, 0.0, 0.0, 0.0, 0.0, 0.0, 0.0, 0.0, 0.0, 0.0, 0.0, 0.0, 0.0, 0.0, 0.0, 0.0, 0.0, 0.0, 0.012112672989700663, 0.0011549738861234764, 0.0, 0.0, 0.0, 0.0, 0.0011549738861128182, 0.011898938647851605]
---
header: 
  seq: 4626
  stamp: 
    secs: 1559576301
    nsecs: 296123125
  frame_id: map
pose: 
  pose: 
    position: 
      x: -1.34370422711
      y: -12.7433278695
      z: 0.0
    orientation: 
      x: 0.0
      y: 0.0
      z: 0.998773183229
      w: 0.0495189707417
  covariance: [0.011952134896963935, 0.0, 0.0, 0.0, 0.0, 0.0, 0.0, 0.0, 0.0, 0.0, 0.0, 0.0, 0.0, 0.0, 0.0, 0.0, 0.0, 0.0, 0.0, 0.0, 0.0, 0.0, 0.0, 0.0, 0.0, 0.0, 0.0, 0.0, 0.01428664097565234, 0.0029584747902461333, 0.0, 0.0, 0.0, 0.0, 0.0029584747902461333, 0.012985360317543578]
---
header: 
  seq: 4627
  stamp: 
    secs: 1559576303
    nsecs: 492001293
  frame_id: map
pose: 
  pose: 
    position: 
      x: -1.36847220997
      y: -12.6857867421
      z: 0.0
    orientation: 
      x: 0.0
      y: 0.0
      z: 0.829943820499
      w: 0.557846981542
  covariance: [0.011398531877685796, 0.0, 0.0, 0.0, 0.0, 0.0, 0.0, 0.0, 0.0, 0.0, 0.0, 0.0, 0.0, 0.0, 0.0, 0.0, 0.0, 0.0, 0.0, 0.0, 0.0, 0.0, 0.0, 0.0, 0.0, 0.0, 0.0, 0.0, 0.012263033877727049, 0.0018782020635092498, 0.0, 0.0, 0.0, 0.0, 0.0018782020635092498, 0.015780259896931492]
---
header: 
  seq: 4628
  stamp: 
    secs: 1559576305
    nsecs: 687476104
  frame_id: map
pose: 
  pose: 
    position: 
      x: -1.35934242804
      y: -12.681865448
      z: 0.0
    orientation: 
      x: 0.0
      y: 0.0
      z: 0.433399331738
      w: 0.901201985822
  covariance: [0.011285197356209281, 0.0, 0.0, 0.0, 0.0, 0.0, 0.0, 0.0, 0.0, 0.0, 0.0, 0.0, 0.0, 0.0, 0.0, 0.0, 0.0, 0.0, 0.0, 0.0, 0.0, 0.0, 0.0, 0.0, 0.0, 0.0, 0.0, 0.0, 0.013169559656799976, 0.0015312059138127515, 0.0, 0.0, 0.0, 0.0, 0.0015312059138127515, 0.014661424096276833]
---
header: 
  seq: 4629
  stamp: 
    secs: 1559576307
    nsecs: 571096630
  frame_id: map
pose: 
  pose: 
    position: 
      x: -0.911799343516
      y: -12.4836998768
      z: 0.0
    orientation: 
      x: 0.0
      y: 0.0
      z: 0.0719302157172
      w: 0.997409667121
  covariance: [0.0086323566515317703, 0.0, 0.0, 0.0, 0.0, 0.0, 0.0, 0.0, 0.0, 0.0, 0.0, 0.0, 0.0, 0.0, 0.0, 0.0, 0.0, 0.0, 0.0, 0.0, 0.0, 0.0, 0.0, 0.0, 0.0, 0.0, 0.0, 0.0, 0.012669890875193542, 0.0017003430484062133, 0.0, 0.0, 0.0, 0.0, 0.0017003430484079896, 0.014216976109353114]
---
header: 
  seq: 4630
  stamp: 
    secs: 1559576308
    nsecs: 477718263
  frame_id: map
pose: 
  pose: 
    position: 
      x: -0.387067697409
      y: -12.5328869186
      z: 0.0
    orientation: 
      x: 0.0
      y: 0.0
      z: -0.0487658890713
      w: 0.998810236263
  covariance: [0.0075074226077834344, 0.0, 0.0, 0.0, 0.0, 0.0, 0.0, 0.0, 0.0, 0.0, 0.0, 0.0, 0.0, 0.0, 0.0, 0.0, 0.0, 0.0, 0.0, 0.0, 0.0, 0.0, 0.0, 0.0, 0.0, 0.0, 0.0, 0.0, 0.013859451640449967, 0.00044238517156899469, 0.0, 0.0, 0.0, 0.0, 0.00044238517156899469, 0.014305451660967687]
---
header: 
  seq: 4631
  stamp: 
    secs: 1559576309
    nsecs: 174634525
  frame_id: map
pose: 
  pose: 
    position: 
      x: 0.183732390706
      y: -12.5770400902
      z: 0.0
    orientation: 
      x: 0.0
      y: 0.0
      z: -0.0739447739204
      w: 0.997262337808
  covariance: [0.0059386683927676728, 0.0, 0.0, 0.0, 0.0, 0.0, 0.0, 0.0, 0.0, 0.0, 0.0, 0.0, 0.0, 0.0, 0.0, 0.0, 0.0, 0.0, 0.0, 0.0, 0.0, 0.0, 0.0, 0.0, 0.0, 0.0, 0.0, 0.0, 0.015336743250525708, 0.00043497048520220959, 0.0, 0.0, 0.0, 0.0, 0.00043497048520220959, 0.013214302444677951]
---
header: 
  seq: 4632
  stamp: 
    secs: 1559576309
    nsecs: 868635664
  frame_id: map
pose: 
  pose: 
    position: 
      x: 0.721046409621
      y: -12.6967419333
      z: 0.0
    orientation: 
      x: 0.0
      y: 0.0
      z: -0.0814915195669
      w: 0.996674035098
  covariance: [0.0052022719182947437, 0.0, 0.0, 0.0, 0.0, 0.0, 0.0, 0.0, 0.0, 0.0, 0.0, 0.0, 0.0, 0.0, 0.0, 0.0, 0.0, 0.0, 0.0, 0.0, 0.0, 0.0, 0.0, 0.0, 0.0, 0.0, 0.0, 0.0, 0.017094730065058569, 1.3433975305335014e-05, 0.0, 0.0, 0.0, 0.0, 1.3433975305335014e-05, 0.012366001103771123]
---
header: 
  seq: 4633
  stamp: 
    secs: 1559576310
    nsecs: 468719905
  frame_id: map
pose: 
  pose: 
    position: 
      x: 1.20002762205
      y: -12.7976756731
      z: 0.0
    orientation: 
      x: 0.0
      y: 0.0
      z: -0.0674677424268
      w: 0.997721455985
  covariance: [0.0043913023107199772, 0.0, 0.0, 0.0, 0.0, 0.0, 0.0, 0.0, 0.0, 0.0, 0.0, 0.0, 0.0, 0.0, 0.0, 0.0, 0.0, 0.0, 0.0, 0.0, 0.0, 0.0, 0.0, 0.0, 0.0, 0.0, 0.0, 0.0, 0.018793511883402947, -0.00011224691399592579, 0.0, 0.0, 0.0, 0.0, -0.00011224691399592579, 0.011007699548067145]
---
header: 
  seq: 4634
  stamp: 
    secs: 1559576311
    nsecs: 159851924
  frame_id: map
pose: 
  pose: 
    position: 
      x: 1.74040851498
      y: -12.8704462683
      z: 0.0
    orientation: 
      x: 0.0
      y: 0.0
      z: -0.022336967157
      w: 0.999750498824
  covariance: [0.0045243120843155146, 0.0, 0.0, 0.0, 0.0, 0.0, 0.0, 0.0, 0.0, 0.0, 0.0, 0.0, 0.0, 0.0, 0.0, 0.0, 0.0, 0.0, 0.0, 0.0, 0.0, 0.0, 0.0, 0.0, 0.0, 0.0, 0.0, 0.0, 0.021440661102600039, -0.00076479294515765595, 0.0, 0.0, 0.0, 0.0, -0.00076479294515765595, 0.0098973821810291428]
---
header: 
  seq: 4635
  stamp: 
    secs: 1559576311
    nsecs: 977252850
  frame_id: map
pose: 
  pose: 
    position: 
      x: 2.37900618233
      y: -12.8866410698
      z: 0.0
    orientation: 
      x: 0.0
      y: 0.0
      z: 0.00422925276423
      w: 0.999991056671
  covariance: [0.0045403353560692248, 0.0, 0.0, 0.0, 0.0, 0.0, 0.0, 0.0, 0.0, 0.0, 0.0, 0.0, 0.0, 0.0, 0.0, 0.0, 0.0, 0.0, 0.0, 0.0, 0.0, 0.0, 0.0, 0.0, 0.0, 0.0, 0.0, 0.0, 0.025295451470039396, -0.0019508165784658511, 0.0, 0.0, 0.0, 0.0, -0.0019508165784658511, 0.0095575347876030378]
---
header: 
  seq: 4636
  stamp: 
    secs: 1559576312
    nsecs: 764999545
  frame_id: map
pose: 
  pose: 
    position: 
      x: 3.01029034811
      y: -12.8728134668
      z: 0.0
    orientation: 
      x: 0.0
      y: 0.0
      z: 0.0156686977285
      w: 0.999877238421
  covariance: [0.0050689567324029815, 0.0, 0.0, 0.0, 0.0, 0.0, 0.0, 0.0, 0.0, 0.0, 0.0, 0.0, 0.0, 0.0, 0.0, 0.0, 0.0, 0.0, 0.0, 0.0, 0.0, 0.0, 0.0, 0.0, 0.0, 0.0, 0.0, 0.0, 0.030403748173715037, -0.0029526916365687763, 0.0, 0.0, 0.0, 0.0, -0.0029526916365758818, 0.0094410602661772602]
---
header: 
  seq: 4637
  stamp: 
    secs: 1559576313
    nsecs: 559170171
  frame_id: map
pose: 
  pose: 
    position: 
      x: 3.62962246294
      y: -12.8576343072
      z: 0.0
    orientation: 
      x: 0.0
      y: 0.0
      z: 0.0216592063236
      w: 0.999765411875
  covariance: [0.0051325273846835233, 0.0, 0.0, 0.0, 0.0, 0.0, 0.0, 0.0, 0.0, 0.0, 0.0, 0.0, 0.0, 0.0, 0.0, 0.0, 0.0, 0.0, 0.0, 0.0, 0.0, 0.0, 0.0, 0.0, 0.0, 0.0, 0.0, 0.0, 0.03309703497024577, -0.0034104688244761673, 0.0, 0.0, 0.0, 0.0, -0.0034104688244761673, 0.009124289313689497]
---
header: 
  seq: 4638
  stamp: 
    secs: 1559576314
    nsecs: 367466383
  frame_id: map
pose: 
  pose: 
    position: 
      x: 4.26257509305
      y: -12.7755951962
      z: 0.0
    orientation: 
      x: 0.0
      y: 0.0
      z: 0.0462550341484
      w: 0.998929663097
  covariance: [0.0044714780100720743, 0.0, 0.0, 0.0, 0.0, 0.0, 0.0, 0.0, 0.0, 0.0, 0.0, 0.0, 0.0, 0.0, 0.0, 0.0, 0.0, 0.0, 0.0, 0.0, 0.0, 0.0, 0.0, 0.0, 0.0, 0.0, 0.0, 0.0, 0.034197501967981242, -0.0036011575253968022, 0.0, 0.0, 0.0, 0.0, -0.0036011575253968022, 0.0087818503628642325]
---
header: 
  seq: 4639
  stamp: 
    secs: 1559576315
    nsecs: 145016985
  frame_id: map
pose: 
  pose: 
    position: 
      x: 4.86918180761
      y: -12.6872779101
      z: 0.0
    orientation: 
      x: 0.0
      y: 0.0
      z: 0.0947956657463
      w: 0.995496751253
  covariance: [0.0042777926096420789, 0.0, 0.0, 0.0, 0.0, 0.0, 0.0, 0.0, 0.0, 0.0, 0.0, 0.0, 0.0, 0.0, 0.0, 0.0, 0.0, 0.0, 0.0, 0.0, 0.0, 0.0, 0.0, 0.0, 0.0, 0.0, 0.0, 0.0, 0.033855895730885197, -0.0036550497271540206, 0.0, 0.0, 0.0, 0.0, -0.0036550497271540206, 0.0091095652081686559]
---
header: 
  seq: 4640
  stamp: 
    secs: 1559576315
    nsecs: 939928973
  frame_id: map
pose: 
  pose: 
    position: 
      x: 5.50067925069
      y: -12.6357717111
      z: 0.0
    orientation: 
      x: 0.0
      y: 0.0
      z: 0.0765400475525
      w: 0.997066507872
