header: 
  seq: 1318
  stamp: 
    secs: 1559804622
    nsecs: 615161033
  frame_id: map
pose: 
  pose: 
    position: 
      x: 7.30001702527
      y: -15.0961143563
      z: 0.0
    orientation: 
      x: 0.0
      y: 0.0
      z: -0.684893413837
      w: 0.728643267781
  covariance: [0.030555250724612563, 0.0, 0.0, 0.0, 0.0, 0.0, 0.0, 0.0, 0.0, 0.0, 0.0, 0.0, 0.0, 0.0, 0.0, 0.0, 0.0, 0.0, 0.0, 0.0, 0.0, 0.0, 0.0, 0.0, 0.0, 0.0, 0.0, 0.0, 0.010292033915550374, 0.0021521140045689872, 0.0, 0.0, 0.0, 0.0, 0.0021521140045263547, 0.053312711769829692]
---
header: 
  seq: 1319
  stamp: 
    secs: 1559805222
    nsecs: 746396825
  frame_id: map
pose: 
  pose: 
    position: 
      x: 7.26738729388
      y: -14.5762956557
      z: 0.0
    orientation: 
      x: 0.0
      y: 0.0
      z: -0.688439460487
      w: 0.725293808911
  covariance: [0.025152902256281608, 0.0, 0.0, 0.0, 0.0, 0.0, 0.0, 0.0, 0.0, 0.0, 0.0, 0.0, 0.0, 0.0, 0.0, 0.0, 0.0, 0.0, 0.0, 0.0, 0.0, 0.0, 0.0, 0.0, 0.0, 0.0, 0.0, 0.0, 0.0083721824842255335, 0.001569921432137163, 0.0, 0.0, 0.0, 0.0, 0.0015699214321513739, 0.02869821888681013]
---
header: 
  seq: 1320
  stamp: 
    secs: 1559805224
    nsecs: 531507966
  frame_id: map
pose: 
  pose: 
    position: 
      x: 7.24353501388
      y: -14.0558368509
      z: 0.0
    orientation: 
      x: 0.0
      y: 0.0
      z: -0.699018331251
      w: 0.715103749518
  covariance: [0.021113736729682992, 0.0, 0.0, 0.0, 0.0, 0.0, 0.0, 0.0, 0.0, 0.0, 0.0, 0.0, 0.0, 0.0, 0.0, 0.0, 0.0, 0.0, 0.0, 0.0, 0.0, 0.0, 0.0, 0.0, 0.0, 0.0, 0.0, 0.0, 0.0074440148203209584, 0.0014947787697796402, 0.0, 0.0, 0.0, 0.0, 0.0014947787697654293, 0.026429286784117285]
---
header: 
  seq: 1321
  stamp: 
    secs: 1559805226
    nsecs: 432906377
  frame_id: map
pose: 
  pose: 
    position: 
      x: 7.21034682311
      y: -13.4855551858
      z: 0.0
    orientation: 
      x: 0.0
      y: 0.0
      z: -0.695167115243
      w: 0.718848163303
  covariance: [0.015399122844771483, 0.0, 0.0, 0.0, 0.0, 0.0, 0.0, 0.0, 0.0, 0.0, 0.0, 0.0, 0.0, 0.0, 0.0, 0.0, 0.0, 0.0, 0.0, 0.0, 0.0, 0.0, 0.0, 0.0, 0.0, 0.0, 0.0, 0.0, 0.0071605395260610528, 0.0025378916999790053, 0.0, 0.0, 0.0, 0.0, 0.0025378916999790053, 0.034255555112888914]
---
header: 
  seq: 1322
  stamp: 
    secs: 1559805230
    nsecs: 503147347
  frame_id: map
pose: 
  pose: 
    position: 
      x: 7.17780623263
      y: -13.3781050513
      z: 0.0
    orientation: 
      x: 0.0
      y: 0.0
      z: -0.958330823546
      w: 0.285660694953
  covariance: [0.016383212467058459, 0.0, 0.0, 0.0, 0.0, 0.0, 0.0, 0.0, 0.0, 0.0, 0.0, 0.0, 0.0, 0.0, 0.0, 0.0, 0.0, 0.0, 0.0, 0.0, 0.0, 0.0, 0.0, 0.0, 0.0, 0.0, 0.0, 0.0, 0.0085302003263629019, 0.0020348250601199451, 0.0, 0.0, 0.0, 0.0, 0.0020348250601199451, 0.034477099997286549]
---
header: 
  seq: 1323
  stamp: 
    secs: 1559805232
    nsecs: 636215679
  frame_id: map
pose: 
  pose: 
    position: 
      x: 6.89807165277
      y: -13.3347229404
      z: 0.0
    orientation: 
      x: 0.0
      y: 0.0
      z: 0.987504332085
      w: 0.157591859285
  covariance: [0.015312771118763207, 0.0, 0.0, 0.0, 0.0, 0.0, 0.0, 0.0, 0.0, 0.0, 0.0, 0.0, 0.0, 0.0, 0.0, 0.0, 0.0, 0.0, 0.0, 0.0, 0.0, 0.0, 0.0, 0.0, 0.0, 0.0, 0.0, 0.0, 0.0089422582480732926, 0.0032654449840604908, 0.0, 0.0, 0.0, 0.0, 0.0032654449840604908, 0.035251364414036479]
---
header: 
  seq: 1324
  stamp: 
    secs: 1559805233
    nsecs: 594729352
  frame_id: map
pose: 
  pose: 
    position: 
      x: 6.45179997827
      y: -13.1522592975
      z: 0.0
    orientation: 
      x: 0.0
      y: 0.0
      z: 0.97842743407
      w: 0.206590794226
  covariance: [0.011679035804689979, 0.0, 0.0, 0.0, 0.0, 0.0, 0.0, 0.0, 0.0, 0.0, 0.0, 0.0, 0.0, 0.0, 0.0, 0.0, 0.0, 0.0, 0.0, 0.0, 0.0, 0.0, 0.0, 0.0, 0.0, 0.0, 0.0, 0.0, 0.012748898530362414, 0.0061044001611261041, 0.0, 0.0, 0.0, 0.0, 0.0061044001611261041, 0.032379916269493152]
---
header: 
  seq: 1325
  stamp: 
    secs: 1559805234
    nsecs: 292159808
  frame_id: map
pose: 
  pose: 
    position: 
      x: 6.00486635783
      y: -12.9506851856
      z: 0.0
    orientation: 
      x: 0.0
      y: 0.0
      z: 0.982304476206
      w: 0.187290992909
  covariance: [0.0082736718112841941, 0.0, 0.0, 0.0, 0.0, 0.0, 0.0, 0.0, 0.0, 0.0, 0.0, 0.0, 0.0, 0.0, 0.0, 0.0, 0.0, 0.0, 0.0, 0.0, 0.0, 0.0, 0.0, 0.0, 0.0, 0.0, 0.0, 0.0, 0.016044121686856344, 0.0067309276959801254, 0.0, 0.0, 0.0, 0.0, 0.0067309276959801254, 0.028604567936084568]
---
header: 
  seq: 1326
  stamp: 
    secs: 1559805235
    nsecs: 36132323
  frame_id: map
pose: 
  pose: 
    position: 
      x: 5.49595510205
      y: -12.7822195726
      z: 0.0
    orientation: 
      x: 0.0
      y: 0.0
      z: 0.995782798775
      w: 0.0917421258993
  covariance: [0.0066766402872167029, 0.0, 0.0, 0.0, 0.0, 0.0, 0.0, 0.0, 0.0, 0.0, 0.0, 0.0, 0.0, 0.0, 0.0, 0.0, 0.0, 0.0, 0.0, 0.0, 0.0, 0.0, 0.0, 0.0, 0.0, 0.0, 0.0, 0.0, 0.019808126770413929, 0.0064938436762513744, 0.0, 0.0, 0.0, 0.0, 0.0064938436762513744, 0.025264583213566488]
---
header: 
  seq: 1327
  stamp: 
    secs: 1559805235
    nsecs: 784103353
  frame_id: map
pose: 
  pose: 
    position: 
      x: 4.90251013317
      y: -12.7421086211
      z: 0.0
    orientation: 
      x: 0.0
      y: 0.0
      z: -0.999569294067
      w: 0.0293466583816
  covariance: [0.0058876268061150384, 0.0, 0.0, 0.0, 0.0, 0.0, 0.0, 0.0, 0.0, 0.0, 0.0, 0.0, 0.0, 0.0, 0.0, 0.0, 0.0, 0.0, 0.0, 0.0, 0.0, 0.0, 0.0, 0.0, 0.0, 0.0, 0.0, 0.0, 0.023931330697998403, 0.0062006075057027751, 0.0, 0.0, 0.0, 0.0, 0.0062006075057027751, 0.022156641581373423]
---
header: 
  seq: 1328
  stamp: 
    secs: 1559805236
    nsecs: 588719959
  frame_id: map
pose: 
  pose: 
    position: 
      x: 4.28679787205
      y: -12.8550940782
      z: 0.0
    orientation: 
      x: 0.0
      y: 0.0
      z: -0.98957085185
      w: 0.144046968619
  covariance: [0.0059002578528182187, 0.0, 0.0, 0.0, 0.0, 0.0, 0.0, 0.0, 0.0, 0.0, 0.0, 0.0, 0.0, 0.0, 0.0, 0.0, 0.0, 0.0, 0.0, 0.0, 0.0, 0.0, 0.0, 0.0, 0.0, 0.0, 0.0, 0.0, 0.028716896282912623, 0.0049747854013739217, 0.0, 0.0, 0.0, 0.0, 0.0049747854013739217, 0.020465044853893583]
---
header: 
  seq: 1329
  stamp: 
    secs: 1559805237
    nsecs: 233081929
  frame_id: map
pose: 
  pose: 
    position: 
      x: 3.80550063897
      y: -13.0370616318
      z: 0.0
    orientation: 
      x: 0.0
      y: 0.0
      z: -0.984078289793
      w: 0.177735532626
  covariance: [0.013779012412266839, 0.0, 0.0, 0.0, 0.0, 0.0, 0.0, 0.0, 0.0, 0.0, 0.0, 0.0, 0.0, 0.0, 0.0, 0.0, 0.0, 0.0, 0.0, 0.0, 0.0, 0.0, 0.0, 0.0, 0.0, 0.0, 0.0, 0.0, 0.38015066312652024, 0.27002477588167051, 0.0, 0.0, 0.0, 0.0, 0.27002477588167761, 0.45433287909766296]
---
header: 
  seq: 1330
  stamp: 
    secs: 1559805237
    nsecs: 929658582
  frame_id: map
pose: 
  pose: 
    position: 
      x: 3.30728066054
      y: -13.2653017799
      z: 0.0
    orientation: 
      x: 0.0
      y: 0.0
      z: -0.98680746582
      w: 0.161898194558
  covariance: [0.0080428583240986576, 0.0, 0.0, 0.0, 0.0, 0.0, 0.0, 0.0, 0.0, 0.0, 0.0, 0.0, 0.0, 0.0, 0.0, 0.0, 0.0, 0.0, 0.0, 0.0, 0.0, 0.0, 0.0, 0.0, 0.0, 0.0, 0.0, 0.0, 0.23473334079080568, 0.078773790838822036, 0.0, 0.0, 0.0, 0.0, 0.078773790838822036, 0.093120241543046739]
---
header: 
  seq: 1331
  stamp: 
    secs: 1559805238
    nsecs: 682780798
  frame_id: map
pose: 
  pose: 
    position: 
      x: 2.77759434512
      y: -13.41769369
      z: 0.0
    orientation: 
      x: 0.0
      y: 0.0
      z: -0.997771214409
      w: 0.0667278330065
  covariance: [0.003967631956075704, 0.0, 0.0, 0.0, 0.0, 0.0, 0.0, 0.0, 0.0, 0.0, 0.0, 0.0, 0.0, 0.0, 0.0, 0.0, 0.0, 0.0, 0.0, 0.0, 0.0, 0.0, 0.0, 0.0, 0.0, 0.0, 0.0, 0.0, 0.21389359540860214, 0.051052343670764729, 0.0, 0.0, 0.0, 0.0, 0.051052343670764729, 0.06123750745147008]
---
header: 
  seq: 1332
  stamp: 
    secs: 1559805239
    nsecs: 473262923
  frame_id: map
pose: 
  pose: 
    position: 
      x: 2.17610402739
      y: -13.4353743513
      z: 0.0
    orientation: 
      x: 0.0
      y: 0.0
      z: 0.997554085476
      w: 0.0698988308242
  covariance: [0.02093605053136573, 0.0, 0.0, 0.0, 0.0, 0.0, 0.0, 0.0, 0.0, 0.0, 0.0, 0.0, 0.0, 0.0, 0.0, 0.0, 0.0, 0.0, 0.0, 0.0, 0.0, 0.0, 0.0, 0.0, 0.0, 0.0, 0.0, 0.0, 0.84008900667747244, 0.62234673379238226, 0.0, 0.0, 0.0, 0.0, 0.6223467337923787, 0.84015406260026804]
---
header: 
  seq: 1333
  stamp: 
    secs: 1559805240
    nsecs: 270003349
  frame_id: map
pose: 
  pose: 
    position: 
      x: 1.57533312407
      y: -13.3029750173
      z: 0.0
    orientation: 
      x: 0.0
      y: 0.0
      z: 0.985707851653
      w: 0.168463738502
  covariance: [0.053243974579154814, 0.0, 0.0, 0.0, 0.0, 0.0, 0.0, 0.0, 0.0, 0.0, 0.0, 0.0, 0.0, 0.0, 0.0, 0.0, 0.0, 0.0, 0.0, 0.0, 0.0, 0.0, 0.0, 0.0, 0.0, 0.0, 0.0, 0.0, 2.9196970150151582, 1.7331027416485023, 0.0, 0.0, 0.0, 0.0, 1.7331027416485023, 2.7241612467871321]
---
header: 
  seq: 1334
  stamp: 
    secs: 1559805240
    nsecs: 967769987
  frame_id: map
pose: 
  pose: 
    position: 
      x: 1.06493129825
      y: -13.1023595739
      z: 0.0
    orientation: 
      x: 0.0
      y: 0.0
      z: 0.983724423966
      w: 0.179683771367
  covariance: [0.045829154401929986, 0.0, 0.0, 0.0, 0.0, 0.0, 0.0, 0.0, 0.0, 0.0, 0.0, 0.0, 0.0, 0.0, 0.0, 0.0, 0.0, 0.0, 0.0, 0.0, 0.0, 0.0, 0.0, 0.0, 0.0, 0.0, 0.0, 0.0, 2.472810853178447, 1.7129306254861107, 0.0, 0.0, 0.0, 0.0, 1.7129306254861125, 2.3385018933752191]
---
header: 
  seq: 1335
  stamp: 
    secs: 1559805241
    nsecs: 565198098
  frame_id: map
pose: 
  pose: 
    position: 
      x: 0.616570936256
      y: -12.9114332273
      z: 0.0
    orientation: 
      x: 0.0
      y: 0.0
      z: 0.986943570563
      w: 0.161066410293
  covariance: [0.01785758284811725, 0.0, 0.0, 0.0, 0.0, 0.0, 0.0, 0.0, 0.0, 0.0, 0.0, 0.0, 0.0, 0.0, 0.0, 0.0, 0.0, 0.0, 0.0, 0.0, 0.0, 0.0, 0.0, 0.0, 0.0, 0.0, 0.0, 0.0, 1.0562173918056819, 0.65096119519407636, 0.0, 0.0, 0.0, 0.0, 0.65096119519407458, 0.88832761054362708]
---
header: 
  seq: 1336
  stamp: 
    secs: 1559805242
    nsecs: 182586230
  frame_id: map
pose: 
  pose: 
    position: 
      x: 0.189731398969
      y: -12.7597634285
      z: 0.0
    orientation: 
      x: 0.0
      y: 0.0
      z: 0.995228345751
      w: 0.0975732535743
  covariance: [0.0075847939991320421, 0.0, 0.0, 0.0, 0.0, 0.0, 0.0, 0.0, 0.0, 0.0, 0.0, 0.0, 0.0, 0.0, 0.0, 0.0, 0.0, 0.0, 0.0, 0.0, 0.0, 0.0, 0.0, 0.0, 0.0, 0.0, 0.0, 0.0, 0.69984151718480059, 0.33550352036143499, 0.0, 0.0, 0.0, 0.0, 0.33550352036143499, 0.33533923981907793]
---
header: 
  seq: 1337
  stamp: 
    secs: 1559805243
    nsecs: 102980941
  frame_id: map
pose: 
  pose: 
    position: 
      x: -0.410043689005
      y: -12.7215417826
      z: 0.0
    orientation: 
      x: 0.0
      y: 0.0
      z: -0.999934322463
      w: 0.0114608359205
  covariance: [0.0031889084913868785, 0.0, 0.0, 0.0, 0.0, 0.0, 0.0, 0.0, 0.0, 0.0, 0.0, 0.0, 0.0, 0.0, 0.0, 0.0, 0.0, 0.0, 0.0, 0.0, 0.0, 0.0, 0.0, 0.0, 0.0, 0.0, 0.0, 0.0, 0.24585199344711864, 0.10539209410750543, 0.0, 0.0, 0.0, 0.0, 0.10539209410750543, 0.087906424716407985]
---
header: 
  seq: 1338
  stamp: 
    secs: 1559805245
    nsecs: 450707646
  frame_id: map
pose: 
  pose: 
    position: 
      x: -0.938262176806
      y: -12.7798554488
      z: 0.0
    orientation: 
      x: 0.0
      y: 0.0
      z: -0.977468294193
      w: 0.211082291646
  covariance: [0.0036924436639567595, 0.0, 0.0, 0.0, 0.0, 0.0, 0.0, 0.0, 0.0, 0.0, 0.0, 0.0, 0.0, 0.0, 0.0, 0.0, 0.0, 0.0, 0.0, 0.0, 0.0, 0.0, 0.0, 0.0, 0.0, 0.0, 0.0, 0.0, 0.12604914441216239, 0.048788451763500426, 0.0, 0.0, 0.0, 0.0, 0.048788451763500426, 0.040203830537574842]
---
header: 
  seq: 1339
  stamp: 
    secs: 1559805259
    nsecs: 789452918
  frame_id: map
pose: 
  pose: 
    position: 
      x: -1.12647098648
      y: -12.9996377731
      z: 0.0
    orientation: 
      x: 0.0
      y: 0.0
      z: -0.845269375846
      w: 0.534340417952
  covariance: [0.0060236071714301169, 0.0, 0.0, 0.0, 0.0, 0.0, 0.0, 0.0, 0.0, 0.0, 0.0, 0.0, 0.0, 0.0, 0.0, 0.0, 0.0, 0.0, 0.0, 0.0, 0.0, 0.0, 0.0, 0.0, 0.0, 0.0, 0.0, 0.0, 0.2142438451895175, 0.089902042180793021, 0.0, 0.0, 0.0, 0.0, 0.089902042180793021, 0.049871983658871369]
---
header: 
  seq: 1340
  stamp: 
    secs: 1559805268
    nsecs: 554775728
  frame_id: map
pose: 
  pose: 
    position: 
      x: -1.25433034563
      y: -13.4656038104
      z: 0.0
    orientation: 
      x: 0.0
      y: 0.0
      z: -0.69016238809
      w: 0.7236545295
  covariance: [0.0065279862689289663, 0.0, 0.0, 0.0, 0.0, 0.0, 0.0, 0.0, 0.0, 0.0, 0.0, 0.0, 0.0, 0.0, 0.0, 0.0, 0.0, 0.0, 0.0, 0.0, 0.0, 0.0, 0.0, 0.0, 0.0, 0.0, 0.0, 0.0, 0.16291803337685518, 0.066593002767738316, 0.0, 0.0, 0.0, 0.0, 0.066593002767734763, 0.043160209423763564]
---
header: 
  seq: 1341
  stamp: 
    secs: 1559805288
    nsecs: 930408446
  frame_id: map
pose: 
  pose: 
    position: 
      x: -1.2424554597
      y: -13.4673817956
      z: 0.0
    orientation: 
      x: 0.0
      y: 0.0
      z: -0.720444248686
      w: 0.693512858233
  covariance: [0.0071509048293802516, 0.0, 0.0, 0.0, 0.0, 0.0, 0.0, 0.0, 0.0, 0.0, 0.0, 0.0, 0.0, 0.0, 0.0, 0.0, 0.0, 0.0, 0.0, 0.0, 0.0, 0.0, 0.0, 0.0, 0.0, 0.0, 0.0, 0.0, 0.1616295809282467, 0.066686207047938442, 0.0, 0.0, 0.0, 0.0, 0.066686207047938442, 0.043002088595920772]
---
header: 
  seq: 1342
  stamp: 
    secs: 1559805290
    nsecs: 721483373
  frame_id: map
pose: 
  pose: 
    position: 
      x: -1.22502482359
      y: -12.9418277811
      z: 0.0
    orientation: 
      x: 0.0
      y: 0.0
      z: -0.719531343342
      w: 0.694459967132
  covariance: [0.006901635197074857, 0.0, 0.0, 0.0, 0.0, 0.0, 0.0, 0.0, 0.0, 0.0, 0.0, 0.0, 0.0, 0.0, 0.0, 0.0, 0.0, 0.0, 0.0, 0.0, 0.0, 0.0, 0.0, 0.0, 0.0, 0.0, 0.0, 0.0, 0.10985075526116045, 0.044799434091265029, 0.0, 0.0, 0.0, 0.0, 0.044799434091257924, 0.030588025284344515]
---
header: 
  seq: 1343
  stamp: 
    secs: 1559805295
    nsecs: 307654119
  frame_id: map
pose: 
  pose: 
    position: 
      x: -1.2318827735
      y: -12.724151369
      z: 0.0
    orientation: 
      x: 0.0
      y: 0.0
      z: -0.973096929493
      w: 0.230396106328
  covariance: [0.014930496367939831, 0.0, 0.0, 0.0, 0.0, 0.0, 0.0, 0.0, 0.0, 0.0, 0.0, 0.0, 0.0, 0.0, 0.0, 0.0, 0.0, 0.0, 0.0, 0.0, 0.0, 0.0, 0.0, 0.0, 0.0, 0.0, 0.0, 0.0, 0.31588274083535017, 0.13651861237966526, 0.0, 0.0, 0.0, 0.0, 0.13651861237966526, 0.071680750086645831]
---
header: 
  seq: 1344
  stamp: 
    secs: 1559805297
    nsecs: 301287051
  frame_id: map
pose: 
  pose: 
    position: 
      x: -1.25557234493
      y: -12.721679053
      z: 0.0
    orientation: 
      x: 0.0
      y: 0.0
      z: 0.961914967853
      w: 0.273348851508
  covariance: [0.015533115385972442, 0.0, 0.0, 0.0, 0.0, 0.0, 0.0, 0.0, 0.0, 0.0, 0.0, 0.0, 0.0, 0.0, 0.0, 0.0, 0.0, 0.0, 0.0, 0.0, 0.0, 0.0, 0.0, 0.0, 0.0, 0.0, 0.0, 0.0, 0.26478976583547076, 0.11338555284586775, 0.0, 0.0, 0.0, 0.0, 0.11338555284586953, 0.064933447274629366]
---
header: 
  seq: 1345
  stamp: 
    secs: 1559805299
    nsecs: 489170473
  frame_id: map
pose: 
  pose: 
    position: 
      x: -1.30523195376
      y: -12.6911426616
      z: 0.0
    orientation: 
      x: 0.0
      y: 0.0
      z: 0.687837334143
      w: 0.725864864668
  covariance: [0.016396783702832863, 0.0, 0.0, 0.0, 0.0, 0.0, 0.0, 0.0, 0.0, 0.0, 0.0, 0.0, 0.0, 0.0, 0.0, 0.0, 0.0, 0.0, 0.0, 0.0, 0.0, 0.0, 0.0, 0.0, 0.0, 0.0, 0.0, 0.0, 0.26722782207435936, 0.11249609119367229, 0.0, 0.0, 0.0, 0.0, 0.11249609119367229, 0.066815229198376361]
---
header: 
  seq: 1346
  stamp: 
    secs: 1559805301
    nsecs: 698072447
  frame_id: map
pose: 
  pose: 
    position: 
      x: -1.23910263122
      y: -12.6102367356
      z: 0.0
    orientation: 
      x: 0.0
      y: 0.0
      z: 0.239955529972
      w: 0.970783881014
  covariance: [0.012390634611423213, 0.0, 0.0, 0.0, 0.0, 0.0, 0.0, 0.0, 0.0, 0.0, 0.0, 0.0, 0.0, 0.0, 0.0, 0.0, 0.0, 0.0, 0.0, 0.0, 0.0, 0.0, 0.0, 0.0, 0.0, 0.0, 0.0, 0.0, 0.21504802457232614, 0.091122605970492335, 0.0, 0.0, 0.0, 0.0, 0.091122605970492335, 0.056061113383268323]
---
header: 
  seq: 1347
  stamp: 
    secs: 1559805303
    nsecs: 175750482
  frame_id: map
pose: 
  pose: 
    position: 
      x: -0.732054105538
      y: -12.5075802298
      z: 0.0
    orientation: 
      x: 0.0
      y: 0.0
      z: 0.0198776490111
      w: 0.999802420016
  covariance: [0.009427709828638501, 0.0, 0.0, 0.0, 0.0, 0.0, 0.0, 0.0, 0.0, 0.0, 0.0, 0.0, 0.0, 0.0, 0.0, 0.0, 0.0, 0.0, 0.0, 0.0, 0.0, 0.0, 0.0, 0.0, 0.0, 0.0, 0.0, 0.0, 0.06441835842049505, 0.022464587978569726, 0.0, 0.0, 0.0, 0.0, 0.022464587978569726, 0.025231592263041978]
---
header: 
  seq: 1348
  stamp: 
    secs: 1559805303
    nsecs: 968989327
  frame_id: map
pose: 
  pose: 
    position: 
      x: -0.222460385412
      y: -12.5139333396
      z: 0.0
    orientation: 
      x: 0.0
      y: 0.0
      z: -0.0433722606823
      w: 0.999058980743
  covariance: [0.0073293514188954101, 0.0, 0.0, 0.0, 0.0, 0.0, 0.0, 0.0, 0.0, 0.0, 0.0, 0.0, 0.0, 0.0, 0.0, 0.0, 0.0, 0.0, 0.0, 0.0, 0.0, 0.0, 0.0, 0.0, 0.0, 0.0, 0.0, 0.0, 0.016481386035075495, -0.0013401828332837468, 0.0, 0.0, 0.0, 0.0, -0.0013401828332837468, 0.0139338774059307]
---
header: 
  seq: 1349
  stamp: 
    secs: 1559805304
    nsecs: 575440594
  frame_id: map
pose: 
  pose: 
    position: 
      x: 0.262658915593
      y: -12.5569918082
      z: 0.0
    orientation: 
      x: 0.0
      y: 0.0
      z: -0.0489305295314
      w: 0.998802184259
  covariance: [0.033281125919276386, 0.0, 0.0, 0.0, 0.0, 0.0, 0.0, 0.0, 0.0, 0.0, 0.0, 0.0, 0.0, 0.0, 0.0, 0.0, 0.0, 0.0, 0.0, 0.0, 0.0, 0.0, 0.0, 0.0, 0.0, 0.0, 0.0, 0.0, 1.3330198501491224, 0.94447741154055564, 0.0, 0.0, 0.0, 0.0, 0.94447741154055564, 1.2347285555346665]
---
header: 
  seq: 1350
  stamp: 
    secs: 1559805305
    nsecs: 185261355
  frame_id: map
pose: 
  pose: 
    position: 
      x: 0.728075945045
      y: -12.5893087343
      z: 0.0
    orientation: 
      x: 0.0
      y: 0.0
      z: -0.0527930609866
      w: 0.998605474004
  covariance: [0.01451644958840395, 0.0, 0.0, 0.0, 0.0, 0.0, 0.0, 0.0, 0.0, 0.0, 0.0, 0.0, 0.0, 0.0, 0.0, 0.0, 0.0, 0.0, 0.0, 0.0, 0.0, 0.0, 0.0, 0.0, 0.0, 0.0, 0.0, 0.0, 0.87908890231957371, 0.67589231739122757, 0.0, 0.0, 0.0, 0.0, 0.67589231739122757, 0.73415077842371079]
---
header: 
  seq: 1351
  stamp: 
    secs: 1559805305
    nsecs: 887966016
  frame_id: map
pose: 
  pose: 
    position: 
      x: 1.27693001397
      y: -12.6312308128
      z: 0.0
    orientation: 
      x: 0.0
      y: 0.0
      z: -0.0463968378737
      w: 0.998923086847
  covariance: [0.012394752877019129, 0.0, 0.0, 0.0, 0.0, 0.0, 0.0, 0.0, 0.0, 0.0, 0.0, 0.0, 0.0, 0.0, 0.0, 0.0, 0.0, 0.0, 0.0, 0.0, 0.0, 0.0, 0.0, 0.0, 0.0, 0.0, 0.0, 0.0, 0.52232417884760995, 0.32283283388915868, 0.0, 0.0, 0.0, 0.0, 0.32283283388915512, 0.35367038862267086]
---
header: 
  seq: 1352
  stamp: 
    secs: 1559805306
    nsecs: 580049802
  frame_id: map
pose: 
  pose: 
    position: 
      x: 1.82499990021
      y: -12.685448451
      z: 0.0
    orientation: 
      x: 0.0
      y: 0.0
      z: -0.0403061772214
      w: 0.99918737586
  covariance: [0.0075998355326749164, 0.0, 0.0, 0.0, 0.0, 0.0, 0.0, 0.0, 0.0, 0.0, 0.0, 0.0, 0.0, 0.0, 0.0, 0.0, 0.0, 0.0, 0.0, 0.0, 0.0, 0.0, 0.0, 0.0, 0.0, 0.0, 0.0, 0.0, 0.19628132775234128, 0.079133976959090788, 0.0, 0.0, 0.0, 0.0, 0.07913397695909434, 0.10798154789952506]
---
header: 
  seq: 1353
  stamp: 
    secs: 1559805307
    nsecs: 189114153
  frame_id: map
pose: 
  pose: 
    position: 
      x: 2.31114812779
      y: -12.726641656
      z: 0.0
    orientation: 
      x: 0.0
      y: 0.0
      z: -0.0342145586287
      w: 0.99941451059
  covariance: [0.0041166561427170801, 0.0, 0.0, 0.0, 0.0, 0.0, 0.0, 0.0, 0.0, 0.0, 0.0, 0.0, 0.0, 0.0, 0.0, 0.0, 0.0, 0.0, 0.0, 0.0, 0.0, 0.0, 0.0, 0.0, 0.0, 0.0, 0.0, 0.0, 0.099187244672896357, 0.046763234782297249, 0.0, 0.0, 0.0, 0.0, 0.046763234782297249, 0.044506717149078959]
---
header: 
  seq: 1354
  stamp: 
    secs: 1559805307
    nsecs: 979840105
  frame_id: map
pose: 
  pose: 
    position: 
      x: 2.93761892535
      y: -12.7628973346
      z: 0.0
    orientation: 
      x: 0.0
      y: 0.0
      z: -0.023455347064
      w: 0.999724885503
  covariance: [0.0039477074754476699, 0.0, 0.0, 0.0, 0.0, 0.0, 0.0, 0.0, 0.0, 0.0, 0.0, 0.0, 0.0, 0.0, 0.0, 0.0, 0.0, 0.0, 0.0, 0.0, 0.0, 0.0, 0.0, 0.0, 0.0, 0.0, 0.0, 0.0, 0.024696617567219414, -0.0025524143926214742, 0.0, 0.0, 0.0, 0.0, -0.0025524143926214742, 0.0077149137379888526]
---
header: 
  seq: 1355
  stamp: 
    secs: 1559805308
    nsecs: 751388089
  frame_id: map
pose: 
  pose: 
    position: 
      x: 3.561852658
      y: -12.8332176386
      z: 0.0
    orientation: 
      x: 0.0
      y: 0.0
      z: 0.00272291519041
      w: 0.99999629286
  covariance: [0.0037199755251782545, 0.0, 0.0, 0.0, 0.0, 0.0, 0.0, 0.0, 0.0, 0.0, 0.0, 0.0, 0.0, 0.0, 0.0, 0.0, 0.0, 0.0, 0.0, 0.0, 0.0, 0.0, 0.0, 0.0, 0.0, 0.0, 0.0, 0.0, 0.024274970707626593, -0.0028110869821312877, 0.0, 0.0, 0.0, 0.0, -0.0028110869821312877, 0.0072900778407629842]
---
header: 
  seq: 1356
  stamp: 
    secs: 1559805309
    nsecs: 452377251
  frame_id: map
pose: 
  pose: 
    position: 
      x: 4.12523310456
      y: -12.8127688864
      z: 0.0
    orientation: 
      x: 0.0
      y: 0.0
      z: 0.0282566861917
      w: 0.999600700123
  covariance: [0.0034145301369569083, 0.0, 0.0, 0.0, 0.0, 0.0, 0.0, 0.0, 0.0, 0.0, 0.0, 0.0, 0.0, 0.0, 0.0, 0.0, 0.0, 0.0, 0.0, 0.0, 0.0, 0.0, 0.0, 0.0, 0.0, 0.0, 0.0, 0.0, 0.024362132248766103, -0.0033552093202092277, 0.0, 0.0, 0.0, 0.0, -0.0033552093202021223, 0.0070082406600193228]
---
header: 
  seq: 1357
  stamp: 
    secs: 1559805310
    nsecs: 152765371
  frame_id: map
pose: 
  pose: 
    position: 
      x: 4.67998222994
      y: -12.7493375898
      z: 0.0
    orientation: 
      x: 0.0
      y: 0.0
      z: 0.0529161660567
      w: 0.998598958226
  covariance: [0.0031358941090235929, 0.0, 0.0, 0.0, 0.0, 0.0, 0.0, 0.0, 0.0, 0.0, 0.0, 0.0, 0.0, 0.0, 0.0, 0.0, 0.0, 0.0, 0.0, 0.0, 0.0, 0.0, 0.0, 0.0, 0.0, 0.0, 0.0, 0.0, 0.025087248667212514, -0.0030191948839341917, 0.0, 0.0, 0.0, 0.0, -0.0030191948839341917, 0.0067128291105415299]
---
header: 
  seq: 1358
  stamp: 
    secs: 1559805310
    nsecs: 995973162
  frame_id: map
pose: 
  pose: 
    position: 
      x: 5.34574142219
      y: -12.6661141883
      z: 0.0
    orientation: 
      x: 0.0
      y: 0.0
      z: 0.083185554161
      w: 0.996534075473
  covariance: [0.0036522456304142283, 0.0, 0.0, 0.0, 0.0, 0.0, 0.0, 0.0, 0.0, 0.0, 0.0, 0.0, 0.0, 0.0, 0.0, 0.0, 0.0, 0.0, 0.0, 0.0, 0.0, 0.0, 0.0, 0.0, 0.0, 0.0, 0.0, 0.0, 0.023810206278584337, -0.0030717273662392336, 0.0, 0.0, 0.0, 0.0, -0.0030717273662392336, 0.007127911796789229]
---
header: 
  seq: 1359
  stamp: 
    secs: 1559805311
    nsecs: 740885429
  frame_id: map
pose: 
  pose: 
    position: 
      x: 5.91375452522
      y: -12.5422689322
      z: 0.0
    orientation: 
      x: 0.0
      y: 0.0
      z: 0.0945238349656
      w: 0.995522598751
  covariance: [0.0034577501933033888, 0.0, 0.0, 0.0, 0.0, 0.0, 0.0, 0.0, 0.0, 0.0, 0.0, 0.0, 0.0, 0.0, 0.0, 0.0, 0.0, 0.0, 0.0, 0.0, 0.0, 0.0, 0.0, 0.0, 0.0, 0.0, 0.0, 0.0, 0.023087106326004803, -0.0024024132713819164, 0.0, 0.0, 0.0, 0.0, -0.0024024132713819164, 0.0072802478383672611]
---
header: 
  seq: 1360
  stamp: 
    secs: 1559805312
    nsecs: 440947146
  frame_id: map
pose: 
  pose: 
    position: 
      x: 6.45254120582
      y: -12.4107473814
      z: 0.0
    orientation: 
      x: 0.0
      y: 0.0
      z: 0.0957308432937
      w: 0.995407256173
  covariance: [0.0032440149388438567, 0.0, 0.0, 0.0, 0.0, 0.0, 0.0, 0.0, 0.0, 0.0, 0.0, 0.0, 0.0, 0.0, 0.0, 0.0, 0.0, 0.0, 0.0, 0.0, 0.0, 0.0, 0.0, 0.0, 0.0, 0.0, 0.0, 0.0, 0.023666859371350983, -0.0022437503279907011, 0.0, 0.0, 0.0, 0.0, -0.0022437503279907011, 0.007069980317000203]
---
header: 
  seq: 1361
  stamp: 
    secs: 1559805313
    nsecs: 281540746
  frame_id: map
pose: 
  pose: 
    position: 
      x: 7.10624451504
      y: -12.2738598631
      z: 0.0
    orientation: 
      x: 0.0
      y: 0.0
      z: 0.102208247767
      w: 0.994763024086
  covariance: [0.0036868563507575082, 0.0, 0.0, 0.0, 0.0, 0.0, 0.0, 0.0, 0.0, 0.0, 0.0, 0.0, 0.0, 0.0, 0.0, 0.0, 0.0, 0.0, 0.0, 0.0, 0.0, 0.0, 0.0, 0.0, 0.0, 0.0, 0.0, 0.0, 0.026827577129378079, -0.0024764999115033789, 0.0, 0.0, 0.0, 0.0, -0.0024764999115033789, 0.0075944464649464758]
---
header: 
  seq: 1362
  stamp: 
    secs: 1559805314
    nsecs: 79018543
  frame_id: map
pose: 
  pose: 
    position: 
      x: 7.72364528473
      y: -12.1376913126
      z: 0.0
    orientation: 
      x: 0.0
      y: 0.0
      z: 0.102680956659
      w: 0.994714341477
  covariance: [0.0034783098430692301, 0.0, 0.0, 0.0, 0.0, 0.0, 0.0, 0.0, 0.0, 0.0, 0.0, 0.0, 0.0, 0.0, 0.0, 0.0, 0.0, 0.0, 0.0, 0.0, 0.0, 0.0, 0.0, 0.0, 0.0, 0.0, 0.0, 0.0, 0.027572963139396521, -0.0030904118136609784, 0.0, 0.0, 0.0, 0.0, -0.0030904118136609784, 0.008098516523667873]
---
header: 
  seq: 1363
  stamp: 
    secs: 1559805314
    nsecs: 830172713
  frame_id: map
pose: 
  pose: 
    position: 
      x: 8.3154267979
      y: -12.0171898914
      z: 0.0
    orientation: 
      x: 0.0
      y: 0.0
      z: 0.101834263394
      w: 0.994801378567
  covariance: [0.0031022345664147967, 0.0, 0.0, 0.0, 0.0, 0.0, 0.0, 0.0, 0.0, 0.0, 0.0, 0.0, 0.0, 0.0, 0.0, 0.0, 0.0, 0.0, 0.0, 0.0, 0.0, 0.0, 0.0, 0.0, 0.0, 0.0, 0.0, 0.0, 0.026079335231977113, -0.0032272547993959107, 0.0, 0.0, 0.0, 0.0, -0.0032272547993959107, 0.0081188977215360808]
---
header: 
  seq: 1364
  stamp: 
    secs: 1559805315
    nsecs: 682915843
  frame_id: map
pose: 
  pose: 
    position: 
      x: 8.98126815033
      y: -11.8723375318
      z: 0.0
    orientation: 
      x: 0.0
      y: 0.0
      z: 0.109954080163
      w: 0.993936668131
  covariance: [0.0034598089697652594, 0.0, 0.0, 0.0, 0.0, 0.0, 0.0, 0.0, 0.0, 0.0, 0.0, 0.0, 0.0, 0.0, 0.0, 0.0, 0.0, 0.0, 0.0, 0.0, 0.0, 0.0, 0.0, 0.0, 0.0, 0.0, 0.0, 0.0, 0.023928231918198931, -0.0026100559809890001, 0.0, 0.0, 0.0, 0.0, -0.0026100559809890001, 0.0081576746380180015]
---
header: 
  seq: 1365
  stamp: 
    secs: 1559805316
    nsecs: 384313538
  frame_id: map
pose: 
  pose: 
    position: 
      x: 9.52428378391
      y: -11.7272015551
      z: 0.0
    orientation: 
      x: 0.0
      y: 0.0
      z: 0.145455342336
      w: 0.989364818146
  covariance: [0.0028475015611647992, 0.0, 0.0, 0.0, 0.0, 0.0, 0.0, 0.0, 0.0, 0.0, 0.0, 0.0, 0.0, 0.0, 0.0, 0.0, 0.0, 0.0, 0.0, 0.0, 0.0, 0.0, 0.0, 0.0, 0.0, 0.0, 0.0, 0.0, 0.02279601335497803, -0.0019181130669743548, 0.0, 0.0, 0.0, 0.0, -0.0019181130669885657, 0.0080351779704021346]
---
header: 
  seq: 1366
  stamp: 
    secs: 1559805317
    nsecs: 44954893
  frame_id: map
pose: 
  pose: 
    position: 
      x: 10.0267897857
      y: -11.5594015212
      z: 0.0
    orientation: 
      x: 0.0
      y: 0.0
      z: 0.211971597814
      w: 0.977275826837
  covariance: [0.0025293954379436876, 0.0, 0.0, 0.0, 0.0, 0.0, 0.0, 0.0, 0.0, 0.0, 0.0, 0.0, 0.0, 0.0, 0.0, 0.0, 0.0, 0.0, 0.0, 0.0, 0.0, 0.0, 0.0, 0.0, 0.0, 0.0, 0.0, 0.0, 0.019727745314626493, -0.0014695307794129941, 0.0, 0.0, 0.0, 0.0, -0.0014695307794129941, 0.0078352910186062601]
---
header: 
  seq: 1367
  stamp: 
    secs: 1559805317
    nsecs: 738543507
  frame_id: map
pose: 
  pose: 
    position: 
      x: 10.5188297446
      y: -11.2927867296
      z: 0.0
    orientation: 
      x: 0.0
      y: 0.0
      z: 0.317490420622
      w: 0.948261479136
  covariance: [0.0027395482554654158, 0.0, 0.0, 0.0, 0.0, 0.0, 0.0, 0.0, 0.0, 0.0, 0.0, 0.0, 0.0, 0.0, 0.0, 0.0, 0.0, 0.0, 0.0, 0.0, 0.0, 0.0, 0.0, 0.0, 0.0, 0.0, 0.0, 0.0, 0.01965820839016778, -0.0011291252567522346, 0.0, 0.0, 0.0, 0.0, -0.0011291252567522346, 0.0079396386302334632]
---
header: 
  seq: 1368
  stamp: 
    secs: 1559805318
    nsecs: 315108384
  frame_id: map
pose: 
  pose: 
    position: 
      x: 10.8613999212
      y: -10.980041468
      z: 0.0
    orientation: 
      x: 0.0
      y: 0.0
      z: 0.402233174955
      w: 0.91553725919
  covariance: [0.0025205842351685901, 0.0, 0.0, 0.0, 0.0, 0.0, 0.0, 0.0, 0.0, 0.0, 0.0, 0.0, 0.0, 0.0, 0.0, 0.0, 0.0, 0.0, 0.0, 0.0, 0.0, 0.0, 0.0, 0.0, 0.0, 0.0, 0.0, 0.0, 0.018743732123611932, -0.0010260157918675797, 0.0, 0.0, 0.0, 0.0, -0.0010260157918675797, 0.0076749388544671247]
---
header: 
  seq: 1369
  stamp: 
    secs: 1559805318
    nsecs: 914637043
  frame_id: map
pose: 
  pose: 
    position: 
      x: 11.137182667
      y: -10.5945161207
      z: 0.0
    orientation: 
      x: 0.0
      y: 0.0
      z: 0.493778735077
      w: 0.86958758086
  covariance: [0.0024494937349204744, 0.0, 0.0, 0.0, 0.0, 0.0, 0.0, 0.0, 0.0, 0.0, 0.0, 0.0, 0.0, 0.0, 0.0, 0.0, 0.0, 0.0, 0.0, 0.0, 0.0, 0.0, 0.0, 0.0, 0.0, 0.0, 0.0, 0.0, 0.018466958241213353, -0.00078795902361564077, 0.0, 0.0, 0.0, 0.0, -0.00078795902361564077, 0.0076189345193694519]
---
header: 
  seq: 1370
  stamp: 
    secs: 1559805319
    nsecs: 519923633
  frame_id: map
pose: 
  pose: 
    position: 
      x: 11.3761788547
      y: -10.1543588291
      z: 0.0
    orientation: 
      x: 0.0
      y: 0.0
      z: 0.532852182178
      w: 0.846208338383
  covariance: [0.0023467226536235696, 0.0, 0.0, 0.0, 0.0, 0.0, 0.0, 0.0, 0.0, 0.0, 0.0, 0.0, 0.0, 0.0, 0.0, 0.0, 0.0, 0.0, 0.0, 0.0, 0.0, 0.0, 0.0, 0.0, 0.0, 0.0, 0.0, 0.0, 0.01727472936669279, -0.00057594089567280398, 0.0, 0.0, 0.0, 0.0, -0.00057594089565859313, 0.0075258952116089425]
---
header: 
  seq: 1371
  stamp: 
    secs: 1559805320
    nsecs: 112312921
  frame_id: map
pose: 
  pose: 
    position: 
      x: 11.5706972389
      y: -9.71856254507
      z: 0.0
    orientation: 
      x: 0.0
      y: 0.0
      z: 0.548424080935
      w: 0.836200351262
  covariance: [0.0023655243554680351, 0.0, 0.0, 0.0, 0.0, 0.0, 0.0, 0.0, 0.0, 0.0, 0.0, 0.0, 0.0, 0.0, 0.0, 0.0, 0.0, 0.0, 0.0, 0.0, 0.0, 0.0, 0.0, 0.0, 0.0, 0.0, 0.0, 0.0, 0.017114802520259258, -0.0009015419396106721, 0.0, 0.0, 0.0, 0.0, -0.0009015419396106721, 0.007343256946262219]
---
header: 
  seq: 1372
  stamp: 
    secs: 1559805320
    nsecs: 710866494
  frame_id: map
pose: 
  pose: 
    position: 
      x: 11.7427319706
      y: -9.29814251296
      z: 0.0
    orientation: 
      x: 0.0
      y: 0.0
      z: 0.568728481296
      w: 0.822525327612
  covariance: [0.0022484860816122756, 0.0, 0.0, 0.0, 0.0, 0.0, 0.0, 0.0, 0.0, 0.0, 0.0, 0.0, 0.0, 0.0, 0.0, 0.0, 0.0, 0.0, 0.0, 0.0, 0.0, 0.0, 0.0, 0.0, 0.0, 0.0, 0.0, 0.0, 0.016409894982696006, -0.0011188026805877985, 0.0, 0.0, 0.0, 0.0, -0.0011188026805877985, 0.0070251180086615293]
---
header: 
  seq: 1373
  stamp: 
    secs: 1559805321
    nsecs: 305830549
  frame_id: map
pose: 
  pose: 
    position: 
      x: 11.9219412236
      y: -8.81322784175
      z: 0.0
    orientation: 
      x: 0.0
      y: 0.0
      z: 0.572367289165
      w: 0.819997369687
  covariance: [0.0022794155618594309, 0.0, 0.0, 0.0, 0.0, 0.0, 0.0, 0.0, 0.0, 0.0, 0.0, 0.0, 0.0, 0.0, 0.0, 0.0, 0.0, 0.0, 0.0, 0.0, 0.0, 0.0, 0.0, 0.0, 0.0, 0.0, 0.0, 0.0, 0.015755388671426063, -0.0015771848150613972, 0.0, 0.0, 0.0, 0.0, -0.0015771848150613972, 0.0077486788144645576]
---
header: 
  seq: 1374
  stamp: 
    secs: 1559805321
    nsecs: 921708617
  frame_id: map
pose: 
  pose: 
    position: 
      x: 12.0864822888
      y: -8.33931000804
      z: 0.0
    orientation: 
      x: 0.0
      y: 0.0
      z: 0.583833027583
      w: 0.811873756136
  covariance: [0.0024256995102895085, 0.0, 0.0, 0.0, 0.0, 0.0, 0.0, 0.0, 0.0, 0.0, 0.0, 0.0, 0.0, 0.0, 0.0, 0.0, 0.0, 0.0, 0.0, 0.0, 0.0, 0.0, 0.0, 0.0, 0.0, 0.0, 0.0, 0.0, 0.01456232210518805, -0.0021541614430199839, 0.0, 0.0, 0.0, 0.0, -0.0021541614430199839, 0.0084788300360438516]
---
header: 
  seq: 1375
  stamp: 
    secs: 1559805322
    nsecs: 506484150
  frame_id: map
pose: 
  pose: 
    position: 
      x: 12.2324489993
      y: -7.89203406653
      z: 0.0
    orientation: 
      x: 0.0
      y: 0.0
      z: 0.604822589033
      w: 0.796360242476
  covariance: [0.0028039478672369786, 0.0, 0.0, 0.0, 0.0, 0.0, 0.0, 0.0, 0.0, 0.0, 0.0, 0.0, 0.0, 0.0, 0.0, 0.0, 0.0, 0.0, 0.0, 0.0, 0.0, 0.0, 0.0, 0.0, 0.0, 0.0, 0.0, 0.0, 0.014788623033986393, -0.0032001923418663166, 0.0, 0.0, 0.0, 0.0, -0.0032001923418663166, 0.010082570892148517]
---
header: 
  seq: 1376
  stamp: 
    secs: 1559805323
    nsecs: 96965956
  frame_id: map
pose: 
  pose: 
    position: 
      x: 12.3538125638
      y: -7.41584128485
      z: 0.0
    orientation: 
      x: 0.0
      y: 0.0
      z: 0.632881924796
      w: 0.774248325324
  covariance: [0.0032812324750706393, 0.0, 0.0, 0.0, 0.0, 0.0, 0.0, 0.0, 0.0, 0.0, 0.0, 0.0, 0.0, 0.0, 0.0, 0.0, 0.0, 0.0, 0.0, 0.0, 0.0, 0.0, 0.0, 0.0, 0.0, 0.0, 0.0, 0.0, 0.014063690132023595, -0.0038065540028159161, 0.0, 0.0, 0.0, 0.0, -0.0038065540028159161, 0.013355639699820702]
---
header: 
  seq: 1377
  stamp: 
    secs: 1559805323
    nsecs: 707674733
  frame_id: map
pose: 
  pose: 
    position: 
      x: 12.4619599737
      y: -6.93648516382
      z: 0.0
    orientation: 
      x: 0.0
      y: 0.0
      z: 0.65304839479
      w: 0.757316178398
  covariance: [0.0034802673029982172, 0.0, 0.0, 0.0, 0.0, 0.0, 0.0, 0.0, 0.0, 0.0, 0.0, 0.0, 0.0, 0.0, 0.0, 0.0, 0.0, 0.0, 0.0, 0.0, 0.0, 0.0, 0.0, 0.0, 0.0, 0.0, 0.0, 0.0, 0.013700323376356462, -0.0049218369624569203, 0.0, 0.0, 0.0, 0.0, -0.0049218369624569203, 0.017059091216569712]
---
header: 
  seq: 1378
  stamp: 
    secs: 1559805324
    nsecs: 291576860
  frame_id: map
pose: 
  pose: 
    position: 
      x: 12.5379882442
      y: -6.46354843172
      z: 0.0
    orientation: 
      x: 0.0
      y: 0.0
      z: 0.669506593003
      w: 0.742806113279
  covariance: [0.0033148719889480212, 0.0, 0.0, 0.0, 0.0, 0.0, 0.0, 0.0, 0.0, 0.0, 0.0, 0.0, 0.0, 0.0, 0.0, 0.0, 0.0, 0.0, 0.0, 0.0, 0.0, 0.0, 0.0, 0.0, 0.0, 0.0, 0.0, 0.0, 0.012505643559121133, -0.0056697888325027944, 0.0, 0.0, 0.0, 0.0, -0.0056697888325027944, 0.020097431458582039]
---
header: 
  seq: 1379
  stamp: 
    secs: 1559805324
    nsecs: 996755888
  frame_id: map
pose: 
  pose: 
    position: 
      x: 12.5981757837
      y: -5.89419992897
      z: 0.0
    orientation: 
      x: 0.0
      y: 0.0
      z: 0.6868417738
      w: 0.726806974212
  covariance: [0.0039909847714765627, 0.0, 0.0, 0.0, 0.0, 0.0, 0.0, 0.0, 0.0, 0.0, 0.0, 0.0, 0.0, 0.0, 0.0, 0.0, 0.0, 0.0, 0.0, 0.0, 0.0, 0.0, 0.0, 0.0, 0.0, 0.0, 0.0, 0.0, 0.012213073471886713, -0.0071777818582936682, 0.0, 0.0, 0.0, 0.0, -0.0071777818582936682, 0.025275880480194999]
---
header: 
  seq: 1380
  stamp: 
    secs: 1559805325
    nsecs: 800206013
  frame_id: map
pose: 
  pose: 
    position: 
      x: 12.6157260762
      y: -5.25928362145
      z: 0.0
    orientation: 
      x: 0.0
      y: 0.0
      z: 0.718630255384
      w: 0.695392375603
  covariance: [0.0046467791737839683, 0.0, 0.0, 0.0, 0.0, 0.0, 0.0, 0.0, 0.0, 0.0, 0.0, 0.0, 0.0, 0.0, 0.0, 0.0, 0.0, 0.0, 0.0, 0.0, 0.0, 0.0, 0.0, 0.0, 0.0, 0.0, 0.0, 0.0, 0.011334128187840624, -0.0079783255207655449, 0.0, 0.0, 0.0, 0.0, -0.0079783255207655449, 0.033565072456810514]
---
header: 
  seq: 1381
  stamp: 
    secs: 1559805326
    nsecs: 681651248
  frame_id: map
pose: 
  pose: 
    position: 
      x: 12.5470168629
      y: -4.60480054961
      z: 0.0
    orientation: 
      x: 0.0
      y: 0.0
      z: 0.754473810716
      w: 0.656330152395
  covariance: [0.0049489049956685837, 0.0, 0.0, 0.0, 0.0, 0.0, 0.0, 0.0, 0.0, 0.0, 0.0, 0.0, 0.0, 0.0, 0.0, 0.0, 0.0, 0.0, 0.0, 0.0, 0.0, 0.0, 0.0, 0.0, 0.0, 0.0, 0.0, 0.0, 0.010554728922679489, -0.0078422500091204494, 0.0, 0.0, 0.0, 0.0, -0.0078422500091204494, 0.040185730211976113]
---
header: 
  seq: 1382
  stamp: 
    secs: 1559805327
    nsecs: 479394723
  frame_id: map
pose: 
  pose: 
    position: 
      x: 12.4210583539
      y: -3.96047276543
      z: 0.0
    orientation: 
      x: 0.0
      y: 0.0
      z: 0.772991425284
      w: 0.634416469236
  covariance: [0.0049211396477757356, 0.0, 0.0, 0.0, 0.0, 0.0, 0.0, 0.0, 0.0, 0.0, 0.0, 0.0, 0.0, 0.0, 0.0, 0.0, 0.0, 0.0, 0.0, 0.0, 0.0, 0.0, 0.0, 0.0, 0.0, 0.0, 0.0, 0.0, 0.0097102984238378997, -0.0067909370964795972, 0.0, 0.0, 0.0, 0.0, -0.0067909370964795972, 0.041791255001932294]
---
header: 
  seq: 1383
  stamp: 
    secs: 1559805328
    nsecs: 282485439
  frame_id: map
pose: 
  pose: 
    position: 
      x: 12.2772902616
      y: -3.31517427731
      z: 0.0
    orientation: 
      x: 0.0
      y: 0.0
      z: 0.758236735967
      w: 0.651979334205
  covariance: [0.0043948660126629825, 0.0, 0.0, 0.0, 0.0, 0.0, 0.0, 0.0, 0.0, 0.0, 0.0, 0.0, 0.0, 0.0, 0.0, 0.0, 0.0, 0.0, 0.0, 0.0, 0.0, 0.0, 0.0, 0.0, 0.0, 0.0, 0.0, 0.0, 0.0086495203933125969, -0.0050316481907725381, 0.0, 0.0, 0.0, 0.0, -0.0050316481907654326, 0.040656969462021644]
---
header: 
  seq: 1384
  stamp: 
    secs: 1559805329
    nsecs: 84880102
  frame_id: map
pose: 
  pose: 
    position: 
      x: 12.1937576794
      y: -2.68026735116
      z: 0.0
    orientation: 
      x: 0.0
      y: 0.0
      z: 0.733269389928
      w: 0.679938233809
  covariance: [0.0045419120551868095, 0.0, 0.0, 0.0, 0.0, 0.0, 0.0, 0.0, 0.0, 0.0, 0.0, 0.0, 0.0, 0.0, 0.0, 0.0, 0.0, 0.0, 0.0, 0.0, 0.0, 0.0, 0.0, 0.0, 0.0, 0.0, 0.0, 0.0, 0.0080724240697285267, -0.0040783924160818566, 0.0, 0.0, 0.0, 0.0, -0.0040783924160747512, 0.039898115457153403]
---
header: 
  seq: 1385
  stamp: 
    secs: 1559805329
    nsecs: 887394749
  frame_id: map
pose: 
  pose: 
    position: 
      x: 12.173256772
      y: -2.04796535795
      z: 0.0
    orientation: 
      x: 0.0
      y: 0.0
      z: 0.703940795196
      w: 0.710258654899
  covariance: [0.00455640169080358, 0.0, 0.0, 0.0, 0.0, 0.0, 0.0, 0.0, 0.0, 0.0, 0.0, 0.0, 0.0, 0.0, 0.0, 0.0, 0.0, 0.0, 0.0, 0.0, 0.0, 0.0, 0.0, 0.0, 0.0, 0.0, 0.0, 0.0, 0.007200995490685415, -0.0038152118326883404, 0.0, 0.0, 0.0, 0.0, -0.0038152118326883404, 0.038789819887460088]
---
header: 
  seq: 1386
  stamp: 
    secs: 1559805330
    nsecs: 682161666
  frame_id: map
pose: 
  pose: 
    position: 
      x: 12.1457506842
      y: -1.4090069764
      z: 0.0
    orientation: 
      x: 0.0
      y: 0.0
      z: 0.717872250893
      w: 0.696174856913
  covariance: [0.0049985617293822979, 0.0, 0.0, 0.0, 0.0, 0.0, 0.0, 0.0, 0.0, 0.0, 0.0, 0.0, 0.0, 0.0, 0.0, 0.0, 0.0, 0.0, 0.0, 0.0, 0.0, 0.0, 0.0, 0.0, 0.0, 0.0, 0.0, 0.0, 0.0071392367241365374, -0.0039757252805180986, 0.0, 0.0, 0.0, 0.0, -0.0039757252805180986, 0.043118763169652755]
---
header: 
  seq: 1387
  stamp: 
    secs: 1559805331
    nsecs: 489197160
  frame_id: map
pose: 
  pose: 
    position: 
      x: 12.0859767466
      y: -0.759025368159
      z: 0.0
    orientation: 
      x: 0.0
      y: 0.0
      z: 0.759230677364
      w: 0.650821618071
  covariance: [0.0050746826432341791, 0.0, 0.0, 0.0, 0.0, 0.0, 0.0, 0.0, 0.0, 0.0, 0.0, 0.0, 0.0, 0.0, 0.0, 0.0, 0.0, 0.0, 0.0, 0.0, 0.0, 0.0, 0.0, 0.0, 0.0, 0.0, 0.0, 0.0, 0.0070258137147648364, -0.004280446848752598, 0.0, 0.0, 0.0, 0.0, -0.004280446848752598, 0.047467367109358692]
---
header: 
  seq: 1388
  stamp: 
    secs: 1559805332
    nsecs: 264988121
  frame_id: map
pose: 
  pose: 
    position: 
      x: 11.9686539009
      y: -0.141903238278
      z: 0.0
    orientation: 
      x: 0.0
      y: 0.0
      z: 0.786457224301
      w: 0.617644747686
  covariance: [0.0049747892428602808, 0.0, 0.0, 0.0, 0.0, 0.0, 0.0, 0.0, 0.0, 0.0, 0.0, 0.0, 0.0, 0.0, 0.0, 0.0, 0.0, 0.0, 0.0, 0.0, 0.0, 0.0, 0.0, 0.0, 0.0, 0.0, 0.0, 0.0, 0.0066802544408345243, -0.003628698718510999, 0.0, 0.0, 0.0, 0.0, -0.003628698718510777, 0.055022177188575015]
---
header: 
  seq: 1389
  stamp: 
    secs: 1559805332
    nsecs: 986293090
  frame_id: map
pose: 
  pose: 
    position: 
      x: 11.7586745792
      y: 0.421999647088
      z: 0.0
    orientation: 
      x: 0.0
      y: 0.0
      z: 0.809241844604
      w: 0.587475647957
  covariance: [0.0043612713291720437, 0.0, 0.0, 0.0, 0.0, 0.0, 0.0, 0.0, 0.0, 0.0, 0.0, 0.0, 0.0, 0.0, 0.0, 0.0, 0.0, 0.0, 0.0, 0.0, 0.0, 0.0, 0.0, 0.0, 0.0, 0.0, 0.0, 0.0, 0.0061979803408190306, -0.0023069212249338901, 0.0, 0.0, 0.0, 0.0, -0.0023069212249338901, 0.055944176681913947]
---
header: 
  seq: 1390
  stamp: 
    secs: 1559805333
    nsecs: 661367799
  frame_id: map
pose: 
  pose: 
    position: 
      x: 11.5522214078
      y: 0.929340989528
      z: 0.0
    orientation: 
      x: 0.0
      y: 0.0
      z: 0.847242331838
      w: 0.531206580477
  covariance: [0.0034776826022850406, 0.0, 0.0, 0.0, 0.0, 0.0, 0.0, 0.0, 0.0, 0.0, 0.0, 0.0, 0.0, 0.0, 0.0, 0.0, 0.0, 0.0, 0.0, 0.0, 0.0, 0.0, 0.0, 0.0, 0.0, 0.0, 0.0, 0.0, 0.0058008898553374476, -0.00089516908152797764, 0.0, 0.0, 0.0, 0.0, -0.00089516908152797764, 0.054076095997251862]
---
header: 
  seq: 1391
  stamp: 
    secs: 1559805334
    nsecs: 253031125
  frame_id: map
pose: 
  pose: 
    position: 
      x: 11.3007177351
      y: 1.33314166311
      z: 0.0
    orientation: 
      x: 0.0
      y: 0.0
      z: 0.892577836824
      w: 0.45089334128
  covariance: [0.0031120922655456379, 0.0, 0.0, 0.0, 0.0, 0.0, 0.0, 0.0, 0.0, 0.0, 0.0, 0.0, 0.0, 0.0, 0.0, 0.0, 0.0, 0.0, 0.0, 0.0, 0.0, 0.0, 0.0, 0.0, 0.0, 0.0, 0.0, 0.0, 0.0054298026636344253, 0.00027207392556753934, 0.0, 0.0, 0.0, 0.0, 0.00027207392556576298, 0.048247130061634107]
---
header: 
  seq: 1392
  stamp: 
    secs: 1559805334
    nsecs: 871439068
  frame_id: map
pose: 
  pose: 
    position: 
      x: 10.9674256601
      y: 1.71101054351
      z: 0.0
    orientation: 
      x: 0.0
      y: 0.0
      z: 0.911832734451
      w: 0.410561888616
  covariance: [0.0028128075884960701, 0.0, 0.0, 0.0, 0.0, 0.0, 0.0, 0.0, 0.0, 0.0, 0.0, 0.0, 0.0, 0.0, 0.0, 0.0, 0.0, 0.0, 0.0, 0.0, 0.0, 0.0, 0.0, 0.0, 0.0, 0.0, 0.0, 0.0, 0.0053067048790670516, 0.0013454654131950033, 0.0, 0.0, 0.0, 0.0, 0.0013454654131878979, 0.041085405488422329]
---
header: 
  seq: 1393
  stamp: 
    secs: 1559805335
    nsecs: 453905925
  frame_id: map
pose: 
  pose: 
    position: 
      x: 10.6241885185
      y: 2.0561921087
      z: 0.0
    orientation: 
      x: 0.0
      y: 0.0
      z: 0.923629149522
      w: 0.383287351934
  covariance: [0.0024514138926474104, 0.0, 0.0, 0.0, 0.0, 0.0, 0.0, 0.0, 0.0, 0.0, 0.0, 0.0, 0.0, 0.0, 0.0, 0.0, 0.0, 0.0, 0.0, 0.0, 0.0, 0.0, 0.0, 0.0, 0.0, 0.0, 0.0, 0.0, 0.0051669668286147994, 0.0016282111077190187, 0.0, 0.0, 0.0, 0.0, 0.0016282111077225714, 0.036186412213241613]
---
header: 
  seq: 1394
  stamp: 
    secs: 1559805336
    nsecs: 77167749
  frame_id: map
pose: 
  pose: 
    position: 
      x: 10.2263830013
      y: 2.3885762866
      z: 0.0
    orientation: 
      x: 0.0
      y: 0.0
      z: 0.937943298138
      w: 0.346788652463
  covariance: [0.0024097007711627156, 0.0, 0.0, 0.0, 0.0, 0.0, 0.0, 0.0, 0.0, 0.0, 0.0, 0.0, 0.0, 0.0, 0.0, 0.0, 0.0, 0.0, 0.0, 0.0, 0.0, 0.0, 0.0, 0.0, 0.0, 0.0, 0.0, 0.0, 0.005231703588018089, 0.0021223047211842913, 0.0, 0.0, 0.0, 0.0, 0.0021223047211807386, 0.033310312969504145]
---
header: 
  seq: 1395
  stamp: 
    secs: 1559805336
    nsecs: 653476619
  frame_id: map
pose: 
  pose: 
    position: 
      x: 9.85282079315
      y: 2.66682069543
      z: 0.0
    orientation: 
      x: 0.0
      y: 0.0
      z: 0.948952409112
      w: 0.315419284826
  covariance: [0.0021457612331124351, 0.0, 0.0, 0.0, 0.0, 0.0, 0.0, 0.0, 0.0, 0.0, 0.0, 0.0, 0.0, 0.0, 0.0, 0.0, 0.0, 0.0, 0.0, 0.0, 0.0, 0.0, 0.0, 0.0, 0.0, 0.0, 0.0, 0.0, 0.0047000084906755864, 0.0022486421753169982, 0.0, 0.0, 0.0, 0.0, 0.0022486421753134455, 0.031060252034202922]
---
header: 
  seq: 1396
  stamp: 
    secs: 1559805337
    nsecs: 245441351
  frame_id: map
pose: 
  pose: 
    position: 
      x: 9.44918462087
      y: 2.9242884951
      z: 0.0
    orientation: 
      x: 0.0
      y: 0.0
      z: 0.961432892925
      w: 0.275039619694
  covariance: [0.002020252166565296, 0.0, 0.0, 0.0, 0.0, 0.0, 0.0, 0.0, 0.0, 0.0, 0.0, 0.0, 0.0, 0.0, 0.0, 0.0, 0.0, 0.0, 0.0, 0.0, 0.0, 0.0, 0.0, 0.0, 0.0, 0.0, 0.0, 0.0, 0.0042435592540202736, 0.00232044946451718, 0.0, 0.0, 0.0, 0.0, 0.0023204494645136273, 0.028993528069798036]
---
header: 
  seq: 1397
  stamp: 
    secs: 1559805337
    nsecs: 843347605
  frame_id: map
pose: 
  pose: 
    position: 
      x: 9.04535453906
      y: 3.15406105349
      z: 0.0
    orientation: 
      x: 0.0
      y: 0.0
      z: 0.976035272924
      w: 0.217612375584
  covariance: [0.0018608208997001544, 0.0, 0.0, 0.0, 0.0, 0.0, 0.0, 0.0, 0.0, 0.0, 0.0, 0.0, 0.0, 0.0, 0.0, 0.0, 0.0, 0.0, 0.0, 0.0, 0.0, 0.0, 0.0, 0.0, 0.0, 0.0, 0.0, 0.0, 0.0039855471417583202, 0.0022476369843607812, 0.0, 0.0, 0.0, 0.0, 0.0022476369843643339, 0.028194147481227613]
---
header: 
  seq: 1398
  stamp: 
    secs: 1559805338
    nsecs: 444177447
  frame_id: map
pose: 
  pose: 
    position: 
      x: 8.59769601528
      y: 3.32857299703
      z: 0.0
    orientation: 
      x: 0.0
      y: 0.0
      z: 0.991531209122
      w: 0.129868631073
  covariance: [0.0018029244695007076, 0.0, 0.0, 0.0, 0.0, 0.0, 0.0, 0.0, 0.0, 0.0, 0.0, 0.0, 0.0, 0.0, 0.0, 0.0, 0.0, 0.0, 0.0, 0.0, 0.0, 0.0, 0.0, 0.0, 0.0, 0.0, 0.0, 0.0, 0.0040039235409926087, 0.002105464962670904, 0.0, 0.0, 0.0, 0.0, 0.002105464962670904, 0.02819192898606997]
---
header: 
  seq: 1399
  stamp: 
    secs: 1559805339
    nsecs: 56863647
  frame_id: map
pose: 
  pose: 
    position: 
      x: 8.1313979571
      y: 3.41147185269
      z: 0.0
    orientation: 
      x: 0.0
      y: 0.0
      z: 0.999429708852
      w: 0.0337676926022
  covariance: [0.0018418659126568744, 0.0, 0.0, 0.0, 0.0, 0.0, 0.0, 0.0, 0.0, 0.0, 0.0, 0.0, 0.0, 0.0, 0.0, 0.0, 0.0, 0.0, 0.0, 0.0, 0.0, 0.0, 0.0, 0.0, 0.0, 0.0, 0.0, 0.0, 0.004289175351203183, 0.0019752647223195145, 0.0, 0.0, 0.0, 0.0, 0.0019752647223195145, 0.027345986398736588]
---
header: 
  seq: 1400
  stamp: 
    secs: 1559805339
    nsecs: 835840380
  frame_id: map
pose: 
  pose: 
    position: 
      x: 7.49773656677
      y: 3.37679336303
      z: 0.0
    orientation: 
      x: 0.0
      y: 0.0
      z: -0.995679961953
      w: 0.0928515663046
  covariance: [0.0024390929692516277, 0.0, 0.0, 0.0, 0.0, 0.0, 0.0, 0.0, 0.0, 0.0, 0.0, 0.0, 0.0, 0.0, 0.0, 0.0, 0.0, 0.0, 0.0, 0.0, 0.0, 0.0, 0.0, 0.0, 0.0, 0.0, 0.0, 0.0, 0.0047973481777717321, 0.0019680085384131967, 0.0, 0.0, 0.0, 0.0, 0.0019680085384131967, 0.027683411001857779]
---
header: 
  seq: 1401
  stamp: 
    secs: 1559805340
    nsecs: 634327095
  frame_id: map
pose: 
  pose: 
    position: 
      x: 6.97704350376
      y: 3.21550374783
      z: 0.0
    orientation: 
      x: 0.0
      y: 0.0
      z: -0.979664734602
      w: 0.200641490669
  covariance: [0.0026190634133153264, 0.0, 0.0, 0.0, 0.0, 0.0, 0.0, 0.0, 0.0, 0.0, 0.0, 0.0, 0.0, 0.0, 0.0, 0.0, 0.0, 0.0, 0.0, 0.0, 0.0, 0.0, 0.0, 0.0, 0.0, 0.0, 0.0, 0.0, 0.005425098121489909, 0.00174270358729242, 0.0, 0.0, 0.0, 0.0, 0.00174270358729242, 0.026740621678500293]
---
header: 
  seq: 1402
  stamp: 
    secs: 1559805341
    nsecs: 850526244
  frame_id: map
pose: 
  pose: 
    position: 
      x: 6.53635061769
      y: 2.97619875728
      z: 0.0
    orientation: 
      x: 0.0
      y: 0.0
      z: -0.968656639488
      w: 0.248403532133
  covariance: [0.0025473460166915048, 0.0, 0.0, 0.0, 0.0, 0.0, 0.0, 0.0, 0.0, 0.0, 0.0, 0.0, 0.0, 0.0, 0.0, 0.0, 0.0, 0.0, 0.0, 0.0, 0.0, 0.0, 0.0, 0.0, 0.0, 0.0, 0.0, 0.0, 0.0059569875291383542, 0.0013322840787305047, 0.0, 0.0, 0.0, 0.0, 0.0013322840787305047, 0.026334768998183936]
---
header: 
  seq: 1403
  stamp: 
    secs: 1559805348
    nsecs: 821397372
  frame_id: map
pose: 
  pose: 
    position: 
      x: 6.40314593914
      y: 2.89545655027
      z: 0.0
    orientation: 
      x: 0.0
      y: 0.0
      z: -0.696948641674
      w: 0.717121043387
  covariance: [0.009463131196438412, 0.0, 0.0, 0.0, 0.0, 0.0, 0.0, 0.0, 0.0, 0.0, 0.0, 0.0, 0.0, 0.0, 0.0, 0.0, 0.0, 0.0, 0.0, 0.0, 0.0, 0.0, 0.0, 0.0, 0.0, 0.0, 0.0, 0.0, 0.0077667370297351736, 0.0036391261357529075, 0.0, 0.0, 0.0, 0.0, 0.0036391261357529075, 0.029322846926668547]
---
header: 
  seq: 1404
  stamp: 
    secs: 1559805368
    nsecs: 9199486
  frame_id: map
pose: 
  pose: 
    position: 
      x: 6.3571463627
      y: 3.45307588031
      z: 0.0
    orientation: 
      x: 0.0
      y: 0.0
      z: -0.657773277682
      w: 0.753215981752
  covariance: [0.0092593657653252167, 0.0, 0.0, 0.0, 0.0, 0.0, 0.0, 0.0, 0.0, 0.0, 0.0, 0.0, 0.0, 0.0, 0.0, 0.0, 0.0, 0.0, 0.0, 0.0, 0.0, 0.0, 0.0, 0.0, 0.0, 0.0, 0.0, 0.0, 0.0077220684354030109, 0.0045566172960132137, 0.0, 0.0, 0.0, 0.0, 0.0045566172960061083, 0.029830853095700473]
---
header: 
  seq: 1405
  stamp: 
    secs: 1559805383
    nsecs: 392188526
  frame_id: map
pose: 
  pose: 
    position: 
      x: 6.35528635942
      y: 3.43075242811
      z: 0.0
    orientation: 
      x: 0.0
      y: 0.0
      z: -0.670583572694
      w: 0.741833992233
  covariance: [0.0090142085468783457, 0.0, 0.0, 0.0, 0.0, 0.0, 0.0, 0.0, 0.0, 0.0, 0.0, 0.0, 0.0, 0.0, 0.0, 0.0, 0.0, 0.0, 0.0, 0.0, 0.0, 0.0, 0.0, 0.0, 0.0, 0.0, 0.0, 0.0, 0.0067850493083584139, 0.0039471157858341184, 0.0, 0.0, 0.0, 0.0, 0.0039471157858341184, 0.028877143290467741]
---
header: 
  seq: 1406
  stamp: 
    secs: 1559805398
    nsecs: 502747806
  frame_id: map
pose: 
  pose: 
    position: 
      x: 6.38668291601
      y: 3.41002792562
      z: 0.0
    orientation: 
      x: 0.0
      y: 0.0
      z: -0.679990716358
      w: 0.733220720975
  covariance: [0.0085276621784726291, 0.0, 0.0, 0.0, 0.0, 0.0, 0.0, 0.0, 0.0, 0.0, 0.0, 0.0, 0.0, 0.0, 0.0, 0.0, 0.0, 0.0, 0.0, 0.0, 0.0, 0.0, 0.0, 0.0, 0.0, 0.0, 0.0, 0.0, 0.0062166611443756209, 0.0029014767248998576, 0.0, 0.0, 0.0, 0.0, 0.0029014767248998576, 0.024973072119423227]
---
header: 
  seq: 1407
  stamp: 
    secs: 1559805413
    nsecs: 385102427
  frame_id: map
pose: 
  pose: 
    position: 
      x: 6.37826002401
      y: 3.41190152135
      z: 0.0
    orientation: 
      x: 0.0
      y: 0.0
      z: -0.681579439979
      w: 0.731744126726
  covariance: [0.008073606196419867, 0.0, 0.0, 0.0, 0.0, 0.0, 0.0, 0.0, 0.0, 0.0, 0.0, 0.0, 0.0, 0.0, 0.0, 0.0, 0.0, 0.0, 0.0, 0.0, 0.0, 0.0, 0.0, 0.0, 0.0, 0.0, 0.0, 0.0, 0.0057209743053971418, 0.0022375251727019436, 0.0, 0.0, 0.0, 0.0, 0.0022375251727019436, 0.023151155329443261]
---
header: 
  seq: 1408
  stamp: 
    secs: 1559805429
    nsecs: 433361273
  frame_id: map
pose: 
  pose: 
    position: 
      x: 6.38368241776
      y: 3.41707915679
      z: 0.0
    orientation: 
      x: 0.0
      y: 0.0
      z: -0.671870123188
      w: 0.740668979752
  covariance: [0.0075909550373792004, 0.0, 0.0, 0.0, 0.0, 0.0, 0.0, 0.0, 0.0, 0.0, 0.0, 0.0, 0.0, 0.0, 0.0, 0.0, 0.0, 0.0, 0.0, 0.0, 0.0, 0.0, 0.0, 0.0, 0.0, 0.0, 0.0, 0.0, 0.0053298943663116494, 0.0021225191785868712, 0.0, 0.0, 0.0, 0.0, 0.0021225191785904239, 0.021545619626666731]
---
header: 
  seq: 1409
  stamp: 
    secs: 1559805444
    nsecs: 775013898
  frame_id: map
pose: 
  pose: 
    position: 
      x: 6.37634689097
      y: 3.40473436899
      z: 0.0
    orientation: 
      x: 0.0
      y: 0.0
      z: -0.675762494246
      w: 0.73711942816
  covariance: [0.0073875571856649828, 0.0, 0.0, 0.0, 0.0, 0.0, 0.0, 0.0, 0.0, 0.0, 0.0, 0.0, 0.0, 0.0, 0.0, 0.0, 0.0, 0.0, 0.0, 0.0, 0.0, 0.0, 0.0, 0.0, 0.0, 0.0, 0.0, 0.0, 0.0050482137574430789, 0.0018392650572267015, 0.0, 0.0, 0.0, 0.0, 0.0018392650572302543, 0.020665570462603571]
---
header: 
  seq: 1410
  stamp: 
    secs: 1559805459
    nsecs: 529178792
  frame_id: map
pose: 
  pose: 
    position: 
      x: 6.36946212235
      y: 3.42453267849
      z: 0.0
    orientation: 
      x: 0.0
      y: 0.0
      z: -0.686242295957
      w: 0.727373020699
  covariance: [0.0073855277470208413, 0.0, 0.0, 0.0, 0.0, 0.0, 0.0, 0.0, 0.0, 0.0, 0.0, 0.0, 0.0, 0.0, 0.0, 0.0, 0.0, 0.0, 0.0, 0.0, 0.0, 0.0, 0.0, 0.0, 0.0, 0.0, 0.0, 0.0, 0.0049755918001454808, 0.0014664453510244127, 0.0, 0.0, 0.0, 0.0, 0.00146644535102086, 0.019993019403520579]
---
header: 
  seq: 1411
  stamp: 
    secs: 1559805474
    nsecs: 589073104
  frame_id: map
pose: 
  pose: 
    position: 
      x: 6.36200062887
      y: 3.42748038845
      z: 0.0
    orientation: 
      x: 0.0
      y: 0.0
      z: -0.668889434034
      w: 0.743361907175
  covariance: [0.0073063512770151617, 0.0, 0.0, 0.0, 0.0, 0.0, 0.0, 0.0, 0.0, 0.0, 0.0, 0.0, 0.0, 0.0, 0.0, 0.0, 0.0, 0.0, 0.0, 0.0, 0.0, 0.0, 0.0, 0.0, 0.0, 0.0, 0.0, 0.0, 0.0049115891949763936, 0.0012782658011297845, 0.0, 0.0, 0.0, 0.0, 0.0012782658011333372, 0.019759307915512763]
---
header: 
  seq: 1412
  stamp: 
    secs: 1559805489
    nsecs: 550530692
  frame_id: map
pose: 
  pose: 
    position: 
      x: 6.35786981834
      y: 3.43311480698
      z: 0.0
    orientation: 
      x: 0.0
      y: 0.0
      z: -0.667784459725
      w: 0.744354697271
  covariance: [0.0071955694355641852, 0.0, 0.0, 0.0, 0.0, 0.0, 0.0, 0.0, 0.0, 0.0, 0.0, 0.0, 0.0, 0.0, 0.0, 0.0, 0.0, 0.0, 0.0, 0.0, 0.0, 0.0, 0.0, 0.0, 0.0, 0.0, 0.0, 0.0, 0.004762267383882357, 0.0010047229093027251, 0.0, 0.0, 0.0, 0.0, 0.0010047229093027251, 0.018657079304917674]
---
header: 
  seq: 1413
  stamp: 
    secs: 1559805504
    nsecs: 844092865
  frame_id: map
pose: 
  pose: 
    position: 
      x: 6.34055912141
      y: 3.45549888148
      z: 0.0
    orientation: 
      x: 0.0
      y: 0.0
      z: -0.658318544294
      w: 0.752739459733
  covariance: [0.0073821221448037997, 0.0, 0.0, 0.0, 0.0, 0.0, 0.0, 0.0, 0.0, 0.0, 0.0, 0.0, 0.0, 0.0, 0.0, 0.0, 0.0, 0.0, 0.0, 0.0, 0.0, 0.0, 0.0, 0.0, 0.0, 0.0, 0.0, 0.0, 0.0047549234025027927, 0.00077006693403646235, 0.0, 0.0, 0.0, 0.0, 0.00077006693403646235, 0.01846940854584378]
---
header: 
  seq: 1414
  stamp: 
    secs: 1559805511
    nsecs: 150547484
  frame_id: map
pose: 
  pose: 
    position: 
      x: 6.45660492489
      y: 3.36459752664
      z: 0.0
    orientation: 
      x: 0.0
      y: 0.0
      z: -0.178291203971
      w: 0.983977767323
  covariance: [0.013548296720377653, 0.0, 0.0, 0.0, 0.0, 0.0, 0.0, 0.0, 0.0, 0.0, 0.0, 0.0, 0.0, 0.0, 0.0, 0.0, 0.0, 0.0, 0.0, 0.0, 0.0, 0.0, 0.0, 0.0, 0.0, 0.0, 0.0, 0.0, 0.0080606634001008579, -0.0042732060657365359, 0.0, 0.0, 0.0, 0.0, -0.0042732060657365359, 0.024015005962867444]
---
header: 
  seq: 1415
  stamp: 
    secs: 1559805512
    nsecs: 433654563
  frame_id: map
pose: 
  pose: 
    position: 
      x: 6.9222100507
      y: 3.3463059804
      z: 0.0
    orientation: 
      x: 0.0
      y: 0.0
      z: 0.0439497551449
      w: 0.999033742685
  covariance: [0.0084236275378979618, 0.0, 0.0, 0.0, 0.0, 0.0, 0.0, 0.0, 0.0, 0.0, 0.0, 0.0, 0.0, 0.0, 0.0, 0.0, 0.0, 0.0, 0.0, 0.0, 0.0, 0.0, 0.0, 0.0, 0.0, 0.0, 0.0, 0.0, 0.0073391807653901894, -0.0030815582469498528, 0.0, 0.0, 0.0, 0.0, -0.0030815582469498528, 0.024401346071049986]
---
header: 
  seq: 1416
  stamp: 
    secs: 1559805513
    nsecs: 311393849
  frame_id: map
pose: 
  pose: 
    position: 
      x: 7.50961278477
      y: 3.4497706955
      z: 0.0
    orientation: 
      x: 0.0
      y: 0.0
      z: 0.0695382147512
      w: 0.997579288422
  covariance: [0.0046963063323674217, 0.0, 0.0, 0.0, 0.0, 0.0, 0.0, 0.0, 0.0, 0.0, 0.0, 0.0, 0.0, 0.0, 0.0, 0.0, 0.0, 0.0, 0.0, 0.0, 0.0, 0.0, 0.0, 0.0, 0.0, 0.0, 0.0, 0.0, 0.0061197719722333515, -0.002878003511492094, 0.0, 0.0, 0.0, 0.0, -0.0028780035114956467, 0.024336938315755355]
---
header: 
  seq: 1417
  stamp: 
    secs: 1559805514
    nsecs: 9798492
  frame_id: map
pose: 
  pose: 
    position: 
      x: 8.04501854461
      y: 3.52889266987
      z: 0.0
    orientation: 
      x: 0.0
      y: 0.0
      z: 0.0110874599973
      w: 0.999938532226
  covariance: [0.0038807145877541201, 0.0, 0.0, 0.0, 0.0, 0.0, 0.0, 0.0, 0.0, 0.0, 0.0, 0.0, 0.0, 0.0, 0.0, 0.0, 0.0, 0.0, 0.0, 0.0, 0.0, 0.0, 0.0, 0.0, 0.0, 0.0, 0.0, 0.0, 0.0063349130041861264, -0.0024524293203690858, 0.0, 0.0, 0.0, 0.0, -0.0024524293203726385, 0.024254831511133675]
---
header: 
  seq: 1418
  stamp: 
    secs: 1559805514
    nsecs: 608993197
  frame_id: map
pose: 
  pose: 
    position: 
      x: 8.51328118421
      y: 3.53636127445
      z: 0.0
    orientation: 
      x: 0.0
      y: 0.0
      z: -0.0655335860675
      w: 0.997850364081
  covariance: [0.00255795335543637, 0.0, 0.0, 0.0, 0.0, 0.0, 0.0, 0.0, 0.0, 0.0, 0.0, 0.0, 0.0, 0.0, 0.0, 0.0, 0.0, 0.0, 0.0, 0.0, 0.0, 0.0, 0.0, 0.0, 0.0, 0.0, 0.0, 0.0, 0.0061888848814467884, -0.0020044379977467689, 0.0, 0.0, 0.0, 0.0, -0.0020044379977467689, 0.023367894484579054]
---
header: 
  seq: 1419
  stamp: 
    secs: 1559805515
    nsecs: 201312245
  frame_id: map
pose: 
  pose: 
    position: 
      x: 8.93887002969
      y: 3.44648534778
      z: 0.0
    orientation: 
      x: 0.0
      y: 0.0
      z: -0.166056006244
      w: 0.986116323154
  covariance: [0.0020272748176677516, 0.0, 0.0, 0.0, 0.0, 0.0, 0.0, 0.0, 0.0, 0.0, 0.0, 0.0, 0.0, 0.0, 0.0, 0.0, 0.0, 0.0, 0.0, 0.0, 0.0, 0.0, 0.0, 0.0, 0.0, 0.0, 0.0, 0.0, 0.0057597375731833723, -0.0014558221357473793, 0.0, 0.0, 0.0, 0.0, -0.0014558221357473793, 0.024305237726080935]
---
header: 
  seq: 1420
  stamp: 
    secs: 1559805515
    nsecs: 802356687
  frame_id: map
pose: 
  pose: 
    position: 
      x: 9.36422065122
      y: 3.25804703926
      z: 0.0
    orientation: 
      x: 0.0
      y: 0.0
      z: -0.261240333523
      w: 0.965273789213
  covariance: [0.0015812592466815346, 0.0, 0.0, 0.0, 0.0, 0.0, 0.0, 0.0, 0.0, 0.0, 0.0, 0.0, 0.0, 0.0, 0.0, 0.0, 0.0, 0.0, 0.0, 0.0, 0.0, 0.0, 0.0, 0.0, 0.0, 0.0, 0.0, 0.0, 0.0054486939598259697, -0.0018125176785330455, 0.0, 0.0, 0.0, 0.0, -0.0018125176785294928, 0.024159234475599079]
---
header: 
  seq: 1421
  stamp: 
    secs: 1559805516
    nsecs: 433139826
  frame_id: map
pose: 
  pose: 
    position: 
      x: 9.79265222388
      y: 2.98610568006
      z: 0.0
    orientation: 
      x: 0.0
      y: 0.0
      z: -0.345132547169
      w: 0.938553954168
  covariance: [0.0016312638347080275, 0.0, 0.0, 0.0, 0.0, 0.0, 0.0, 0.0, 0.0, 0.0, 0.0, 0.0, 0.0, 0.0, 0.0, 0.0, 0.0, 0.0, 0.0, 0.0, 0.0, 0.0, 0.0, 0.0, 0.0, 0.0, 0.0, 0.0, 0.0056594666711003517, -0.0018970004366997291, 0.0, 0.0, 0.0, 0.0, -0.0018970004366997291, 0.021927566350646379]
---
header: 
  seq: 1422
  stamp: 
    secs: 1559805517
    nsecs: 41914943
  frame_id: map
pose: 
  pose: 
    position: 
      x: 10.1360884564
      y: 2.64725382858
      z: 0.0
    orientation: 
      x: 0.0
      y: 0.0
      z: -0.397969379614
      w: 0.91739869898
  covariance: [0.001693471273738238, 0.0, 0.0, 0.0, 0.0, 0.0, 0.0, 0.0, 0.0, 0.0, 0.0, 0.0, 0.0, 0.0, 0.0, 0.0, 0.0, 0.0, 0.0, 0.0, 0.0, 0.0, 0.0, 0.0, 0.0, 0.0, 0.0, 0.0, 0.0061184129095688891, -0.0020363624478980645, 0.0, 0.0, 0.0, 0.0, -0.0020363624479016172, 0.021886070279741782]
---
header: 
  seq: 1423
  stamp: 
    secs: 1559805517
    nsecs: 615336413
  frame_id: map
pose: 
  pose: 
    position: 
      x: 10.4507895492
      y: 2.29219506174
      z: 0.0
    orientation: 
      x: 0.0
      y: 0.0
      z: -0.403510481429
      w: 0.914975022269
  covariance: [0.0017947689031436018, 0.0, 0.0, 0.0, 0.0, 0.0, 0.0, 0.0, 0.0, 0.0, 0.0, 0.0, 0.0, 0.0, 0.0, 0.0, 0.0, 0.0, 0.0, 0.0, 0.0, 0.0, 0.0, 0.0, 0.0, 0.0, 0.0, 0.0, 0.0063199140340392673, -0.0020590975256486142, 0.0, 0.0, 0.0, 0.0, -0.0020590975256486142, 0.019942255750603356]
---
header: 
  seq: 1424
  stamp: 
    secs: 1559805518
    nsecs: 291310277
  frame_id: map
pose: 
  pose: 
    position: 
      x: 10.8205989317
      y: 1.90451122863
      z: 0.0
    orientation: 
      x: 0.0
      y: 0.0
      z: -0.406730481139
      w: 0.913548201089
  covariance: [0.002034813554627922, 0.0, 0.0, 0.0, 0.0, 0.0, 0.0, 0.0, 0.0, 0.0, 0.0, 0.0, 0.0, 0.0, 0.0, 0.0, 0.0, 0.0, 0.0, 0.0, 0.0, 0.0, 0.0, 0.0, 0.0, 0.0, 0.0, 0.0, 0.0070635480421625046, -0.0017506418652976821, 0.0, 0.0, 0.0, 0.0, -0.0017506418653012348, 0.018041472733176401]
---
header: 
  seq: 1425
  stamp: 
    secs: 1559805518
    nsecs: 891540970
  frame_id: map
pose: 
  pose: 
    position: 
      x: 11.1340206841
      y: 1.53997387698
      z: 0.0
