header: 
  seq: 646
  stamp: 
    secs: 1559671398
    nsecs: 416326050
  frame_id: map
pose: 
  pose: 
    position: 
      x: 7.21579359018
      y: -15.0131594015
      z: 0.0
    orientation: 
      x: 0.0
      y: 0.0
      z: -0.705651235085
      w: 0.708559337263
  covariance: [0.012580194873896325, 0.0, 0.0, 0.0, 0.0, 0.0, 0.0, 0.0, 0.0, 0.0, 0.0, 0.0, 0.0, 0.0, 0.0, 0.0, 0.0, 0.0, 0.0, 0.0, 0.0, 0.0, 0.0, 0.0, 0.0, 0.0, 0.0, 0.0, 0.0063872050145854743, 0.0027871964009270073, 0.0, 0.0, 0.0, 0.0, 0.0027871964009270073, 0.024665574672375994]
---
header: 
  seq: 647
  stamp: 
    secs: 1559674685
    nsecs: 322873000
  frame_id: map
pose: 
  pose: 
    position: 
      x: 7.20085844864
      y: -14.5582385051
      z: 0.0
    orientation: 
      x: 0.0
      y: 0.0
      z: -0.679825090357
      w: 0.733374288151
  covariance: [0.011239329445992451, 0.0, 0.0, 0.0, 0.0, 0.0, 0.0, 0.0, 0.0, 0.0, 0.0, 0.0, 0.0, 0.0, 0.0, 0.0, 0.0, 0.0, 0.0, 0.0, 0.0, 0.0, 0.0, 0.0, 0.0, 0.0, 0.0, 0.0, 0.0053664264649791304, 0.0019666444538276348, 0.0, 0.0, 0.0, 0.0, 0.0019666444538276348, 0.014607558374687694]
---
header: 
  seq: 648
  stamp: 
    secs: 1559674686
    nsecs: 923631129
  frame_id: map
pose: 
  pose: 
    position: 
      x: 7.14980917399
      y: -14.092441699
      z: 0.0
    orientation: 
      x: 0.0
      y: 0.0
      z: -0.679579809889
      w: 0.733601582599
  covariance: [0.01010707613033579, 0.0, 0.0, 0.0, 0.0, 0.0, 0.0, 0.0, 0.0, 0.0, 0.0, 0.0, 0.0, 0.0, 0.0, 0.0, 0.0, 0.0, 0.0, 0.0, 0.0, 0.0, 0.0, 0.0, 0.0, 0.0, 0.0, 0.0, 0.0050082173510553572, 0.0020012077074523776, 0.0, 0.0, 0.0, 0.0, 0.0020012077074523776, 0.012492126155804877]
---
header: 
  seq: 649
  stamp: 
    secs: 1559674688
    nsecs: 511057662
  frame_id: map
pose: 
  pose: 
    position: 
      x: 7.11581375992
      y: -13.6239135083
      z: 0.0
    orientation: 
      x: 0.0
      y: 0.0
      z: -0.68347796468
      w: 0.729971144496
  covariance: [0.0089712936571602845, 0.0, 0.0, 0.0, 0.0, 0.0, 0.0, 0.0, 0.0, 0.0, 0.0, 0.0, 0.0, 0.0, 0.0, 0.0, 0.0, 0.0, 0.0, 0.0, 0.0, 0.0, 0.0, 0.0, 0.0, 0.0, 0.0, 0.0, 0.0047223002901448019, 0.0023250677242003699, 0.0, 0.0, 0.0, 0.0, 0.0023250677242003699, 0.015630438000232217]
---
header: 
  seq: 650
  stamp: 
    secs: 1559674692
    nsecs: 301690717
  frame_id: map
pose: 
  pose: 
    position: 
      x: 7.10392009786
      y: -13.3452651545
      z: 0.0
    orientation: 
      x: 0.0
      y: 0.0
      z: -0.845397600312
      w: 0.53413752666
  covariance: [0.0098026592744242559, 0.0, 0.0, 0.0, 0.0, 0.0, 0.0, 0.0, 0.0, 0.0, 0.0, 0.0, 0.0, 0.0, 0.0, 0.0, 0.0, 0.0, 0.0, 0.0, 0.0, 0.0, 0.0, 0.0, 0.0, 0.0, 0.0, 0.0, 0.0070486684470980531, 0.0021111069706583776, 0.0, 0.0, 0.0, 0.0, 0.0021111069706583776, 0.017626161007976673]
---
header: 
  seq: 651
  stamp: 
    secs: 1559674694
    nsecs: 327539536
  frame_id: map
pose: 
  pose: 
    position: 
      x: 7.10374887277
      y: -13.3364495901
      z: 0.0
    orientation: 
      x: 0.0
      y: 0.0
      z: -0.999147351565
      w: 0.0412864367635
  covariance: [0.009766275327796366, 0.0, 0.0, 0.0, 0.0, 0.0, 0.0, 0.0, 0.0, 0.0, 0.0, 0.0, 0.0, 0.0, 0.0, 0.0, 0.0, 0.0, 0.0, 0.0, 0.0, 0.0, 0.0, 0.0, 0.0, 0.0, 0.0, 0.0, 0.0066512843692273756, 0.002241639770684486, 0.0, 0.0, 0.0, 0.0, 0.002241639770684486, 0.017994965113600821]
---
header: 
  seq: 652
  stamp: 
    secs: 1559674696
    nsecs: 113879286
  frame_id: map
pose: 
  pose: 
    position: 
      x: 6.66329202919
      y: -13.1285009609
      z: 0.0
    orientation: 
      x: 0.0
      y: 0.0
      z: 0.956058902719
      w: 0.293174648516
  covariance: [0.0086237834285647387, 0.0, 0.0, 0.0, 0.0, 0.0, 0.0, 0.0, 0.0, 0.0, 0.0, 0.0, 0.0, 0.0, 0.0, 0.0, 0.0, 0.0, 0.0, 0.0, 0.0, 0.0, 0.0, 0.0, 0.0, 0.0, 0.0, 0.0, 0.0081825458026124429, 0.003668744355556702, 0.0, 0.0, 0.0, 0.0, 0.003668744355556702, 0.019737680824622399]
---
header: 
  seq: 653
  stamp: 
    secs: 1559674697
    nsecs: 181090860
  frame_id: map
pose: 
  pose: 
    position: 
      x: 6.27171850315
      y: -12.7917356972
      z: 0.0
    orientation: 
      x: 0.0
      y: 0.0
      z: 0.945150934258
      w: 0.326633910474
  covariance: [0.0069975139564287091, 0.0, 0.0, 0.0, 0.0, 0.0, 0.0, 0.0, 0.0, 0.0, 0.0, 0.0, 0.0, 0.0, 0.0, 0.0, 0.0, 0.0, 0.0, 0.0, 0.0, 0.0, 0.0, 0.0, 0.0, 0.0, 0.0, 0.0, 0.010907787196843955, 0.0056409329770222656, 0.0, 0.0, 0.0, 0.0, 0.0056409329770222656, 0.02058051108675318]
---
header: 
  seq: 654
  stamp: 
    secs: 1559674699
    nsecs: 271598754
  frame_id: map
pose: 
  pose: 
    position: 
      x: 5.81603677301
      y: -12.5737836485
      z: 0.0
    orientation: 
      x: 0.0
      y: 0.0
      z: 0.998659542783
      w: 0.0517601932734
  covariance: [0.0067120100955141435, 0.0, 0.0, 0.0, 0.0, 0.0, 0.0, 0.0, 0.0, 0.0, 0.0, 0.0, 0.0, 0.0, 0.0, 0.0, 0.0, 0.0, 0.0, 0.0, 0.0, 0.0, 0.0, 0.0, 0.0, 0.0, 0.0, 0.0, 0.015003632824511828, 0.0071231275607168323, 0.0, 0.0, 0.0, 0.0, 0.0071231275607168323, 0.020286744356088907]
---
header: 
  seq: 655
  stamp: 
    secs: 1559674700
    nsecs: 221057543
  frame_id: map
pose: 
  pose: 
    position: 
      x: 5.32300841929
      y: -12.5534193742
      z: 0.0
    orientation: 
      x: 0.0
      y: 0.0
      z: -0.999054888067
      w: 0.0434664310732
  covariance: [0.0059287596129903516, 0.0, 0.0, 0.0, 0.0, 0.0, 0.0, 0.0, 0.0, 0.0, 0.0, 0.0, 0.0, 0.0, 0.0, 0.0, 0.0, 0.0, 0.0, 0.0, 0.0, 0.0, 0.0, 0.0, 0.0, 0.0, 0.0, 0.0, 0.018590103281841987, 0.0068849193940517337, 0.0, 0.0, 0.0, 0.0, 0.0068849193940517337, 0.018674239645950354]
---
header: 
  seq: 656
  stamp: 
    secs: 1559674700
    nsecs: 876130912
  frame_id: map
pose: 
  pose: 
    position: 
      x: 4.83347247662
      y: -12.5945531902
      z: 0.0
    orientation: 
      x: 0.0
      y: 0.0
      z: -0.998616282748
      w: 0.0525882099877
  covariance: [0.004610239956173507, 0.0, 0.0, 0.0, 0.0, 0.0, 0.0, 0.0, 0.0, 0.0, 0.0, 0.0, 0.0, 0.0, 0.0, 0.0, 0.0, 0.0, 0.0, 0.0, 0.0, 0.0, 0.0, 0.0, 0.0, 0.0, 0.0, 0.0, 0.019402523710546557, 0.0046644736834913127, 0.0, 0.0, 0.0, 0.0, 0.0046644736834913127, 0.016532910300614663]
---
header: 
  seq: 657
  stamp: 
    secs: 1559674701
    nsecs: 459670846
  frame_id: map
pose: 
  pose: 
    position: 
      x: 4.37512470868
      y: -12.6554609842
      z: 0.0
    orientation: 
      x: 0.0
      y: 0.0
      z: -0.998180365394
      w: 0.0602989066343
  covariance: [0.0039385158322058121, 0.0, 0.0, 0.0, 0.0, 0.0, 0.0, 0.0, 0.0, 0.0, 0.0, 0.0, 0.0, 0.0, 0.0, 0.0, 0.0, 0.0, 0.0, 0.0, 0.0, 0.0, 0.0, 0.0, 0.0, 0.0, 0.0, 0.0, 0.019930629971695306, 0.0029740946701400628, 0.0, 0.0, 0.0, 0.0, 0.0029740946701400628, 0.014367987320254941]
---
header: 
  seq: 658
  stamp: 
    secs: 1559674702
    nsecs: 66153774
  frame_id: map
pose: 
  pose: 
    position: 
      x: 3.88466498213
      y: -12.6994899387
      z: 0.0
    orientation: 
      x: 0.0
      y: 0.0
      z: -0.998744652308
      w: 0.0500911118491
  covariance: [0.0035906590405363342, 0.0, 0.0, 0.0, 0.0, 0.0, 0.0, 0.0, 0.0, 0.0, 0.0, 0.0, 0.0, 0.0, 0.0, 0.0, 0.0, 0.0, 0.0, 0.0, 0.0, 0.0, 0.0, 0.0, 0.0, 0.0, 0.0, 0.0, 0.019342309443862907, 0.0014656265352945936, 0.0, 0.0, 0.0, 0.0, 0.0014656265352945936, 0.013655664500231932]
---
header: 
  seq: 659
  stamp: 
    secs: 1559674702
    nsecs: 662081574
  frame_id: map
pose: 
  pose: 
    position: 
      x: 3.41461618623
      y: -12.7498082056
      z: 0.0
    orientation: 
      x: 0.0
      y: 0.0
      z: -0.99889478518
      w: 0.047002214201
  covariance: [0.0029895022444974976, 0.0, 0.0, 0.0, 0.0, 0.0, 0.0, 0.0, 0.0, 0.0, 0.0, 0.0, 0.0, 0.0, 0.0, 0.0, 0.0, 0.0, 0.0, 0.0, 0.0, 0.0, 0.0, 0.0, 0.0, 0.0, 0.0, 0.0, 0.019083452381806108, 0.00053611270947099708, 0.0, 0.0, 0.0, 0.0, 0.00053611270947099708, 0.012097238817129466]
---
header: 
  seq: 660
  stamp: 
    secs: 1559674703
    nsecs: 249996359
  frame_id: map
pose: 
  pose: 
    position: 
      x: 2.95946268259
      y: -12.7767467699
      z: 0.0
    orientation: 
      x: 0.0
      y: 0.0
      z: -0.999190336244
      w: 0.0402327224573
  covariance: [0.0025414263094474645, 0.0, 0.0, 0.0, 0.0, 0.0, 0.0, 0.0, 0.0, 0.0, 0.0, 0.0, 0.0, 0.0, 0.0, 0.0, 0.0, 0.0, 0.0, 0.0, 0.0, 0.0, 0.0, 0.0, 0.0, 0.0, 0.0, 0.0, 0.016601730798869566, -0.00047720664494949814, 0.0, 0.0, 0.0, 0.0, -0.00047720664494239272, 0.010689285757493623]
---
header: 
  seq: 661
  stamp: 
    secs: 1559674703
    nsecs: 852921459
  frame_id: map
pose: 
  pose: 
    position: 
      x: 2.46756223681
      y: -12.809643279
      z: 0.0
    orientation: 
      x: 0.0
      y: 0.0
      z: -0.999996390307
      w: 0.00268688903926
  covariance: [0.002298996841861425, 0.0, 0.0, 0.0, 0.0, 0.0, 0.0, 0.0, 0.0, 0.0, 0.0, 0.0, 0.0, 0.0, 0.0, 0.0, 0.0, 0.0, 0.0, 0.0, 0.0, 0.0, 0.0, 0.0, 0.0, 0.0, 0.0, 0.0, 0.014554897636101599, -0.00071898600103306829, 0.0, 0.0, 0.0, 0.0, -0.00071898600103306829, 0.009868042981043117]
---
header: 
  seq: 662
  stamp: 
    secs: 1559674704
    nsecs: 444396727
  frame_id: map
pose: 
  pose: 
    position: 
      x: 2.00762764447
      y: -12.7939004658
      z: 0.0
    orientation: 
      x: 0.0
      y: 0.0
      z: 0.999863736
      w: 0.0165078596948
  covariance: [0.0020705382031315197, 0.0, 0.0, 0.0, 0.0, 0.0, 0.0, 0.0, 0.0, 0.0, 0.0, 0.0, 0.0, 0.0, 0.0, 0.0, 0.0, 0.0, 0.0, 0.0, 0.0, 0.0, 0.0, 0.0, 0.0, 0.0, 0.0, 0.0, 0.01212318250182624, -0.00083403254732101085, 0.0, 0.0, 0.0, 0.0, -0.00083403254732101085, 0.0096000177283831443]
---
header: 
  seq: 663
  stamp: 
    secs: 1559674705
    nsecs: 57560266
  frame_id: map
pose: 
  pose: 
    position: 
      x: 1.52010039616
      y: -12.7731199245
      z: 0.0
    orientation: 
      x: 0.0
      y: 0.0
      z: 0.999881764679
      w: 0.0153771474121
  covariance: [0.0018678120881986076, 0.0, 0.0, 0.0, 0.0, 0.0, 0.0, 0.0, 0.0, 0.0, 0.0, 0.0, 0.0, 0.0, 0.0, 0.0, 0.0, 0.0, 0.0, 0.0, 0.0, 0.0, 0.0, 0.0, 0.0, 0.0, 0.0, 0.0, 0.010149358993591923, -0.00068851412198828025, 0.0, 0.0, 0.0, 0.0, -0.00068851412198472754, 0.0084655939701175648]
---
header: 
  seq: 664
  stamp: 
    secs: 1559674705
    nsecs: 763096132
  frame_id: map
pose: 
  pose: 
    position: 
      x: 0.96049303347
      y: -12.7571848444
      z: 0.0
    orientation: 
      x: 0.0
      y: 0.0
      z: 0.999878023185
      w: 0.0156185387314
  covariance: [0.002365816648585017, 0.0, 0.0, 0.0, 0.0, 0.0, 0.0, 0.0, 0.0, 0.0, 0.0, 0.0, 0.0, 0.0, 0.0, 0.0, 0.0, 0.0, 0.0, 0.0, 0.0, 0.0, 0.0, 0.0, 0.0, 0.0, 0.0, 0.0, 0.010087201609964442, -0.00032076752857854098, 0.0, 0.0, 0.0, 0.0, -0.00032076752857854098, 0.0080749531836516158]
---
header: 
  seq: 665
  stamp: 
    secs: 1559674706
    nsecs: 458910576
  frame_id: map
pose: 
  pose: 
    position: 
      x: 0.404689498102
      y: -12.7158106566
      z: 0.0
    orientation: 
      x: 0.0
      y: 0.0
      z: 0.999310896773
      w: 0.0371178069109
  covariance: [0.002616714190803083, 0.0, 0.0, 0.0, 0.0, 0.0, 0.0, 0.0, 0.0, 0.0, 0.0, 0.0, 0.0, 0.0, 0.0, 0.0, 0.0, 0.0, 0.0, 0.0, 0.0, 0.0, 0.0, 0.0, 0.0, 0.0, 0.0, 0.0, 0.0092304352014012884, 7.2102087124922384e-05, 0.0, 0.0, 0.0, 0.0, 7.2102087124034206e-05, 0.007826483835122959]
---
header: 
  seq: 666
  stamp: 
    secs: 1559674707
    nsecs: 232901732
  frame_id: map
pose: 
  pose: 
    position: 
      x: -0.187737766986
      y: -12.6435553354
      z: 0.0
    orientation: 
      x: 0.0
      y: 0.0
      z: 0.995645909193
      w: 0.0932160045628
  covariance: [0.002937253849826146, 0.0, 0.0, 0.0, 0.0, 0.0, 0.0, 0.0, 0.0, 0.0, 0.0, 0.0, 0.0, 0.0, 0.0, 0.0, 0.0, 0.0, 0.0, 0.0, 0.0, 0.0, 0.0, 0.0, 0.0, 0.0, 0.0, 0.0, 0.010314765329735713, -6.8907315914211968e-05, 0.0, 0.0, 0.0, 0.0, -6.8907315914211968e-05, 0.0076945358554587531]
---
header: 
  seq: 667
  stamp: 
    secs: 1559674708
    nsecs: 129967876
  frame_id: map
pose: 
  pose: 
    position: 
      x: -0.735078979824
      y: -12.4844886918
      z: 0.0
    orientation: 
      x: 0.0
      y: 0.0
      z: 0.977807147506
      w: 0.20950699818
  covariance: [0.0029445653708156808, 0.0, 0.0, 0.0, 0.0, 0.0, 0.0, 0.0, 0.0, 0.0, 0.0, 0.0, 0.0, 0.0, 0.0, 0.0, 0.0, 0.0, 0.0, 0.0, 0.0, 0.0, 0.0, 0.0, 0.0, 0.0, 0.0, 0.0, 0.0096881279488602468, 2.3123323054245734e-05, 0.0, 0.0, 0.0, 0.0, 2.3123323054245734e-05, 0.0072743654803125359]
---
header: 
  seq: 668
  stamp: 
    secs: 1559674709
    nsecs: 822569758
  frame_id: map
pose: 
  pose: 
    position: 
      x: -1.14059575412
      y: -12.2017699932
      z: 0.0
    orientation: 
      x: 0.0
      y: 0.0
      z: 0.917903046463
      w: 0.396804734466
  covariance: [0.0029880732246978098, 0.0, 0.0, 0.0, 0.0, 0.0, 0.0, 0.0, 0.0, 0.0, 0.0, 0.0, 0.0, 0.0, 0.0, 0.0, 0.0, 0.0, 0.0, 0.0, 0.0, 0.0, 0.0, 0.0, 0.0, 0.0, 0.0, 0.0, 0.010135258528154292, 0.00027190400254091177, 0.0, 0.0, 0.0, 0.0, 0.00027190400254091177, 0.0072227577687168434]
---
header: 
  seq: 669
  stamp: 
    secs: 1559674733
    nsecs: 432166929
  frame_id: map
pose: 
  pose: 
    position: 
      x: -1.15724624915
      y: -11.8704445434
      z: 0.0
    orientation: 
      x: 0.0
      y: 0.0
      z: 0.692206763093
      w: 0.721699242849
  covariance: [0.0067917158046068207, 0.0, 0.0, 0.0, 0.0, 0.0, 0.0, 0.0, 0.0, 0.0, 0.0, 0.0, 0.0, 0.0, 0.0, 0.0, 0.0, 0.0, 0.0, 0.0, 0.0, 0.0, 0.0, 0.0, 0.0, 0.0, 0.0, 0.0, 0.0097870494146978619, 0.00011742237728512281, 0.0, 0.0, 0.0, 0.0, 0.00011742237728512281, 0.0087491313987777247]
---
header: 
  seq: 670
  stamp: 
    secs: 1559674739
    nsecs: 318458605
  frame_id: map
pose: 
  pose: 
    position: 
      x: -1.15392625096
      y: -11.3941664647
      z: 0.0
    orientation: 
      x: 0.0
      y: 0.0
      z: 0.702641190821
      w: 0.711544346448
  covariance: [0.0061479789432512524, 0.0, 0.0, 0.0, 0.0, 0.0, 0.0, 0.0, 0.0, 0.0, 0.0, 0.0, 0.0, 0.0, 0.0, 0.0, 0.0, 0.0, 0.0, 0.0, 0.0, 0.0, 0.0, 0.0, 0.0, 0.0, 0.0, 0.0, 0.0059896288342099436, 0.00034981327010936232, 0.0, 0.0, 0.0, 0.0, 0.00034981327010936232, 0.009882775821693628]
---
header: 
  seq: 671
  stamp: 
    secs: 1559674754
    nsecs: 669733585
  frame_id: map
pose: 
  pose: 
    position: 
      x: -1.1704562164
      y: -11.8884753835
      z: 0.0
    orientation: 
      x: 0.0
      y: 0.0
      z: 0.699294939644
      w: 0.714833258452
  covariance: [0.0058875430807607664, 0.0, 0.0, 0.0, 0.0, 0.0, 0.0, 0.0, 0.0, 0.0, 0.0, 0.0, 0.0, 0.0, 0.0, 0.0, 0.0, 0.0, 0.0, 0.0, 0.0, 0.0, 0.0, 0.0, 0.0, 0.0, 0.0, 0.0, 0.004945839420218188, -6.4174342350408506e-05, 0.0, 0.0, 0.0, 0.0, -6.4174342350408506e-05, 0.0069753202997616375]
---
header: 
  seq: 672
  stamp: 
    secs: 1559674756
    nsecs: 257245828
  frame_id: map
pose: 
  pose: 
    position: 
      x: -1.17240025165
      y: -12.3457019874
      z: 0.0
    orientation: 
      x: 0.0
      y: 0.0
      z: 0.711324479103
      w: 0.702863774446
  covariance: [0.0051601887637444336, 0.0, 0.0, 0.0, 0.0, 0.0, 0.0, 0.0, 0.0, 0.0, 0.0, 0.0, 0.0, 0.0, 0.0, 0.0, 0.0, 0.0, 0.0, 0.0, 0.0, 0.0, 0.0, 0.0, 0.0, 0.0, 0.0, 0.0, 0.0043705466092710133, 1.0612301605496889e-05, 0.0, 0.0, 0.0, 0.0, 1.0612301605496889e-05, 0.0081323215904340086]
---
header: 
  seq: 673
  stamp: 
    secs: 1559674760
    nsecs: 673398925
  frame_id: map
pose: 
  pose: 
    position: 
      x: -1.12342998126
      y: -12.4204393932
      z: 0.0
    orientation: 
      x: 0.0
      y: 0.0
      z: 0.243877080123
      w: 0.969806150625
  covariance: [0.0085752946871127198, 0.0, 0.0, 0.0, 0.0, 0.0, 0.0, 0.0, 0.0, 0.0, 0.0, 0.0, 0.0, 0.0, 0.0, 0.0, 0.0, 0.0, 0.0, 0.0, 0.0, 0.0, 0.0, 0.0, 0.0, 0.0, 0.0, 0.0, 0.0073083318833916909, 0.00070606290215906743, 0.0, 0.0, 0.0, 0.0, 0.00070606290215906743, 0.0085884129535742336]
---
header: 
  seq: 674
  stamp: 
    secs: 1559674762
    nsecs: 135552063
  frame_id: map
pose: 
  pose: 
    position: 
      x: -0.638175119567
      y: -12.3644131662
      z: 0.0
    orientation: 
      x: 0.0
      y: 0.0
      z: -0.0414294662154
      w: 0.999141431094
  covariance: [0.0079381150443762136, 0.0, 0.0, 0.0, 0.0, 0.0, 0.0, 0.0, 0.0, 0.0, 0.0, 0.0, 0.0, 0.0, 0.0, 0.0, 0.0, 0.0, 0.0, 0.0, 0.0, 0.0, 0.0, 0.0, 0.0, 0.0, 0.0, 0.0, 0.0077172294313292986, 0.00114007643828873, 0.0, 0.0, 0.0, 0.0, 0.0011400764382860655, 0.0088883381804252867]
---
header: 
  seq: 675
  stamp: 
    secs: 1559674763
    nsecs: 39376213
  frame_id: map
pose: 
  pose: 
    position: 
      x: -0.0565548154846
      y: -12.4929261661
      z: 0.0
    orientation: 
      x: 0.0
      y: 0.0
      z: -0.105851567827
      w: 0.994381941504
  covariance: [0.0065297875227559423, 0.0, 0.0, 0.0, 0.0, 0.0, 0.0, 0.0, 0.0, 0.0, 0.0, 0.0, 0.0, 0.0, 0.0, 0.0, 0.0, 0.0, 0.0, 0.0, 0.0, 0.0, 0.0, 0.0, 0.0, 0.0, 0.0, 0.0, 0.0099104339756220707, 0.001098242502840332, 0.0, 0.0, 0.0, 0.0, 0.001098242502840332, 0.0093397541380142897]
---
header: 
  seq: 676
  stamp: 
    secs: 1559674763
    nsecs: 763918993
  frame_id: map
pose: 
  pose: 
    position: 
      x: 0.506203630988
      y: -12.6223932004
      z: 0.0
    orientation: 
      x: 0.0
      y: 0.0
      z: -0.112794560084
      w: 0.993618330757
  covariance: [0.0062354830542141306, 0.0, 0.0, 0.0, 0.0, 0.0, 0.0, 0.0, 0.0, 0.0, 0.0, 0.0, 0.0, 0.0, 0.0, 0.0, 0.0, 0.0, 0.0, 0.0, 0.0, 0.0, 0.0, 0.0, 0.0, 0.0, 0.0, 0.0, 0.014017461787274381, 0.0014040980448294226, 0.0, 0.0, 0.0, 0.0, 0.0014040980448285344, 0.0093430666208206958]
---
header: 
  seq: 677
  stamp: 
    secs: 1559674764
    nsecs: 472722095
  frame_id: map
pose: 
  pose: 
    position: 
      x: 1.06667777797
      y: -12.7286460911
      z: 0.0
    orientation: 
      x: 0.0
      y: 0.0
      z: -0.0871882134251
      w: 0.996191856742
  covariance: [0.005425318314928311, 0.0, 0.0, 0.0, 0.0, 0.0, 0.0, 0.0, 0.0, 0.0, 0.0, 0.0, 0.0, 0.0, 0.0, 0.0, 0.0, 0.0, 0.0, 0.0, 0.0, 0.0, 0.0, 0.0, 0.0, 0.0, 0.0, 0.0, 0.018802387364206148, 0.001787568201464407, 0.0, 0.0, 0.0, 0.0, 0.001787568201464407, 0.0092965897764048493]
---
header: 
  seq: 678
  stamp: 
    secs: 1559674765
    nsecs: 233015071
  frame_id: map
pose: 
  pose: 
    position: 
      x: 1.66433370281
      y: -12.8182377246
      z: 0.0
    orientation: 
      x: 0.0
      y: 0.0
      z: -0.0520677363983
      w: 0.998643555442
  covariance: [0.0047937948937665127, 0.0, 0.0, 0.0, 0.0, 0.0, 0.0, 0.0, 0.0, 0.0, 0.0, 0.0, 0.0, 0.0, 0.0, 0.0, 0.0, 0.0, 0.0, 0.0, 0.0, 0.0, 0.0, 0.0, 0.0, 0.0, 0.0, 0.0, 0.022841303663686731, 0.0010156655036706206, 0.0, 0.0, 0.0, 0.0, 0.0010156655036706206, 0.0088341611242763862]
---
header: 
  seq: 679
  stamp: 
    secs: 1559674765
    nsecs: 970882415
  frame_id: map
pose: 
  pose: 
    position: 
      x: 2.24992654607
      y: -12.8553002832
      z: 0.0
    orientation: 
      x: 0.0
      y: 0.0
      z: -0.0263723434956
      w: 0.999652189263
  covariance: [0.004543900193710794, 0.0, 0.0, 0.0, 0.0, 0.0, 0.0, 0.0, 0.0, 0.0, 0.0, 0.0, 0.0, 0.0, 0.0, 0.0, 0.0, 0.0, 0.0, 0.0, 0.0, 0.0, 0.0, 0.0, 0.0, 0.0, 0.0, 0.0, 0.025685042489143235, 0.00069882128751307679, 0.0, 0.0, 0.0, 0.0, 0.00069882128751307679, 0.0086922475721489673]
---
header: 
  seq: 680
  stamp: 
    secs: 1559674766
    nsecs: 663349139
  frame_id: map
pose: 
  pose: 
    position: 
      x: 2.81441316986
      y: -12.8635133292
      z: 0.0
    orientation: 
      x: 0.0
      y: 0.0
      z: 0.00696693472121
      w: 0.999975730616
  covariance: [0.003617071581593734, 0.0, 0.0, 0.0, 0.0, 0.0, 0.0, 0.0, 0.0, 0.0, 0.0, 0.0, 0.0, 0.0, 0.0, 0.0, 0.0, 0.0, 0.0, 0.0, 0.0, 0.0, 0.0, 0.0, 0.0, 0.0, 0.0, 0.0, 0.023947539040842382, -0.00015699128994451394, 0.0, 0.0, 0.0, 0.0, -0.0001569912899587248, 0.0082829027977723707]
---
header: 
  seq: 681
  stamp: 
    secs: 1559674767
    nsecs: 360389058
  frame_id: map
pose: 
  pose: 
    position: 
      x: 3.37003194244
      y: -12.8195160424
      z: 0.0
    orientation: 
      x: 0.0
      y: 0.0
      z: 0.045370420278
      w: 0.998970232271
  covariance: [0.0034819180768021472, 0.0, 0.0, 0.0, 0.0, 0.0, 0.0, 0.0, 0.0, 0.0, 0.0, 0.0, 0.0, 0.0, 0.0, 0.0, 0.0, 0.0, 0.0, 0.0, 0.0, 0.0, 0.0, 0.0, 0.0, 0.0, 0.0, 0.0, 0.025969068133184454, -0.001527844339146635, 0.0, 0.0, 0.0, 0.0, -0.001527844339146635, 0.0080281537156759886]
---
header: 
  seq: 682
  stamp: 
    secs: 1559674767
    nsecs: 960914832
  frame_id: map
pose: 
  pose: 
    position: 
      x: 3.85439923009
      y: -12.7594222637
      z: 0.0
    orientation: 
      x: 0.0
      y: 0.0
      z: 0.0730123512646
      w: 0.997331036599
  covariance: [0.0030859803833757221, 0.0, 0.0, 0.0, 0.0, 0.0, 0.0, 0.0, 0.0, 0.0, 0.0, 0.0, 0.0, 0.0, 0.0, 0.0, 0.0, 0.0, 0.0, 0.0, 0.0, 0.0, 0.0, 0.0, 0.0, 0.0, 0.0, 0.0, 0.027031564012010095, -0.0023451913017856225, 0.0, 0.0, 0.0, 0.0, -0.0023451913017856225, 0.0076450622809053782]
---
header: 
  seq: 683
  stamp: 
    secs: 1559674768
    nsecs: 671877676
  frame_id: map
pose: 
  pose: 
    position: 
      x: 4.41126783005
      y: -12.6484499036
      z: 0.0
    orientation: 
      x: 0.0
      y: 0.0
      z: 0.0959694378337
      w: 0.99538428107
  covariance: [0.0033918978045641489, 0.0, 0.0, 0.0, 0.0, 0.0, 0.0, 0.0, 0.0, 0.0, 0.0, 0.0, 0.0, 0.0, 0.0, 0.0, 0.0, 0.0, 0.0, 0.0, 0.0, 0.0, 0.0, 0.0, 0.0, 0.0, 0.0, 0.0, 0.027096933159509326, -0.0033354060343290318, 0.0, 0.0, 0.0, 0.0, -0.0033354060343219263, 0.0080815427662045032]
---
header: 
  seq: 684
  stamp: 
    secs: 1559674769
    nsecs: 344969893
  frame_id: map
pose: 
  pose: 
    position: 
      x: 4.94337168672
      y: -12.5224983292
      z: 0.0
    orientation: 
      x: 0.0
      y: 0.0
      z: 0.0896133825622
      w: 0.995976627068
  covariance: [0.0035460109582818172, 0.0, 0.0, 0.0, 0.0, 0.0, 0.0, 0.0, 0.0, 0.0, 0.0, 0.0, 0.0, 0.0, 0.0, 0.0, 0.0, 0.0, 0.0, 0.0, 0.0, 0.0, 0.0, 0.0, 0.0, 0.0, 0.0, 0.0, 0.027055234451947074, -0.0042380578282743718, 0.0, 0.0, 0.0, 0.0, -0.0042380578282814772, 0.008395440016769536]
---
header: 
  seq: 685
  stamp: 
    secs: 1559674769
    nsecs: 958460883
  frame_id: map
pose: 
  pose: 
    position: 
      x: 5.41276584731
      y: -12.4451850397
      z: 0.0
    orientation: 
      x: 0.0
      y: 0.0
      z: 0.0570997636935
      w: 0.99836847756
  covariance: [0.0031357188371731524, 0.0, 0.0, 0.0, 0.0, 0.0, 0.0, 0.0, 0.0, 0.0, 0.0, 0.0, 0.0, 0.0, 0.0, 0.0, 0.0, 0.0, 0.0, 0.0, 0.0, 0.0, 0.0, 0.0, 0.0, 0.0, 0.0, 0.0, 0.02419536836967319, -0.0037331987752457574, 0.0, 0.0, 0.0, 0.0, -0.0037331987752457574, 0.0080342420556849866]
---
header: 
  seq: 686
  stamp: 
    secs: 1559674770
    nsecs: 659248949
  frame_id: map
pose: 
  pose: 
    position: 
      x: 5.96776473169
      y: -12.3872614706
      z: 0.0
    orientation: 
      x: 0.0
      y: 0.0
      z: 0.025347642422
      w: 0.999678696894
  covariance: [0.002758356637360986, 0.0, 0.0, 0.0, 0.0, 0.0, 0.0, 0.0, 0.0, 0.0, 0.0, 0.0, 0.0, 0.0, 0.0, 0.0, 0.0, 0.0, 0.0, 0.0, 0.0, 0.0, 0.0, 0.0, 0.0, 0.0, 0.0, 0.0, 0.02205032699724347, -0.003182307836146986, 0.0, 0.0, 0.0, 0.0, -0.003182307836146986, 0.0077108567587821633]
---
header: 
  seq: 687
  stamp: 
    secs: 1559674771
    nsecs: 408483425
  frame_id: map
pose: 
  pose: 
    position: 
      x: 6.54902354213
      y: -12.3805596458
      z: 0.0
    orientation: 
      x: 0.0
      y: 0.0
      z: -0.0223886121254
      w: 0.999749343609
  covariance: [0.0028821459408452195, 0.0, 0.0, 0.0, 0.0, 0.0, 0.0, 0.0, 0.0, 0.0, 0.0, 0.0, 0.0, 0.0, 0.0, 0.0, 0.0, 0.0, 0.0, 0.0, 0.0, 0.0, 0.0, 0.0, 0.0, 0.0, 0.0, 0.0, 0.020125550973853001, -0.0028336654260780617, 0.0, 0.0, 0.0, 0.0, -0.0028336654260780617, 0.0079883818252716766]
---
header: 
  seq: 688
  stamp: 
    secs: 1559674772
    nsecs: 106800713
  frame_id: map
pose: 
  pose: 
    position: 
      x: 7.10386817577
      y: -12.4104121462
      z: 0.0
    orientation: 
      x: 0.0
      y: 0.0
      z: -0.0287308681412
      w: 0.999587183399
  covariance: [0.0027541416767864228, 0.0, 0.0, 0.0, 0.0, 0.0, 0.0, 0.0, 0.0, 0.0, 0.0, 0.0, 0.0, 0.0, 0.0, 0.0, 0.0, 0.0, 0.0, 0.0, 0.0, 0.0, 0.0, 0.0, 0.0, 0.0, 0.0, 0.0, 0.019471884968064974, -0.0024419946927513032, 0.0, 0.0, 0.0, 0.0, -0.0024419946927370924, 0.0076935940399875946]
---
header: 
  seq: 689
  stamp: 
    secs: 1559674772
    nsecs: 802679227
  frame_id: map
pose: 
  pose: 
    position: 
      x: 7.65946673196
      y: -12.4553742137
      z: 0.0
    orientation: 
      x: 0.0
      y: 0.0
      z: -0.0232452824414
      w: 0.999729791916
  covariance: [0.0029346261323322182, 0.0, 0.0, 0.0, 0.0, 0.0, 0.0, 0.0, 0.0, 0.0, 0.0, 0.0, 0.0, 0.0, 0.0, 0.0, 0.0, 0.0, 0.0, 0.0, 0.0, 0.0, 0.0, 0.0, 0.0, 0.0, 0.0, 0.0, 0.018622894678134522, -0.0020722342001263491, 0.0, 0.0, 0.0, 0.0, -0.0020722342001263491, 0.0073882165134290757]
---
header: 
  seq: 690
  stamp: 
    secs: 1559674773
    nsecs: 508522166
  frame_id: map
pose: 
  pose: 
    position: 
      x: 8.2370786889
      y: -12.4795914004
      z: 0.0
    orientation: 
      x: 0.0
      y: 0.0
      z: -0.0282595971566
      w: 0.999600617831
  covariance: [0.0025926041551764113, 0.0, 0.0, 0.0, 0.0, 0.0, 0.0, 0.0, 0.0, 0.0, 0.0, 0.0, 0.0, 0.0, 0.0, 0.0, 0.0, 0.0, 0.0, 0.0, 0.0, 0.0, 0.0, 0.0, 0.0, 0.0, 0.0, 0.0, 0.01821710382759063, -0.0020694859474036432, 0.0, 0.0, 0.0, 0.0, -0.0020694859474036432, 0.0074302957509167957]
---
header: 
  seq: 691
  stamp: 
    secs: 1559674774
    nsecs: 204015992
  frame_id: map
pose: 
  pose: 
    position: 
      x: 8.78256297309
      y: -12.4953919656
      z: 0.0
    orientation: 
      x: 0.0
      y: 0.0
      z: -0.000297659153703
      w: 0.9999999557
  covariance: [0.0023143512269637968, 0.0, 0.0, 0.0, 0.0, 0.0, 0.0, 0.0, 0.0, 0.0, 0.0, 0.0, 0.0, 0.0, 0.0, 0.0, 0.0, 0.0, 0.0, 0.0, 0.0, 0.0, 0.0, 0.0, 0.0, 0.0, 0.0, 0.0, 0.015465651331229438, -0.0019023180188538389, 0.0, 0.0, 0.0, 0.0, -0.0019023180188538389, 0.0071068116506374304]
---
header: 
  seq: 692
  stamp: 
    secs: 1559674774
    nsecs: 900303183
  frame_id: map
pose: 
  pose: 
    position: 
      x: 9.34335153587
      y: -12.4903274585
      z: 0.0
    orientation: 
      x: 0.0
      y: 0.0
      z: 0.0436531654337
      w: 0.999046746227
  covariance: [0.0021243415866319076, 0.0, 0.0, 0.0, 0.0, 0.0, 0.0, 0.0, 0.0, 0.0, 0.0, 0.0, 0.0, 0.0, 0.0, 0.0, 0.0, 0.0, 0.0, 0.0, 0.0, 0.0, 0.0, 0.0, 0.0, 0.0, 0.0, 0.0, 0.013921196672883473, -0.0019489055234144295, 0.0, 0.0, 0.0, 0.0, -0.0019489055234144295, 0.0072133122360287429]
---
header: 
  seq: 693
  stamp: 
    secs: 1559674775
    nsecs: 485468939
  frame_id: map
pose: 
  pose: 
    position: 
      x: 9.80789470138
      y: -12.4507949141
      z: 0.0
    orientation: 
      x: 0.0
      y: 0.0
      z: 0.0783034019197
      w: 0.996929574869
  covariance: [0.001825711046295098, 0.0, 0.0, 0.0, 0.0, 0.0, 0.0, 0.0, 0.0, 0.0, 0.0, 0.0, 0.0, 0.0, 0.0, 0.0, 0.0, 0.0, 0.0, 0.0, 0.0, 0.0, 0.0, 0.0, 0.0, 0.0, 0.0, 0.0, 0.011266769991324104, -0.001434859511889926, 0.0, 0.0, 0.0, 0.0, -0.001434859511889926, 0.0073448146224634808]
---
header: 
  seq: 694
  stamp: 
    secs: 1559674776
    nsecs: 87494084
  frame_id: map
pose: 
  pose: 
    position: 
      x: 10.2747923513
      y: -12.3689707528
      z: 0.0
    orientation: 
      x: 0.0
      y: 0.0
      z: 0.0998039811611
      w: 0.995007118238
  covariance: [0.0016756828813929839, 0.0, 0.0, 0.0, 0.0, 0.0, 0.0, 0.0, 0.0, 0.0, 0.0, 0.0, 0.0, 0.0, 0.0, 0.0, 0.0, 0.0, 0.0, 0.0, 0.0, 0.0, 0.0, 0.0, 0.0, 0.0, 0.0, 0.0, 0.0095261328057663457, -0.0011431802210508121, 0.0, 0.0, 0.0, 0.0, -0.0011431802210508121, 0.0075978772651664377]
---
header: 
  seq: 695
  stamp: 
    secs: 1559674776
    nsecs: 684860692
  frame_id: map
pose: 
  pose: 
    position: 
      x: 10.7033696644
      y: -12.2873287342
      z: 0.0
    orientation: 
      x: 0.0
      y: 0.0
      z: 0.0894139836258
      w: 0.995994547943
  covariance: [0.0015310871056374627, 0.0, 0.0, 0.0, 0.0, 0.0, 0.0, 0.0, 0.0, 0.0, 0.0, 0.0, 0.0, 0.0, 0.0, 0.0, 0.0, 0.0, 0.0, 0.0, 0.0, 0.0, 0.0, 0.0, 0.0, 0.0, 0.0, 0.0, 0.0082638677826650554, -0.0012119995906305818, 0.0, 0.0, 0.0, 0.0, -0.0012119995906305818, 0.0075125214411734826]
---
header: 
  seq: 696
  stamp: 
    secs: 1559674777
    nsecs: 306475339
  frame_id: map
pose: 
  pose: 
    position: 
      x: 11.1773796634
      y: -12.2282239813
      z: 0.0
    orientation: 
      x: 0.0
      y: 0.0
      z: 0.0188484695307
      w: 0.999822351819
  covariance: [0.0015480009142819101, 0.0, 0.0, 0.0, 0.0, 0.0, 0.0, 0.0, 0.0, 0.0, 0.0, 0.0, 0.0, 0.0, 0.0, 0.0, 0.0, 0.0, 0.0, 0.0, 0.0, 0.0, 0.0, 0.0, 0.0, 0.0, 0.0, 0.0, 0.0070966089500781749, -0.0009769702236811428, 0.0, 0.0, 0.0, 0.0, -0.0009769702236811428, 0.0078649786583557188]
---
header: 
  seq: 697
  stamp: 
    secs: 1559674778
    nsecs: 182680896
  frame_id: map
pose: 
  pose: 
    position: 
      x: 11.7693643705
      y: -12.2900711151
      z: 0.0
    orientation: 
      x: 0.0
      y: 0.0
      z: -0.158622893633
      w: 0.987339241404
  covariance: [0.0024626268072501238, 0.0, 0.0, 0.0, 0.0, 0.0, 0.0, 0.0, 0.0, 0.0, 0.0, 0.0, 0.0, 0.0, 0.0, 0.0, 0.0, 0.0, 0.0, 0.0, 0.0, 0.0, 0.0, 0.0, 0.0, 0.0, 0.0, 0.0, 0.0065258933705889281, -0.0009575193493528317, 0.0, 0.0, 0.0, 0.0, -0.0009575193493528317, 0.008506979086492783]
---
header: 
  seq: 698
  stamp: 
    secs: 1559674779
    nsecs: 486539108
  frame_id: map
pose: 
  pose: 
    position: 
      x: 12.232768988
      y: -12.5486281856
      z: 0.0
    orientation: 
      x: 0.0
      y: 0.0
      z: -0.363559783037
      w: 0.931570869101
  covariance: [0.0029728084341308042, 0.0, 0.0, 0.0, 0.0, 0.0, 0.0, 0.0, 0.0, 0.0, 0.0, 0.0, 0.0, 0.0, 0.0, 0.0, 0.0, 0.0, 0.0, 0.0, 0.0, 0.0, 0.0, 0.0, 0.0, 0.0, 0.0, 0.0, 0.0063024595152179697, -0.00053980145895002579, 0.0, 0.0, 0.0, 0.0, -0.00053980145895002579, 0.0086186496416088988]
---
header: 
  seq: 699
  stamp: 
    secs: 1559674791
    nsecs: 552487437
  frame_id: map
pose: 
  pose: 
    position: 
      x: 12.4668700945
      y: -12.9091116174
      z: 0.0
    orientation: 
      x: 0.0
      y: 0.0
      z: -0.551446585248
      w: 0.834210203497
  covariance: [0.0029225277535458241, 0.0, 0.0, 0.0, 0.0, 0.0, 0.0, 0.0, 0.0, 0.0, 0.0, 0.0, 0.0, 0.0, 0.0, 0.0, 0.0, 0.0, 0.0, 0.0, 0.0, 0.0, 0.0, 0.0, 0.0, 0.0, 0.0, 0.0, 0.0054581248880474238, 6.3102224853998099e-05, 0.0, 0.0, 0.0, 0.0, 6.3102224853998099e-05, 0.0084789813667008121]
---
header: 
  seq: 700
  stamp: 
    secs: 1559674800
    nsecs: 410315889
  frame_id: map
pose: 
  pose: 
    position: 
      x: 12.5378463695
      y: -13.345513896
      z: 0.0
    orientation: 
      x: 0.0
      y: 0.0
      z: -0.732588681833
      w: 0.680671597212
  covariance: [0.0045888367329795293, 0.0, 0.0, 0.0, 0.0, 0.0, 0.0, 0.0, 0.0, 0.0, 0.0, 0.0, 0.0, 0.0, 0.0, 0.0, 0.0, 0.0, 0.0, 0.0, 0.0, 0.0, 0.0, 0.0, 0.0, 0.0, 0.0, 0.0, 0.0059930491910246192, 0.00061695238367551848, 0.0, 0.0, 0.0, 0.0, 0.00061695238367551848, 0.0090585407904280168]
---
header: 
  seq: 701
  stamp: 
    secs: 1559674818
    nsecs: 301064656
  frame_id: map
pose: 
  pose: 
    position: 
      x: 12.5660306245
      y: -13.3362914519
      z: 0.0
    orientation: 
      x: 0.0
      y: 0.0
      z: -0.739379456144
      w: 0.673288957159
  covariance: [0.0049456590972772737, 0.0, 0.0, 0.0, 0.0, 0.0, 0.0, 0.0, 0.0, 0.0, 0.0, 0.0, 0.0, 0.0, 0.0, 0.0, 0.0, 0.0, 0.0, 0.0, 0.0, 0.0, 0.0, 0.0, 0.0, 0.0, 0.0, 0.0, 0.0050737439548974193, 0.00056569577275068588, 0.0, 0.0, 0.0, 0.0, 0.00056569577275068588, 0.0083293701723896382]
---
header: 
  seq: 702
  stamp: 
    secs: 1559674820
    nsecs: 83725333
  frame_id: map
pose: 
  pose: 
    position: 
      x: 12.6194719833
      y: -12.8189105048
      z: 0.0
    orientation: 
      x: 0.0
      y: 0.0
      z: -0.739740441954
      w: 0.672892323137
  covariance: [0.0052285338889541703, 0.0, 0.0, 0.0, 0.0, 0.0, 0.0, 0.0, 0.0, 0.0, 0.0, 0.0, 0.0, 0.0, 0.0, 0.0, 0.0, 0.0, 0.0, 0.0, 0.0, 0.0, 0.0, 0.0, 0.0, 0.0, 0.0, 0.0, 0.0046916218291495415, 0.00011527398439587217, 0.0, 0.0, 0.0, 0.0, 0.00011527398439587217, 0.0077169783848971127]
---
header: 
  seq: 703
  stamp: 
    secs: 1559674825
    nsecs: 163605503
  frame_id: map
pose: 
  pose: 
    position: 
      x: 12.6312492661
      y: -12.5867310294
      z: 0.0
    orientation: 
      x: 0.0
      y: 0.0
      z: -0.975854734471
      w: 0.218420551255
  covariance: [0.011348704617680909, 0.0, 0.0, 0.0, 0.0, 0.0, 0.0, 0.0, 0.0, 0.0, 0.0, 0.0, 0.0, 0.0, 0.0, 0.0, 0.0, 0.0, 0.0, 0.0, 0.0, 0.0, 0.0, 0.0, 0.0, 0.0, 0.0, 0.0, 0.0091989674197285216, 0.0012341663133597241, 0.0, 0.0, 0.0, 0.0, 0.0012341663133881458, 0.0097408916805800331]
---
header: 
  seq: 704
  stamp: 
    secs: 1559674831
    nsecs: 137366597
  frame_id: map
pose: 
  pose: 
    position: 
      x: 12.6251638712
      y: -12.5721377972
      z: 0.0
    orientation: 
      x: 0.0
      y: 0.0
      z: 0.948962933831
      w: 0.315387618993
  covariance: [0.01682244846729292, 0.0, 0.0, 0.0, 0.0, 0.0, 0.0, 0.0, 0.0, 0.0, 0.0, 0.0, 0.0, 0.0, 0.0, 0.0, 0.0, 0.0, 0.0, 0.0, 0.0, 0.0, 0.0, 0.0, 0.0, 0.0, 0.0, 0.0, 0.0096789942309086375, 0.0015601064680051625, 0.0, 0.0, 0.0, 0.0, 0.0015601064679767408, 0.015756886469703708]
---
header: 
  seq: 705
  stamp: 
    secs: 1559674833
    nsecs: 342386796
  frame_id: map
pose: 
  pose: 
    position: 
      x: 12.6012177353
      y: -12.5213320246
      z: 0.0
    orientation: 
      x: 0.0
      y: 0.0
      z: 0.666413610907
      w: 0.745582255152
  covariance: [0.014771325393338515, 0.0, 0.0, 0.0, 0.0, 0.0, 0.0, 0.0, 0.0, 0.0, 0.0, 0.0, 0.0, 0.0, 0.0, 0.0, 0.0, 0.0, 0.0, 0.0, 0.0, 0.0, 0.0, 0.0, 0.0, 0.0, 0.0, 0.0, 0.010002937990959384, 0.00099171827697207651, 0.0, 0.0, 0.0, 0.0, 0.00099171827697207651, 0.016378914794466671]
---
header: 
  seq: 706
  stamp: 
    secs: 1559674835
    nsecs: 41502443
  frame_id: map
pose: 
  pose: 
    position: 
      x: 12.83738795
      y: -12.1654374824
      z: 0.0
    orientation: 
      x: 0.0
      y: 0.0
      z: 0.30236459556
      w: 0.95319234751
  covariance: [0.013743980247115043, 0.0, 0.0, 0.0, 0.0, 0.0, 0.0, 0.0, 0.0, 0.0, 0.0, 0.0, 0.0, 0.0, 0.0, 0.0, 0.0, 0.0, 0.0, 0.0, 0.0, 0.0, 0.0, 0.0, 0.0, 0.0, 0.0, 0.0, 0.012965551823021301, -0.0011277368264012155, 0.0, 0.0, 0.0, 0.0, -0.0011277368264012155, 0.019291575593658003]
---
header: 
  seq: 707
  stamp: 
    secs: 1559674836
    nsecs: 621116322
  frame_id: map
pose: 
  pose: 
    position: 
      x: 13.252297507
      y: -12.0188054332
      z: 0.0
    orientation: 
      x: 0.0
      y: 0.0
      z: -0.0849126695064
      w: 0.996388397442
  covariance: [0.012728878649529851, 0.0, 0.0, 0.0, 0.0, 0.0, 0.0, 0.0, 0.0, 0.0, 0.0, 0.0, 0.0, 0.0, 0.0, 0.0, 0.0, 0.0, 0.0, 0.0, 0.0, 0.0, 0.0, 0.0, 0.0, 0.0, 0.0, 0.0, 0.016410798062493376, -0.003791662652768174, 0.0, 0.0, 0.0, 0.0, -0.003791662652768174, 0.021266885393814831]
---
header: 
  seq: 708
  stamp: 
    secs: 1559674838
    nsecs: 219108971
  frame_id: map
pose: 
  pose: 
    position: 
      x: 13.6341767974
      y: -12.2373067692
      z: 0.0
    orientation: 
      x: 0.0
      y: 0.0
      z: -0.448476982308
      w: 0.893794381466
  covariance: [0.011524823026762294, 0.0, 0.0, 0.0, 0.0, 0.0, 0.0, 0.0, 0.0, 0.0, 0.0, 0.0, 0.0, 0.0, 0.0, 0.0, 0.0, 0.0, 0.0, 0.0, 0.0, 0.0, 0.0, 0.0, 0.0, 0.0, 0.0, 0.0, 0.018980208150003824, -0.0023149380386682889, 0.0, 0.0, 0.0, 0.0, -0.0023149380386682889, 0.020021776568780781]
---
header: 
  seq: 709
  stamp: 
    secs: 1559674841
    nsecs: 333113076
  frame_id: map
pose: 
  pose: 
    position: 
      x: 13.6304551048
      y: -12.6048485697
      z: 0.0
    orientation: 
      x: 0.0
      y: 0.0
      z: -0.835444225935
      w: 0.549575240847
  covariance: [0.010803364114973426, 0.0, 0.0, 0.0, 0.0, 0.0, 0.0, 0.0, 0.0, 0.0, 0.0, 0.0, 0.0, 0.0, 0.0, 0.0, 0.0, 0.0, 0.0, 0.0, 0.0, 0.0, 0.0, 0.0, 0.0, 0.0, 0.0, 0.0, 0.014705121447336595, 0.00056943031876875955, 0.0, 0.0, 0.0, 0.0, 0.00056943031876875955, 0.019737610381019361]
---
header: 
  seq: 710
  stamp: 
    secs: 1559674854
    nsecs: 962338468
  frame_id: map
pose: 
  pose: 
    position: 
      x: 13.5104280137
      y: -13.1326507202
      z: 0.0
    orientation: 
      x: 0.0
      y: 0.0
      z: -0.765041702272
      w: 0.643980740228
  covariance: [0.009790934521782247, 0.0, 0.0, 0.0, 0.0, 0.0, 0.0, 0.0, 0.0, 0.0, 0.0, 0.0, 0.0, 0.0, 0.0, 0.0, 0.0, 0.0, 0.0, 0.0, 0.0, 0.0, 0.0, 0.0, 0.0, 0.0, 0.0, 0.0, 0.0091058422752657315, 0.0020618624601323556, 0.0, 0.0, 0.0, 0.0, 0.0020618624601323556, 0.022752675753260603]
---
header: 
  seq: 711
  stamp: 
    secs: 1559674865
    nsecs: 113927155
  frame_id: map
pose: 
  pose: 
    position: 
      x: 13.5204793747
      y: -13.6516411449
      z: 0.0
    orientation: 
      x: 0.0
      y: 0.0
      z: -0.697490334747
      w: 0.716594189855
  covariance: [0.0098672066348886849, 0.0, 0.0, 0.0, 0.0, 0.0, 0.0, 0.0, 0.0, 0.0, 0.0, 0.0, 0.0, 0.0, 0.0, 0.0, 0.0, 0.0, 0.0, 0.0, 0.0, 0.0, 0.0, 0.0, 0.0, 0.0, 0.0, 0.0, 0.0064921500275821721, 0.0020048280125783292, 0.0, 0.0, 0.0, 0.0, 0.0020048280125783292, 0.027645128720687927]
---
header: 
  seq: 712
  stamp: 
    secs: 1559674880
    nsecs: 849763724
  frame_id: map
pose: 
  pose: 
    position: 
      x: 13.5022514767
      y: -13.1353292377
      z: 0.0
    orientation: 
      x: 0.0
      y: 0.0
      z: -0.701919645028
      w: 0.712256142075
  covariance: [0.00917829048431755, 0.0, 0.0, 0.0, 0.0, 0.0, 0.0, 0.0, 0.0, 0.0, 0.0, 0.0, 0.0, 0.0, 0.0, 0.0, 0.0, 0.0, 0.0, 0.0, 0.0, 0.0, 0.0, 0.0, 0.0, 0.0, 0.0, 0.0, 0.0054351437385253658, 0.00060296319375584284, 0.0, 0.0, 0.0, 0.0, 0.00060296319375584284, 0.018928499595162802]
---
header: 
  seq: 713
  stamp: 
    secs: 1559674882
    nsecs: 942076260
  frame_id: map
pose: 
  pose: 
    position: 
      x: 13.5026202401
      y: -12.6143142001
      z: 0.0
    orientation: 
      x: 0.0
      y: 0.0
      z: -0.68799612478
      w: 0.725714359984
  covariance: [0.0083094457557678497, 0.0, 0.0, 0.0, 0.0, 0.0, 0.0, 0.0, 0.0, 0.0, 0.0, 0.0, 0.0, 0.0, 0.0, 0.0, 0.0, 0.0, 0.0, 0.0, 0.0, 0.0, 0.0, 0.0, 0.0, 0.0, 0.0, 0.0, 0.0047510971511666141, -0.00051261490997582158, 0.0, 0.0, 0.0, 0.0, -0.00051261491000424329, 0.017037143366748879]
---
header: 
  seq: 714
  stamp: 
    secs: 1559674886
    nsecs: 743159714
  frame_id: map
pose: 
  pose: 
    position: 
      x: 13.4859097554
      y: -12.6135597678
      z: 0.0
    orientation: 
      x: 0.0
      y: 0.0
      z: -0.969474339203
      w: 0.24519279277
  covariance: [0.0088270127571429928, 0.0, 0.0, 0.0, 0.0, 0.0, 0.0, 0.0, 0.0, 0.0, 0.0, 0.0, 0.0, 0.0, 0.0, 0.0, 0.0, 0.0, 0.0, 0.0, 0.0, 0.0, 0.0, 0.0, 0.0, 0.0, 0.0, 0.0, 0.0058803360915018746, 6.714324230894948e-05, 0.0, 0.0, 0.0, 0.0, 6.714324230894948e-05, 0.017501770257844849]
---
header: 
  seq: 715
  stamp: 
    secs: 1559674888
    nsecs: 626401683
  frame_id: map
pose: 
  pose: 
    position: 
      x: 12.9706698903
      y: -12.58983923
      z: 0.0
    orientation: 
      x: 0.0
      y: 0.0
      z: 0.991879585966
      w: 0.127180528947
  covariance: [0.0091884874039883033, 0.0, 0.0, 0.0, 0.0, 0.0, 0.0, 0.0, 0.0, 0.0, 0.0, 0.0, 0.0, 0.0, 0.0, 0.0, 0.0, 0.0, 0.0, 0.0, 0.0, 0.0, 0.0, 0.0, 0.0, 0.0, 0.0, 0.0, 0.007169163375306411, 0.00081065709173358232, 0.0, 0.0, 0.0, 0.0, 0.00081065709173358232, 0.018736236643992155]
---
header: 
  seq: 716
  stamp: 
    secs: 1559674889
    nsecs: 533697043
  frame_id: map
pose: 
  pose: 
    position: 
      x: 12.4085761471
      y: -12.3694860361
      z: 0.0
    orientation: 
      x: 0.0
      y: 0.0
      z: 0.985777524499
      w: 0.168055562813
  covariance: [0.0077789356685907529, 0.0, 0.0, 0.0, 0.0, 0.0, 0.0, 0.0, 0.0, 0.0, 0.0, 0.0, 0.0, 0.0, 0.0, 0.0, 0.0, 0.0, 0.0, 0.0, 0.0, 0.0, 0.0, 0.0, 0.0, 0.0, 0.0, 0.0, 0.011741823989743501, 0.0010015575432044692, 0.0, 0.0, 0.0, 0.0, 0.0010015575432044692, 0.01864240149994886]
---
header: 
  seq: 717
  stamp: 
    secs: 1559674890
    nsecs: 314226040
  frame_id: map
pose: 
  pose: 
    position: 
      x: 11.8581854321
      y: -12.128030422
      z: 0.0
    orientation: 
      x: 0.0
      y: 0.0
      z: 0.992896611337
      w: 0.118980331129
  covariance: [0.0075738030828094178, 0.0, 0.0, 0.0, 0.0, 0.0, 0.0, 0.0, 0.0, 0.0, 0.0, 0.0, 0.0, 0.0, 0.0, 0.0, 0.0, 0.0, 0.0, 0.0, 0.0, 0.0, 0.0, 0.0, 0.0, 0.0, 0.0, 0.0, 0.018746648094159914, 0.0018382754229882314, 0.0, 0.0, 0.0, 0.0, 0.0018382754229882314, 0.018763519017441208]
---
header: 
  seq: 718
  stamp: 
    secs: 1559674891
    nsecs: 115634250
  frame_id: map
pose: 
  pose: 
    position: 
      x: 11.2507198249
      y: -12.0122893444
      z: 0.0
    orientation: 
      x: 0.0
      y: 0.0
      z: 0.999999585719
      w: 0.00091025351552
  covariance: [0.005574207415858257, 0.0, 0.0, 0.0, 0.0, 0.0, 0.0, 0.0, 0.0, 0.0, 0.0, 0.0, 0.0, 0.0, 0.0, 0.0, 0.0, 0.0, 0.0, 0.0, 0.0, 0.0, 0.0, 0.0, 0.0, 0.0, 0.0, 0.0, 0.020702722050679575, -0.00017461326731143081, 0.0, 0.0, 0.0, 0.0, -0.00017461326731143081, 0.016995830119354401]
---
header: 
  seq: 719
  stamp: 
    secs: 1559674891
    nsecs: 712025792
  frame_id: map
pose: 
  pose: 
    position: 
      x: 10.7766172769
      y: -12.0277387873
      z: 0.0
    orientation: 
      x: 0.0
      y: 0.0
      z: -0.998153601612
      w: 0.0607403291747
  covariance: [0.004292688697313197, 0.0, 0.0, 0.0, 0.0, 0.0, 0.0, 0.0, 0.0, 0.0, 0.0, 0.0, 0.0, 0.0, 0.0, 0.0, 0.0, 0.0, 0.0, 0.0, 0.0, 0.0, 0.0, 0.0, 0.0, 0.0, 0.0, 0.0, 0.022043923449158516, -0.0012895096562517817, 0.0, 0.0, 0.0, 0.0, -0.00128950965622336, 0.016195359475297336]
---
header: 
  seq: 720
  stamp: 
    secs: 1559674892
    nsecs: 323862651
  frame_id: map
pose: 
  pose: 
    position: 
      x: 10.2618689281
      y: -12.09648448
      z: 0.0
    orientation: 
      x: 0.0
      y: 0.0
      z: -0.994036454972
      w: 0.10904827457
  covariance: [0.0036460622969354639, 0.0, 0.0, 0.0, 0.0, 0.0, 0.0, 0.0, 0.0, 0.0, 0.0, 0.0, 0.0, 0.0, 0.0, 0.0, 0.0, 0.0, 0.0, 0.0, 0.0, 0.0, 0.0, 0.0, 0.0, 0.0, 0.0, 0.0, 0.021040283926107472, -0.002087026413743997, 0.0, 0.0, 0.0, 0.0, -0.002087026413743997, 0.014955884224213123]
---
header: 
  seq: 721
  stamp: 
    secs: 1559674892
    nsecs: 932569376
  frame_id: map
pose: 
  pose: 
    position: 
      x: 9.80689312514
      y: -12.1922167996
      z: 0.0
    orientation: 
      x: 0.0
      y: 0.0
      z: -0.994256338018
      w: 0.107024923787
  covariance: [0.0033363675446018855, 0.0, 0.0, 0.0, 0.0, 0.0, 0.0, 0.0, 0.0, 0.0, 0.0, 0.0, 0.0, 0.0, 0.0, 0.0, 0.0, 0.0, 0.0, 0.0, 0.0, 0.0, 0.0, 0.0, 0.0, 0.0, 0.0, 0.0, 0.021181009061119652, -0.0031808210351161768, 0.0, 0.0, 0.0, 0.0, -0.0031808210351161768, 0.014905239270349374]
---
header: 
  seq: 722
  stamp: 
    secs: 1559674893
    nsecs: 516144370
  frame_id: map
pose: 
  pose: 
    position: 
      x: 9.35119820498
      y: -12.295349064
      z: 0.0
    orientation: 
      x: 0.0
      y: 0.0
      z: -0.994679275474
      w: 0.10302008999
  covariance: [0.0029737575519455015, 0.0, 0.0, 0.0, 0.0, 0.0, 0.0, 0.0, 0.0, 0.0, 0.0, 0.0, 0.0, 0.0, 0.0, 0.0, 0.0, 0.0, 0.0, 0.0, 0.0, 0.0, 0.0, 0.0, 0.0, 0.0, 0.0, 0.0, 0.019049800009190553, -0.0030013366011974784, 0.0, 0.0, 0.0, 0.0, -0.0030013366012116892, 0.013344390317750787]
---
header: 
  seq: 723
  stamp: 
    secs: 1559674894
    nsecs: 113181599
  frame_id: map
pose: 
  pose: 
    position: 
      x: 8.87959708761
      y: -12.3905572071
      z: 0.0
    orientation: 
      x: 0.0
      y: 0.0
      z: -0.997407555801
      w: 0.0719594860444
  covariance: [0.0024173010272938457, 0.0, 0.0, 0.0, 0.0, 0.0, 0.0, 0.0, 0.0, 0.0, 0.0, 0.0, 0.0, 0.0, 0.0, 0.0, 0.0, 0.0, 0.0, 0.0, 0.0, 0.0, 0.0, 0.0, 0.0, 0.0, 0.0, 0.0, 0.013934773329389962, -0.002701743794984402, 0.0, 0.0, 0.0, 0.0, -0.002701743794984402, 0.012082284114924822]
---
header: 
  seq: 724
  stamp: 
    secs: 1559674894
    nsecs: 704355578
  frame_id: map
pose: 
  pose: 
    position: 
      x: 8.41680806356
      y: -12.4470889597
      z: 0.0
    orientation: 
      x: 0.0
      y: 0.0
      z: -0.999520568808
      w: 0.0309617914488
  covariance: [0.0021814273164879952, 0.0, 0.0, 0.0, 0.0, 0.0, 0.0, 0.0, 0.0, 0.0, 0.0, 0.0, 0.0, 0.0, 0.0, 0.0, 0.0, 0.0, 0.0, 0.0, 0.0, 0.0, 0.0, 0.0, 0.0, 0.0, 0.0, 0.0, 0.011807407849441464, -0.0025862752701476858, 0.0, 0.0, 0.0, 0.0, -0.0025862752701476858, 0.011285499447565187]
---
header: 
  seq: 725
  stamp: 
    secs: 1559674895
    nsecs: 416016645
  frame_id: map
pose: 
  pose: 
    position: 
      x: 7.86003494305
      y: -12.4868763257
      z: 0.0
    orientation: 
      x: 0.0
      y: 0.0
      z: 0.999849351363
      w: 0.0173572630232
  covariance: [0.0026544783039623688, 0.0, 0.0, 0.0, 0.0, 0.0, 0.0, 0.0, 0.0, 0.0, 0.0, 0.0, 0.0, 0.0, 0.0, 0.0, 0.0, 0.0, 0.0, 0.0, 0.0, 0.0, 0.0, 0.0, 0.0, 0.0, 0.0, 0.0, 0.010459927416847828, -0.0013989808359570499, 0.0, 0.0, 0.0, 0.0, -0.0013989808359570499, 0.010157829817646671]
---
header: 
  seq: 726
  stamp: 
    secs: 1559674896
    nsecs: 198607374
  frame_id: map
pose: 
  pose: 
    position: 
      x: 7.23697259906
      y: -12.4716192894
      z: 0.0
    orientation: 
      x: 0.0
      y: 0.0
      z: 0.999808722082
      w: 0.0195580993027
  covariance: [0.0029363428559522156, 0.0, 0.0, 0.0, 0.0, 0.0, 0.0, 0.0, 0.0, 0.0, 0.0, 0.0, 0.0, 0.0, 0.0, 0.0, 0.0, 0.0, 0.0, 0.0, 0.0, 0.0, 0.0, 0.0, 0.0, 0.0, 0.0, 0.0, 0.0097873841172607546, -0.00096404097312322089, 0.0, 0.0, 0.0, 0.0, -0.00096404097312322089, 0.0095944323866095117]
---
header: 
  seq: 727
  stamp: 
    secs: 1559674896
    nsecs: 894263760
  frame_id: map
pose: 
  pose: 
    position: 
      x: 6.67521815145
      y: -12.4723500338
      z: 0.0
    orientation: 
      x: 0.0
      y: 0.0
      z: -0.999970730929
      w: 0.00765096627765
  covariance: [0.0033483359584913098, 0.0, 0.0, 0.0, 0.0, 0.0, 0.0, 0.0, 0.0, 0.0, 0.0, 0.0, 0.0, 0.0, 0.0, 0.0, 0.0, 0.0, 0.0, 0.0, 0.0, 0.0, 0.0, 0.0, 0.0, 0.0, 0.0, 0.0, 0.0097823061860701065, -0.00060006573828911463, 0.0, 0.0, 0.0, 0.0, -0.00060006573827490377, 0.01016806252960757]
---
header: 
  seq: 728
  stamp: 
    secs: 1559674897
    nsecs: 590930853
  frame_id: map
pose: 
  pose: 
    position: 
      x: 6.13734105658
      y: -12.5024448628
      z: 0.0
    orientation: 
      x: 0.0
      y: 0.0
      z: -0.998902288281
      w: 0.0468424856967
  covariance: [0.003173422777514194, 0.0, 0.0, 0.0, 0.0, 0.0, 0.0, 0.0, 0.0, 0.0, 0.0, 0.0, 0.0, 0.0, 0.0, 0.0, 0.0, 0.0, 0.0, 0.0, 0.0, 0.0, 0.0, 0.0, 0.0, 0.0, 0.0, 0.0, 0.010152986733349318, -0.00031741745302724361, 0.0, 0.0, 0.0, 0.0, -0.00031741745302724361, 0.0091768349730339538]
---
header: 
  seq: 729
  stamp: 
    secs: 1559674898
    nsecs: 310600915
  frame_id: map
pose: 
  pose: 
    position: 
      x: 5.56913933288
      y: -12.5671491685
      z: 0.0
    orientation: 
      x: 0.0
      y: 0.0
      z: -0.998354900902
      w: 0.057336653597
  covariance: [0.0034087637464280825, 0.0, 0.0, 0.0, 0.0, 0.0, 0.0, 0.0, 0.0, 0.0, 0.0, 0.0, 0.0, 0.0, 0.0, 0.0, 0.0, 0.0, 0.0, 0.0, 0.0, 0.0, 0.0, 0.0, 0.0, 0.0, 0.0, 0.0, 0.012872267459621875, -0.00023006345756719596, 0.0, 0.0, 0.0, 0.0, -0.00023006345756719596, 0.008977889323567247]
---
header: 
  seq: 730
  stamp: 
    secs: 1559674898
    nsecs: 901755215
  frame_id: map
pose: 
  pose: 
    position: 
      x: 5.1009172522
      y: -12.6173228407
      z: 0.0
    orientation: 
      x: 0.0
      y: 0.0
      z: -0.998445245289
      w: 0.0557412967109
  covariance: [0.0030625535211639297, 0.0, 0.0, 0.0, 0.0, 0.0, 0.0, 0.0, 0.0, 0.0, 0.0, 0.0, 0.0, 0.0, 0.0, 0.0, 0.0, 0.0, 0.0, 0.0, 0.0, 0.0, 0.0, 0.0, 0.0, 0.0, 0.0, 0.0, 0.013725178912681678, -0.00026694545385696616, 0.0, 0.0, 0.0, 0.0, -0.00026694545385696616, 0.0087163290549588397]
---
header: 
  seq: 731
  stamp: 
    secs: 1559674899
    nsecs: 611056501
  frame_id: map
pose: 
  pose: 
    position: 
      x: 4.54213356858
      y: -12.6783806992
      z: 0.0
    orientation: 
      x: 0.0
      y: 0.0
      z: -0.998605902856
      w: 0.0527849484382
  covariance: [0.0034242982867918829, 0.0, 0.0, 0.0, 0.0, 0.0, 0.0, 0.0, 0.0, 0.0, 0.0, 0.0, 0.0, 0.0, 0.0, 0.0, 0.0, 0.0, 0.0, 0.0, 0.0, 0.0, 0.0, 0.0, 0.0, 0.0, 0.0, 0.0, 0.016256323494817187, -0.00077101788578699717, 0.0, 0.0, 0.0, 0.0, -0.00077101788578699717, 0.0088075298844142984]
---
header: 
  seq: 732
  stamp: 
    secs: 1559674900
    nsecs: 319765760
  frame_id: map
pose: 
  pose: 
    position: 
      x: 3.98003240821
      y: -12.744177554
      z: 0.0
    orientation: 
      x: 0.0
      y: 0.0
      z: -0.99916314867
      w: 0.0409023512758
  covariance: [0.015870863021534242, 0.0, 0.0, 0.0, 0.0, 0.0, 0.0, 0.0, 0.0, 0.0, 0.0, 0.0, 0.0, 0.0, 0.0, 0.0, 0.0, 0.0, 0.0, 0.0, 0.0, 0.0, 0.0, 0.0, 0.0, 0.0, 0.0, 0.0, 0.49085887198593042, 0.18096725933309538, 0.0, 0.0, 0.0, 0.0, 0.18096725933309538, 0.36203062251734253]
---
header: 
  seq: 733
  stamp: 
    secs: 1559674901
    nsecs: 12764354
  frame_id: map
pose: 
  pose: 
    position: 
      x: 3.4331325854
      y: -12.7929635453
      z: 0.0
    orientation: 
      x: 0.0
      y: 0.0
      z: -0.999988527216
      w: 0.00479013954155
  covariance: [0.015453060929806198, 0.0, 0.0, 0.0, 0.0, 0.0, 0.0, 0.0, 0.0, 0.0, 0.0, 0.0, 0.0, 0.0, 0.0, 0.0, 0.0, 0.0, 0.0, 0.0, 0.0, 0.0, 0.0, 0.0, 0.0, 0.0, 0.0, 0.0, 0.73183133350878637, 0.25561194006644672, 0.0, 0.0, 0.0, 0.0, 0.25561194006644672, 0.45823734728981219]
---
header: 
  seq: 734
  stamp: 
    secs: 1559674901
    nsecs: 813618165
  frame_id: map
pose: 
  pose: 
    position: 
      x: 2.80145642781
      y: -12.7814317479
      z: 0.0
    orientation: 
      x: 0.0
      y: 0.0
      z: 0.999590041511
      w: 0.0286312575916
  covariance: [0.030259161874644065, 0.0, 0.0, 0.0, 0.0, 0.0, 0.0, 0.0, 0.0, 0.0, 0.0, 0.0, 0.0, 0.0, 0.0, 0.0, 0.0, 0.0, 0.0, 0.0, 0.0, 0.0, 0.0, 0.0, 0.0, 0.0, 0.0, 0.0, 0.90559453959393243, 0.30468403392672522, 0.0, 0.0, 0.0, 0.0, 0.30468403392672522, 0.72760138045273803]
---
header: 
  seq: 735
  stamp: 
    secs: 1559674902
    nsecs: 617484433
  frame_id: map
pose: 
  pose: 
    position: 
      x: 2.15463175997
      y: -12.7448512607
      z: 0.0
    orientation: 
      x: 0.0
      y: 0.0
      z: 0.999652647585
      w: 0.0263549649184
  covariance: [0.016227329120035185, 0.0, 0.0, 0.0, 0.0, 0.0, 0.0, 0.0, 0.0, 0.0, 0.0, 0.0, 0.0, 0.0, 0.0, 0.0, 0.0, 0.0, 0.0, 0.0, 0.0, 0.0, 0.0, 0.0, 0.0, 0.0, 0.0, 0.0, 0.32115870200100022, 0.10466307087385562, 0.0, 0.0, 0.0, 0.0, 0.10466307087385918, 0.24028920796865025]
---
header: 
  seq: 736
  stamp: 
    secs: 1559674903
    nsecs: 299568891
  frame_id: map
pose: 
  pose: 
    position: 
      x: 1.62119675358
      y: -12.7375787171
      z: 0.0
    orientation: 
      x: 0.0
      y: 0.0
      z: 0.999708854519
      w: 0.0241289493598
  covariance: [0.009364064084041647, 0.0, 0.0, 0.0, 0.0, 0.0, 0.0, 0.0, 0.0, 0.0, 0.0, 0.0, 0.0, 0.0, 0.0, 0.0, 0.0, 0.0, 0.0, 0.0, 0.0, 0.0, 0.0, 0.0, 0.0, 0.0, 0.0, 0.0, 0.21150162639153283, 0.10446062565596677, 0.0, 0.0, 0.0, 0.0, 0.10446062565596677, 0.1475909582601479]
---
header: 
  seq: 737
  stamp: 
    secs: 1559674904
    nsecs: 64664851
  frame_id: map
pose: 
  pose: 
    position: 
      x: 1.00624157167
      y: -12.7380695691
      z: 0.0
    orientation: 
      x: 0.0
      y: 0.0
      z: 0.999863507554
      w: 0.0165216906524
  covariance: [0.0075836466532301292, 0.0, 0.0, 0.0, 0.0, 0.0, 0.0, 0.0, 0.0, 0.0, 0.0, 0.0, 0.0, 0.0, 0.0, 0.0, 0.0, 0.0, 0.0, 0.0, 0.0, 0.0, 0.0, 0.0, 0.0, 0.0, 0.0, 0.0, 0.20802305126869841, 0.12209695998830082, 0.0, 0.0, 0.0, 0.0, 0.12209695998829904, 0.11867291957345448]
---
header: 
  seq: 738
  stamp: 
    secs: 1559674904
    nsecs: 880927633
  frame_id: map
pose: 
  pose: 
    position: 
      x: 0.383525712329
      y: -12.7240714024
      z: 0.0
    orientation: 
      x: 0.0
      y: 0.0
      z: 0.998677509738
      w: 0.0514123676183
  covariance: [0.0067429637771169674, 0.0, 0.0, 0.0, 0.0, 0.0, 0.0, 0.0, 0.0, 0.0, 0.0, 0.0, 0.0, 0.0, 0.0, 0.0, 0.0, 0.0, 0.0, 0.0, 0.0, 0.0, 0.0, 0.0, 0.0, 0.0, 0.0, 0.0, 0.12681550084970819, 0.054892102048589207, 0.0, 0.0, 0.0, 0.0, 0.054892102048589207, 0.057376857204890462]
---
header: 
  seq: 739
  stamp: 
    secs: 1559674905
    nsecs: 794589856
  frame_id: map
pose: 
  pose: 
    position: 
      x: -0.256467826757
      y: -12.6504527414
      z: 0.0
    orientation: 
      x: 0.0
      y: 0.0
      z: 0.995383120353
      w: 0.0959814759061
  covariance: [0.0056271524524441167, 0.0, 0.0, 0.0, 0.0, 0.0, 0.0, 0.0, 0.0, 0.0, 0.0, 0.0, 0.0, 0.0, 0.0, 0.0, 0.0, 0.0, 0.0, 0.0, 0.0, 0.0, 0.0, 0.0, 0.0, 0.0, 0.0, 0.0, 0.066271880161833455, 0.042653028414445737, 0.0, 0.0, 0.0, 0.0, 0.042653028414445737, 0.05079468545035052]
---
header: 
  seq: 740
  stamp: 
    secs: 1559674906
    nsecs: 879295958
  frame_id: map
pose: 
  pose: 
    position: 
      x: -0.794152636451
      y: -12.549889128
      z: 0.0
    orientation: 
      x: 0.0
      y: 0.0
      z: 0.986441445845
      w: 0.164113600651
  covariance: [0.0037034775403569317, 0.0, 0.0, 0.0, 0.0, 0.0, 0.0, 0.0, 0.0, 0.0, 0.0, 0.0, 0.0, 0.0, 0.0, 0.0, 0.0, 0.0, 0.0, 0.0, 0.0, 0.0, 0.0, 0.0, 0.0, 0.0, 0.0, 0.0, 0.016289067686598439, 0.00051360693785785789, 0.0, 0.0, 0.0, 0.0, 0.00051360693785785789, 0.0094012919738870222]
---
header: 
  seq: 741
  stamp: 
    secs: 1559674911
    nsecs: 872095887
  frame_id: map
pose: 
  pose: 
    position: 
      x: -1.11877064807
      y: -12.2656270738
      z: 0.0
    orientation: 
      x: 0.0
      y: 0.0
      z: 0.826262633126
      w: 0.563285062025
  covariance: [0.0039028946165383833, 0.0, 0.0, 0.0, 0.0, 0.0, 0.0, 0.0, 0.0, 0.0, 0.0, 0.0, 0.0, 0.0, 0.0, 0.0, 0.0, 0.0, 0.0, 0.0, 0.0, 0.0, 0.0, 0.0, 0.0, 0.0, 0.0, 0.0, 0.013641274426428297, 0.00083613515774520395, 0.0, 0.0, 0.0, 0.0, 0.00083613515774520395, 0.0092578253880590908]
---
header: 
  seq: 742
  stamp: 
    secs: 1559674927
    nsecs: 176078654
  frame_id: map
pose: 
  pose: 
    position: 
      x: -1.14631504064
      y: -11.7288454059
      z: 0.0
    orientation: 
      x: 0.0
      y: 0.0
      z: 0.734093457607
      w: 0.679048448565
  covariance: [0.00505613935333416, 0.0, 0.0, 0.0, 0.0, 0.0, 0.0, 0.0, 0.0, 0.0, 0.0, 0.0, 0.0, 0.0, 0.0, 0.0, 0.0, 0.0, 0.0, 0.0, 0.0, 0.0, 0.0, 0.0, 0.0, 0.0, 0.0, 0.0, 0.010140435722371773, 0.001435828972730425, 0.0, 0.0, 0.0, 0.0, 0.001435828972730425, 0.0094601721554545479]
---
header: 
  seq: 743
  stamp: 
    secs: 1559674946
    nsecs: 809521856
  frame_id: map
pose: 
  pose: 
    position: 
      x: -1.10622829611
      y: -11.7331873306
      z: 0.0
    orientation: 
      x: 0.0
      y: 0.0
      z: 0.73242572592
      w: 0.680846940222
  covariance: [0.0049723944616543213, 0.0, 0.0, 0.0, 0.0, 0.0, 0.0, 0.0, 0.0, 0.0, 0.0, 0.0, 0.0, 0.0, 0.0, 0.0, 0.0, 0.0, 0.0, 0.0, 0.0, 0.0, 0.0, 0.0, 0.0, 0.0, 0.0, 0.0, 0.0072037819412316146, 0.00083316044851361188, 0.0, 0.0, 0.0, 0.0, 0.00083316044851361188, 0.0080191764456978634]
---
header: 
  seq: 744
  stamp: 
    secs: 1559674948
    nsecs: 512322368
  frame_id: map
pose: 
  pose: 
    position: 
      x: -1.07385212909
      y: -12.2382196076
      z: 0.0
    orientation: 
      x: 0.0
      y: 0.0
      z: 0.733126261577
      w: 0.680092555897
  covariance: [0.0049938894204212148, 0.0, 0.0, 0.0, 0.0, 0.0, 0.0, 0.0, 0.0, 0.0, 0.0, 0.0, 0.0, 0.0, 0.0, 0.0, 0.0, 0.0, 0.0, 0.0, 0.0, 0.0, 0.0, 0.0, 0.0, 0.0, 0.0, 0.0, 0.0058048857479479519, 0.00038232615103211287, 0.0, 0.0, 0.0, 0.0, 0.00038232615103211287, 0.0075793352745736654]
---
header: 
  seq: 745
  stamp: 
    secs: 1559674953
    nsecs: 480179259
  frame_id: map
pose: 
  pose: 
    position: 
      x: -1.02328313514
      y: -12.4319529487
      z: 0.0
    orientation: 
      x: 0.0
      y: 0.0
      z: 0.253913786917
      w: 0.967226854886
  covariance: [0.0092957244973451581, 0.0, 0.0, 0.0, 0.0, 0.0, 0.0, 0.0, 0.0, 0.0, 0.0, 0.0, 0.0, 0.0, 0.0, 0.0, 0.0, 0.0, 0.0, 0.0, 0.0, 0.0, 0.0, 0.0, 0.0, 0.0, 0.0, 0.0, 0.0093018556069206088, 0.001031379648251997, 0.0, 0.0, 0.0, 0.0, 0.001031379648251997, 0.0086947506900555156]
---
header: 
  seq: 746
  stamp: 
    secs: 1559674954
    nsecs: 980513890
  frame_id: map
pose: 
  pose: 
    position: 
      x: -0.533676878477
      y: -12.4076757384
      z: 0.0
    orientation: 
      x: 0.0
      y: 0.0
      z: -0.0577714794815
      w: 0.998329833351
  covariance: [0.0096624905602746228, 0.0, 0.0, 0.0, 0.0, 0.0, 0.0, 0.0, 0.0, 0.0, 0.0, 0.0, 0.0, 0.0, 0.0, 0.0, 0.0, 0.0, 0.0, 0.0, 0.0, 0.0, 0.0, 0.0, 0.0, 0.0, 0.0, 0.0, 0.010083164876609456, 0.0020078425456016946, 0.0, 0.0, 0.0, 0.0, 0.0020078425456016946, 0.0093995562590974534]
---
header: 
  seq: 747
  stamp: 
    secs: 1559674955
    nsecs: 878018884
  frame_id: map
pose: 
  pose: 
    position: 
      x: 0.0554372413336
      y: -12.5526107201
      z: 0.0
    orientation: 
      x: 0.0
      y: 0.0
      z: -0.112305587866
      w: 0.993673716536
  covariance: [0.008677799353282183, 0.0, 0.0, 0.0, 0.0, 0.0, 0.0, 0.0, 0.0, 0.0, 0.0, 0.0, 0.0, 0.0, 0.0, 0.0, 0.0, 0.0, 0.0, 0.0, 0.0, 0.0, 0.0, 0.0, 0.0, 0.0, 0.0, 0.0, 0.013637091365516545, 0.0026498335697668772, 0.0, 0.0, 0.0, 0.0, 0.0026498335697669882, 0.0096736528414221711]
---
header: 
  seq: 748
  stamp: 
    secs: 1559674956
    nsecs: 670996821
  frame_id: map
pose: 
  pose: 
    position: 
      x: 0.630151847605
      y: -12.7388892471
      z: 0.0
    orientation: 
      x: 0.0
      y: 0.0
      z: -0.099780827734
      w: 0.995009440366
  covariance: [0.010003257949532027, 0.0, 0.0, 0.0, 0.0, 0.0, 0.0, 0.0, 0.0, 0.0, 0.0, 0.0, 0.0, 0.0, 0.0, 0.0, 0.0, 0.0, 0.0, 0.0, 0.0, 0.0, 0.0, 0.0, 0.0, 0.0, 0.0, 0.0, 0.02303989951374133, 0.0043817021309986081, 0.0, 0.0, 0.0, 0.0, 0.0043817021309986081, 0.01090121958953932]
---
header: 
  seq: 749
  stamp: 
    secs: 1559674957
    nsecs: 479508074
  frame_id: map
pose: 
  pose: 
    position: 
      x: 1.2959499146
      y: -12.8335243468
      z: 0.0
    orientation: 
      x: 0.0
      y: 0.0
      z: -0.0459774654234
      w: 0.998942477159
  covariance: [0.011350076145371788, 0.0, 0.0, 0.0, 0.0, 0.0, 0.0, 0.0, 0.0, 0.0, 0.0, 0.0, 0.0, 0.0, 0.0, 0.0, 0.0, 0.0, 0.0, 0.0, 0.0, 0.0, 0.0, 0.0, 0.0, 0.0, 0.0, 0.0, 0.037461673009101311, 0.0064756695699648174, 0.0, 0.0, 0.0, 0.0, 0.0064756695699648174, 0.011725050510173951]
---
header: 
  seq: 750
  stamp: 
    secs: 1559674958
    nsecs: 283934152
  frame_id: map
pose: 
  pose: 
    position: 
      x: 1.93551531304
      y: -12.9074657385
      z: 0.0
    orientation: 
      x: 0.0
      y: 0.0
      z: -0.01479698473
      w: 0.999890518628
  covariance: [0.013084591938515232, 0.0, 0.0, 0.0, 0.0, 0.0, 0.0, 0.0, 0.0, 0.0, 0.0, 0.0, 0.0, 0.0, 0.0, 0.0, 0.0, 0.0, 0.0, 0.0, 0.0, 0.0, 0.0, 0.0, 0.0, 0.0, 0.0, 0.0, 0.061136570655561488, 0.0097748328793147224, 0.0, 0.0, 0.0, 0.0, 0.0097748328793147224, 0.012619252324017401]
---
header: 
  seq: 751
  stamp: 
    secs: 1559674958
    nsecs: 984492205
  frame_id: map
pose: 
  pose: 
    position: 
      x: 2.44740085003
      y: -12.9523497597
      z: 0.0
    orientation: 
      x: 0.0
      y: 0.0
      z: 0.0136502418896
      w: 0.999906831108
  covariance: [0.012012766985677355, 0.0, 0.0, 0.0, 0.0, 0.0, 0.0, 0.0, 0.0, 0.0, 0.0, 0.0, 0.0, 0.0, 0.0, 0.0, 0.0, 0.0, 0.0, 0.0, 0.0, 0.0, 0.0, 0.0, 0.0, 0.0, 0.0, 0.0, 0.078257795236813199, 0.010373307979489469, 0.0, 0.0, 0.0, 0.0, 0.010373307979489469, 0.012301743233714722]
---
header: 
  seq: 752
  stamp: 
    secs: 1559674959
    nsecs: 672902078
  frame_id: map
pose: 
  pose: 
    position: 
      x: 2.98803140119
      y: -12.9622438889
      z: 0.0
    orientation: 
      x: 0.0
      y: 0.0
      z: 0.035651376502
      w: 0.999364287612
  covariance: [0.010685819790802886, 0.0, 0.0, 0.0, 0.0, 0.0, 0.0, 0.0, 0.0, 0.0, 0.0, 0.0, 0.0, 0.0, 0.0, 0.0, 0.0, 0.0, 0.0, 0.0, 0.0, 0.0, 0.0, 0.0, 0.0, 0.0, 0.0, 0.0, 0.086972472666276127, 0.008638507078371457, 0.0, 0.0, 0.0, 0.0, 0.008638507078371457, 0.011241073199349945]
---
header: 
  seq: 753
  stamp: 
    secs: 1559674960
